Route,Location,URL,"Avg Stars","Your Stars","Route Type",Rating,Pitches,Length,"Area Latitude","Area Longitude"
"Learning to Fly","Prophecy Wall > West Side > Horseshoe Canyon Ranch > North-Central Arkansas > Arkansas",https://www.mountainproject.com/route/106049435/learning-to-fly,3.6,-1,Sport,5.10c,1,55,36.00388,-93.29631
"Mr. Magoo","Magoo Rock > East Side > Horseshoe Canyon Ranch > North-Central Arkansas > Arkansas",https://www.mountainproject.com/route/106048532/mr-magoo,3.5,-1,Sport,5.10c,1,55,36.00549,-93.2861
"Ceasar's Tossed Salad","Roman Wall > East Side > Horseshoe Canyon Ranch > North-Central Arkansas > Arkansas",https://www.mountainproject.com/route/106028601/ceasars-tossed-salad,3.1,-1,Sport,5.10c,1,75,36.00546,-93.2851
"Job 3:25 (aka No Fear)","Chickenhead Wall > 4. East Main Bluff > Sam's Throne > Sam's Throne & Surroundings > North-Central Arkansas > Arkansas",https://www.mountainproject.com/route/106145431/job-325-aka-no-fear,3.5,-1,Sport,5.10c,1,80,35.8727,-93.04975
"Deer Camp","Hudson Mountain > Cowell > Cowell/Deer Area > North-Central Arkansas > Arkansas",https://www.mountainproject.com/route/110196951/deer-camp,2.9,-1,Sport,5.10c,1,50,35.85138,-93.12402
"Flammin Piss","VD Wall > Jamestown Crag > Northeast Arkansas Region > Arkansas",https://www.mountainproject.com/route/106407929/flammin-piss,3.8,-1,Sport,5.10c,1,90,35.6604,-91.7539
"Meet the Creeper","Haunted Wall > Haunt Hollow > Cowell/Deer Area > North-Central Arkansas > Arkansas",https://www.mountainproject.com/route/118722565/meet-the-creeper,4.0,-1,Sport,5.10c,1,55,35.89646,-93.28453
"Inherit the Wind","Dead Dog & Energamata Walls > 4. East Main Bluff > Sam's Throne > Sam's Throne & Surroundings > North-Central Arkansas > Arkansas",https://www.mountainproject.com/route/105905977/inherit-the-wind,3.4,-1,Sport,5.10c,1,65,35.87344,-93.04724
"In The Crack Or On Your Back","Walls Of Moria > West Side > Horseshoe Canyon Ranch > North-Central Arkansas > Arkansas",https://www.mountainproject.com/route/110264400/in-the-crack-or-on-your-back,3.5,-1,Trad,5.10c,1,50,36.00196,-93.29396
Sanctified,"Slackline Pillar > Stack Rock > Richland Creek Area > North-Central Arkansas > Arkansas",https://www.mountainproject.com/route/109475378/sanctified,3.1,-1,Sport,5.10c,1,50,35.88715,-92.90916
"Dog Crap Broken Fingers","The Land Beyond Routes > North Side > Horseshoe Canyon Ranch > North-Central Arkansas > Arkansas",https://www.mountainproject.com/route/108369621/dog-crap-broken-fingers,2.8,-1,Sport,5.10c,1,40,36.00982,-93.29337
"Another Shorty in the Forty","The Land Beyond Routes > North Side > Horseshoe Canyon Ranch > North-Central Arkansas > Arkansas",https://www.mountainproject.com/route/107603184/another-shorty-in-the-forty,2.9,-1,Sport,5.10c,1,35,36.00982,-93.29337
"Sonya Come Home","4. Crag Central > Mt. Magazine Proper > Mount Magazine State Park > River Valley and Ouachitas Region > Arkansas",https://www.mountainproject.com/route/106208020/sonya-come-home,3.4,-1,Sport,5.10c,1,55,35.16291,-93.64656
"Sonrisa Loco","Kindergarten Boulder > North Side > Horseshoe Canyon Ranch > North-Central Arkansas > Arkansas",https://www.mountainproject.com/route/107826069/sonrisa-loco,2.3,-1,Sport,5.10c,1,25,36.00878,-93.29377
"Midnight Special","Painters Bluff > Northeast Arkansas Region > Arkansas",https://www.mountainproject.com/route/107933680/midnight-special,4.0,-1,Sport,5.10c,2,200,35.8683,-91.8484
"Cat on a Hot Tin Roof","Chickenhead Wall > 4. East Main Bluff > Sam's Throne > Sam's Throne & Surroundings > North-Central Arkansas > Arkansas",https://www.mountainproject.com/route/105902899/cat-on-a-hot-tin-roof,3.3,-1,Trad,5.10c,1,70,35.8727,-93.04975
"No Remorse","Haw Creek West (Valinor) > Haw Creek > Big Piney Region > North-Central Arkansas > Arkansas",https://www.mountainproject.com/route/110999764/no-remorse,3.6,-1,Sport,5.10c,1,70,35.67881,-93.25613
Troubador,"Mullet Buttress > East Side > Horseshoe Canyon Ranch > North-Central Arkansas > Arkansas",https://www.mountainproject.com/route/118975955/troubador,3.7,-1,Sport,5.10c,1,35,36.0118,-93.2922
"Clowning of the Chode","Hudson Mountain > Cowell > Cowell/Deer Area > North-Central Arkansas > Arkansas",https://www.mountainproject.com/route/112565337/clowning-of-the-chode,3.0,-1,Trad,5.10c,1,40,35.85138,-93.12402
"Cowboys and Angels","Bleeder Boulder > Fern > Northwest Arkansas (NWA) Region > Arkansas",https://www.mountainproject.com/route/109376904/cowboys-and-angels,3.0,-1,Sport,5.10c,1,40,35.61544,-94.00783
Checkmate,"Game Wall > Jamestown Crag > Northeast Arkansas Region > Arkansas",https://www.mountainproject.com/route/106410455/checkmate,3.1,-1,Sport,5.10c,1,50,35.66687,-91.75834
"Queen Bee","Candy Mountain > Sam's Throne & Surroundings > North-Central Arkansas > Arkansas",https://www.mountainproject.com/route/118801985/queen-bee,3.2,-1,Sport,5.10c,1,65,35.8447,-93.0459
"Cally's Flakes","Chickenhead Wall > 4. East Main Bluff > Sam's Throne > Sam's Throne & Surroundings > North-Central Arkansas > Arkansas",https://www.mountainproject.com/route/105902895/callys-flakes,3.3,-1,Trad,5.10c,1,65,35.8727,-93.04975
"How's Your Prop?","City Rock Proper > City Rock Bluff > Northeast Arkansas Region > Arkansas",https://www.mountainproject.com/route/121315651/hows-your-prop,3.5,-1,Sport,5.10c,1,30,36.10266,-92.18572
"The Spice is Right","Fern Gulley > Invasion Area > Cowell > Cowell/Deer Area > North-Central Arkansas > Arkansas",https://www.mountainproject.com/route/111413002/the-spice-is-right,3.1,-1,Sport,5.10c,1,60,35.87561,-93.12678
"Paco's Taco","Main Wall > North Side > Lake Lincoln > Northwest Arkansas (NWA) Region > Arkansas",https://www.mountainproject.com/route/111679971/pacos-taco,2.6,-1,Sport,5.10c,1,30,35.99998,-94.42647
"Crème Brûlée","Candy Mountain > Sam's Throne & Surroundings > North-Central Arkansas > Arkansas",https://www.mountainproject.com/route/119775878/creme-brulee,3.1,-1,Sport,5.10c,1,35,35.8447,-93.0459
"Cracked Rib","Titanic Boulder > West Side > Horseshoe Canyon Ranch > North-Central Arkansas > Arkansas",https://www.mountainproject.com/route/105965243/cracked-rib,1.9,-1,Sport,5.10c,1,30,36.0053,-93.2973
"The Tempest","The Arcade > West Side > Horseshoe Canyon Ranch > North-Central Arkansas > Arkansas",https://www.mountainproject.com/route/119385980/the-tempest,2.8,-1,Sport,5.10c,1,50,36.00314,-93.2947
"Bearded Lady","North Forty Routes > North Side > Horseshoe Canyon Ranch > North-Central Arkansas > Arkansas",https://www.mountainproject.com/route/112324186/bearded-lady,2.8,-1,Trad,5.10c,1,40,36.00881,-93.29549
"Tyler's B-Day","Titanic Boulder > West Side > Horseshoe Canyon Ranch > North-Central Arkansas > Arkansas",https://www.mountainproject.com/route/107109773/tylers-b-day,2.1,-1,Sport,5.10c,1,20,36.0053,-93.2973
"Cole Mining","Cool Breeze Area > Cave Creek > Sam's Throne & Surroundings > North-Central Arkansas > Arkansas",https://www.mountainproject.com/route/116691511/cole-mining,3.0,-1,Sport,5.10c,1,60,35.8439,-93.0574
"Knob Creek","Walls Of Moria > West Side > Horseshoe Canyon Ranch > North-Central Arkansas > Arkansas",https://www.mountainproject.com/route/106243484/knob-creek,3.0,-1,Sport,5.10c,1,50,36.00196,-93.29396
"Jug Me Tender","Seed Wall > 2. The Outback > Sam's Throne > Sam's Throne & Surroundings > North-Central Arkansas > Arkansas",https://www.mountainproject.com/route/111136725/jug-me-tender,3.0,-1,Sport,5.10c,1,40,35.88049,-93.04828
"Green Eggs and Spam","Dead Dog & Energamata Walls > 4. East Main Bluff > Sam's Throne > Sam's Throne & Surroundings > North-Central Arkansas > Arkansas",https://www.mountainproject.com/route/105941949/green-eggs-and-spam,3.0,-1,Trad,5.10c,1,70,35.87344,-93.04724
"Cowboy Dan","MTA Wall > Stack Rock > Richland Creek Area > North-Central Arkansas > Arkansas",https://www.mountainproject.com/route/114174241/cowboy-dan,2.8,-1,Sport,5.10c,1,50,35.88549,-92.90904
"Bad Bolt","Main Wall > North Side > Lake Lincoln > Northwest Arkansas (NWA) Region > Arkansas",https://www.mountainproject.com/route/109137626/bad-bolt,2.5,-1,"Sport, TR",5.10c,1,35,35.99998,-94.42647
"Chilli Dog","All American Wall > Prohibition > Richland Creek Area > North-Central Arkansas > Arkansas",https://www.mountainproject.com/route/108151914/chilli-dog,2.7,-1,Sport,5.10c,1,60,35.8629,-92.904
"Something Cool","Shadow Wall > Western Influence > Sam's Throne & Surroundings > North-Central Arkansas > Arkansas",https://www.mountainproject.com/route/120172334/something-cool,3.0,-1,Sport,5.10c,1,55,35.84177,-93.05123
"Hello Kitty","Dead Dog & Energamata Walls > 4. East Main Bluff > Sam's Throne > Sam's Throne & Surroundings > North-Central Arkansas > Arkansas",https://www.mountainproject.com/route/112308135/hello-kitty,2.0,-1,Sport,5.10c,1,60,35.87344,-93.04724
"Swine Flu","2. Breakfast Wall > Mt. Magazine Proper > Mount Magazine State Park > River Valley and Ouachitas Region > Arkansas",https://www.mountainproject.com/route/119750303/swine-flu,3.0,-1,Trad,"5.10c PG13",1,55,35.16312,-93.64745
MTV,"MMA Wall > Area 51 > Bigfoot Hollow > Northwest Arkansas (NWA) Region > Arkansas",https://www.mountainproject.com/route/114064603/mtv,3.0,-1,Sport,5.10c,1,35,35.64349,-93.88352
"Chockstone Press","Arachnophobia, Dark Side, & International Walls > 3. West Main Bluff > Sam's Throne > Sam's Throne & Surroundings > North-Central Arkansas > Arkansas",https://www.mountainproject.com/route/106179017/chockstone-press,3.0,-1,Trad,5.10c,1,80,35.87522,-93.04864
"Ork and Indy","Ork Wall > Stack Rock > Richland Creek Area > North-Central Arkansas > Arkansas",https://www.mountainproject.com/route/107876134/ork-and-indy,2.8,-1,Sport,5.10c,1,40,35.8829,-92.9113
"Pork Soda","Outback Wall > 2. The Outback > Sam's Throne > Sam's Throne & Surroundings > North-Central Arkansas > Arkansas",https://www.mountainproject.com/route/118040656/pork-soda,2.4,-1,Sport,5.10c,1,45,35.88049,-93.04828
"Oompa Loompa","Candy Mountain > Sam's Throne & Surroundings > North-Central Arkansas > Arkansas",https://www.mountainproject.com/route/120146238/oompa-loompa,2.5,-1,Sport,5.10c,1,35,35.8447,-93.0459
"Black Opera","Rhyme or Reason Wall > Area 51 > Bigfoot Hollow > Northwest Arkansas (NWA) Region > Arkansas",https://www.mountainproject.com/route/114064760/black-opera,2.7,-1,Sport,5.10c,1,45,35.64006,-93.88165
"The Romaniac","Kindergarten Boulder > North Side > Horseshoe Canyon Ranch > North-Central Arkansas > Arkansas",https://www.mountainproject.com/route/109567319/the-romaniac,2.1,-1,Sport,5.10c,1,30,36.00878,-93.29377
"Bald Man Games","Natural Disaster Area > Jamestown Crag > Northeast Arkansas Region > Arkansas",https://www.mountainproject.com/route/106566226/bald-man-games,2.4,-1,Sport,5.10c,1,,35.6604,-91.7539
"Sweet Tooth","Candy Mountain > Sam's Throne & Surroundings > North-Central Arkansas > Arkansas",https://www.mountainproject.com/route/112315860/sweet-tooth,2.3,-1,Sport,5.10c,1,40,35.8447,-93.0459
"Silver Lisp","Nipple Stimulation Alcove > Middle East > East Side > Horseshoe Canyon Ranch > North-Central Arkansas > Arkansas",https://www.mountainproject.com/route/118018688/silver-lisp,2.3,-1,Sport,5.10c,1,40,36.00674,-93.28721
Wonkamobile,"Candy Mountain > Sam's Throne & Surroundings > North-Central Arkansas > Arkansas",https://www.mountainproject.com/route/120478058/wonkamobile,2.3,-1,Sport,5.10c,1,45,35.8447,-93.0459
"Fruit Bowl","Meat Walls > Cave Creek > Sam's Throne & Surroundings > North-Central Arkansas > Arkansas",https://www.mountainproject.com/route/118776535/fruit-bowl,2.5,-1,Sport,5.10c,1,40,35.84203,-93.05528
"Flake Tectonics","Walls Of Moria > West Side > Horseshoe Canyon Ranch > North-Central Arkansas > Arkansas",https://www.mountainproject.com/route/122970226/flake-tectonics,3.0,-1,Sport,5.10c,1,60,36.00196,-93.29396
"Toe Cutter","Road Warrior Area > Lake Lincoln > Northwest Arkansas (NWA) Region > Arkansas",https://www.mountainproject.com/route/113772868/toe-cutter,2.3,-1,Sport,5.10c,1,45,35.99669,-94.41745
Redrum,"Rosie's Cantina Area > Middle East > East Side > Horseshoe Canyon Ranch > North-Central Arkansas > Arkansas",https://www.mountainproject.com/route/109604741/redrum,2.2,-1,Sport,5.10c,1,50,36.00644,-93.28695
"Evil Ryu","Street Fighter Wall > West Side > Horseshoe Canyon Ranch > North-Central Arkansas > Arkansas",https://www.mountainproject.com/route/112285393/evil-ryu,3.0,-1,Sport,5.10c,1,,36.00343,-93.29512
"Three Amigos","Waterfall Area > Jamestown Crag > Northeast Arkansas Region > Arkansas",https://www.mountainproject.com/route/109782747/three-amigos,2.3,-1,Sport,5.10c,1,,35.6604,-91.7539
"Living on the Edge","Natural Disaster Area > Jamestown Crag > Northeast Arkansas Region > Arkansas",https://www.mountainproject.com/route/109119296/living-on-the-edge,2.3,-1,Sport,5.10c,1,,35.6604,-91.7539
"The Fun Has Just Begun","P.K. Boulder > Fern > Northwest Arkansas (NWA) Region > Arkansas",https://www.mountainproject.com/route/107470393/the-fun-has-just-begun,2.2,-1,Sport,5.10c,1,35,35.61747,-94.00798
"Gracious Gift","Valley of The Blind > Sam's Throne & Surroundings > North-Central Arkansas > Arkansas",https://www.mountainproject.com/route/114030086/gracious-gift,2.0,-1,Sport,5.10c,1,60,35.86384,-93.04812
Towely,"North Forty Routes > North Side > Horseshoe Canyon Ranch > North-Central Arkansas > Arkansas",https://www.mountainproject.com/route/110393004/towely,2.0,-1,Sport,5.10c,1,40,36.00881,-93.29549
1865,"Ivory Coast Wall > Lake Lincoln > Northwest Arkansas (NWA) Region > Arkansas",https://www.mountainproject.com/route/112278900/1865,2.0,-1,"Sport, TR",5.10c,1,45,35.9952,-94.41815
"Spanky Goes To Hollywood","Hudson Mountain > Cowell > Cowell/Deer Area > North-Central Arkansas > Arkansas",https://www.mountainproject.com/route/110233680/spanky-goes-to-hollywood,2.0,-1,Sport,5.10c,1,45,35.85138,-93.12402
Silverfish,"Land of the Little People > Invasion Area > Cowell > Cowell/Deer Area > North-Central Arkansas > Arkansas",https://www.mountainproject.com/route/112874499/silverfish,2.0,-1,Sport,5.10c,1,35,35.87327,-93.12659
"K. A.","Cowboy Boulder > Fern > Northwest Arkansas (NWA) Region > Arkansas",https://www.mountainproject.com/route/119725557/k-a,2.0,-1,Sport,5.10c,1,30,35.61683,-94.00806
Cling-On,"2. Breakfast Wall > Mt. Magazine Proper > Mount Magazine State Park > River Valley and Ouachitas Region > Arkansas",https://www.mountainproject.com/route/112793301/cling-on,2.0,-1,Sport,5.10c,1,30,35.16312,-93.64745
"Swamp Thing","Dead Dog & Energamata Walls > 4. East Main Bluff > Sam's Throne > Sam's Throne & Surroundings > North-Central Arkansas > Arkansas",https://www.mountainproject.com/route/105906179/swamp-thing,2.5,-1,"Trad, Sport",5.10c,1,65,35.87344,-93.04724
"Blood and Thunder","Confederate Cracks > West Side > Horseshoe Canyon Ranch > North-Central Arkansas > Arkansas",https://www.mountainproject.com/route/116741816/blood-and-thunder,2.5,-1,Sport,5.10c,1,60,36.00132,-93.29346
"Gay Mafia","Happy Wall > Fern > Northwest Arkansas (NWA) Region > Arkansas",https://www.mountainproject.com/route/112908247/gay-mafia,2.0,-1,Sport,5.10c,1,35,35.61414,-94.01134
Beerless,"The Tombstone > Cowell > Cowell/Deer Area > North-Central Arkansas > Arkansas",https://www.mountainproject.com/route/111664619/beerless,2.0,-1,Sport,5.10c,1,40,35.88895,-93.13044
"No Shadow of Darkness","Valley of The Blind > Sam's Throne & Surroundings > North-Central Arkansas > Arkansas",https://www.mountainproject.com/route/105941926/no-shadow-of-darkness,2.0,-1,Trad,5.10c,1,70,35.86384,-93.04812
"Cross bar","Upper Pilots knob > Pilots Knob > Buffalo River Region > North-Central Arkansas > Arkansas",https://www.mountainproject.com/route/108604236/cross-bar,2.0,-1,Sport,5.10c,1,35,36.24113,-93.22524
"Spooky Bitch (unknown)","The Tomb > Rock Creek > Big Piney Region > North-Central Arkansas > Arkansas",https://www.mountainproject.com/route/123407427/spooky-bitch-unknown,2.0,-1,Sport,5.10c,1,60,35.7469,-93.26835
"Golden Path","2. Swing Station > Fitzgerald South Area > Fitzgerald Mountain > Northwest Arkansas (NWA) Region > Arkansas",https://www.mountainproject.com/route/124961677/golden-path,3.3,-1,Sport,5.10c,1,38,36.20286,-94.10329
"Spinal Tap","2. Swing Station > Fitzgerald South Area > Fitzgerald Mountain > Northwest Arkansas (NWA) Region > Arkansas",https://www.mountainproject.com/route/124962145/spinal-tap,2.9,-1,Sport,5.10c,1,45,36.20286,-94.10329
"Welcome Wagon","1. Schoolhouse > Fitzgerald South Area > Fitzgerald Mountain > Northwest Arkansas (NWA) Region > Arkansas",https://www.mountainproject.com/route/124970521/welcome-wagon,2.3,-1,Sport,5.10c,1,30,36.20325,-94.10297
"Buck Wild","The Hood > Cowell > Cowell/Deer Area > North-Central Arkansas > Arkansas",https://www.mountainproject.com/route/125086216/buck-wild,4.0,-1,Sport,5.10c,1,50,35.85884,-93.10949
