Route,Location,URL,"Avg Stars","Your Stars","Route Type",Rating,Pitches,Length,"Area Latitude","Area Longitude"
"The Yellow Spur","Redgarden - Tower One > Redgarden Wall > Eldorado Canyon State Park > Boulder > Colorado",https://www.mountainproject.com/route/105748657/the-yellow-spur,3.8,-1,Trad,5.9+,6,,39.93194,-105.28603
"Center Route","Cynical Pinnacle > Cathedral Spires Area > South Platte > Colorado",https://www.mountainproject.com/route/105748816/center-route,3.9,-1,Trad,5.9+,3,,39.42059,-105.25164
"The Martyr","Saint Peter's Overlook > Old Stage Road > Colorado Springs > Colorado",https://www.mountainproject.com/route/105756922/the-martyr,3.8,-1,Trad,5.9+,2,300,38.74613,-104.91559
"Edge of Time","The Fin > Jurassic Park - Lily Lake > CO Hwy 7 & Tributaries > Estes Park Valley > Colorado",https://www.mountainproject.com/route/105756826/edge-of-time,3.4,-1,"Sport, TR",5.9+,1,85,40.3127,-105.5411
"Hair City","The Bastille - W Face > The Bastille > Eldorado Canyon State Park > Boulder > Colorado",https://www.mountainproject.com/route/105748627/hair-city,3.6,-1,Trad,"5.9+ R",3,310,39.9304,-105.283
"The Green Spur","Redgarden - Lumpe to the top > Redgarden Wall > Eldorado Canyon State Park > Boulder > Colorado",https://www.mountainproject.com/route/105748645/the-green-spur,3.5,-1,Trad,5.9+,2,,39.93228,-105.28671
J-Crack,"J-Crack Slab Area > The Book > Lumpy Ridge > Estes Park Valley > Colorado",https://www.mountainproject.com/route/105748957/j-crack,3.6,-1,Trad,5.9+,4,,40.40556,-105.53398
"Sykes' Sickle","Spearhead > Glacier Gorge > RMNP - Rock > Alpine Rock > Colorado",https://www.mountainproject.com/route/105748499/sykes-sickle,3.4,-1,"Trad, Alpine",5.9+,7,900,40.2567,-105.63834
"Simians to the Sun","I. Watch Crystal > East  Animas > Durango > Colorado",https://www.mountainproject.com/route/105820922/simians-to-the-sun,3.5,-1,"Trad, Sport",5.9+,2,250,37.32033,-107.83351
"Fish and Chips","Creek Side > Clear Creek Canyon > Golden > Colorado",https://www.mountainproject.com/route/105763797/fish-and-chips,3.5,-1,Sport,5.9+,1,115,39.74102,-105.41042
"Russian Arete","Aretes > North Rim Routes > Black Canyon of the Gunnison > Gunnison > Colorado",https://www.mountainproject.com/route/105761052/russian-arete,3.1,-1,Trad,5.9+,6,,38.5874,-107.71815
Lunchmoney,"Lower Capitalist Crag > Capitalist Crag > Clear Creek Canyon > Golden > Colorado",https://www.mountainproject.com/route/105756478/lunchmoney,3.1,-1,Sport,5.9+,1,100,39.73948,-105.32756
"Solar Flare","Solar Slab > Red Rock Canyon Open Space > Colorado Springs > Colorado",https://www.mountainproject.com/route/105841903/solar-flare,3.1,-1,"Trad, Sport",5.9+,1,,38.845,-104.8823
"West Face","Bell Buttress - Main Crag > Bell Buttress Massif > Boulder Canyon > Boulder > Colorado",https://www.mountainproject.com/route/105750649/west-face,3.1,-1,Trad,5.9+,1,,40.0011,-105.413
Hemisphere,"The Icebox > Elevenmile Canyon > South Platte > Colorado",https://www.mountainproject.com/route/107199753/hemisphere,3.1,-1,Sport,5.9+,1,70,38.90773,-105.46008
"Ride The Snake","The Mission Wall > Clear Creek Canyon > Golden > Colorado",https://www.mountainproject.com/route/105761889/ride-the-snake,3.0,-1,Trad,5.9+,2,140,39.7392,-105.323
Enterprise,"Contest Wall > Sand Gulch > Shelf Road > Canon City > Colorado",https://www.mountainproject.com/route/105824687/enterprise,3.0,-1,Sport,5.9+,1,70,38.62148,-105.23217
"West Crack","Bell Buttress - Main Crag > Bell Buttress Massif > Boulder Canyon > Boulder > Colorado",https://www.mountainproject.com/route/105750652/west-crack,3.1,-1,Trad,5.9+,1,,40.0011,-105.413
"Alligator Soup","East Face > Kindergarten Rock > Garden of the Gods > Colorado Springs > Colorado",https://www.mountainproject.com/route/105762465/alligator-soup,3.0,-1,Sport,5.9+,2,140,38.87475,-104.87948
"Positively Fourth Street","West Ridge - part D - Xanadu to Pony Express > The West Ridge > Eldorado Canyon State Park > Boulder > Colorado",https://www.mountainproject.com/route/105749917/positively-fourth-street,2.9,-1,"Trad, TR",5.9+,1,70,39.93239,-105.28874
"By Gully","Castle Rock > Boulder Canyon > Boulder > Colorado",https://www.mountainproject.com/route/105760530/by-gully,3.0,-1,Trad,5.9+,1,30,39.9787,-105.4551
"Tuff Shed (aka B&C)","01. Piggy Bank > The Bank > Shelf Road > Canon City > Colorado",https://www.mountainproject.com/route/107025294/tuff-shed-aka-bc,2.9,-1,Sport,5.9+,1,70,38.63547,-105.23428
Peanuts,"Lower Peanuts > Peanuts Walls > Eldorado Canyon State Park > Boulder > Colorado",https://www.mountainproject.com/route/105755239/peanuts,2.9,-1,Trad,5.9+,1,,39.92885,-105.28656
"La Maudite","Outer Gates > The Monastery > Big Thompson Canyon > Estes Park Valley > Colorado",https://www.mountainproject.com/route/105761103/la-maudite,2.9,-1,Sport,5.9+,1,100,40.45293,-105.369
"Morning Thunder","West Ridge - part A - Verschneidung to base > The West Ridge > Eldorado Canyon State Park > Boulder > Colorado",https://www.mountainproject.com/route/105749632/morning-thunder,2.8,-1,Trad,5.9+,1,,39.93063,-105.28689
"First Impressions","Little Eiger > Clear Creek Canyon > Golden > Colorado",https://www.mountainproject.com/route/105749461/first-impressions,2.7,-1,Sport,5.9+,1,80,39.7432,-105.2991
Io,"3. Astronomy Wall > The Pooka > Staunton Rocks > Staunton State Park > South Platte > Colorado",https://www.mountainproject.com/route/113539087/io,2.8,-1,Sport,5.9+,1,,39.51595,-105.39306
"Credibility Gap","West Side > South Gateway Rock > Garden of the Gods > Colorado Springs > Colorado",https://www.mountainproject.com/route/105755446/credibility-gap,2.7,-1,Sport,5.9+,2,,38.87785,-104.88069
"Curving Crack","Castle Rock > Boulder Canyon > Boulder > Colorado",https://www.mountainproject.com/route/105749293/curving-crack,2.7,-1,Trad,5.9+,1,,39.9787,-105.4551
"Crescent Corner","East Side > South Gateway Rock > Garden of the Gods > Colorado Springs > Colorado",https://www.mountainproject.com/route/105753649/crescent-corner,2.7,-1,Sport,5.9+,2,100,38.87784,-104.88019
Barney,"Free Form Wall > Sand Gulch > Shelf Road > Canon City > Colorado",https://www.mountainproject.com/route/105749929/barney,2.7,-1,Sport,5.9+,1,,38.6218,-105.23101
"The Raven","D. Cactus Cliff Right (left of Funkdemental) > Cactus Cliff > Shelf Road > Canon City > Colorado",https://www.mountainproject.com/route/105755863/the-raven,2.7,-1,Sport,5.9+,1,75,38.63093,-105.22073
"Crystal Cat","The Catslab > Clear Creek Canyon > Golden > Colorado",https://www.mountainproject.com/route/111688326/crystal-cat,2.7,-1,Sport,5.9+,1,120,39.7428,-105.4043
B/C,"07. Back To The Future > The Bank > Shelf Road > Canon City > Colorado",https://www.mountainproject.com/route/105753451/bc,2.7,-1,Sport,5.9+,1,,38.63326,-105.23012
MacCavity,"The Catslab > Clear Creek Canyon > Golden > Colorado",https://www.mountainproject.com/route/105752512/maccavity,2.7,-1,Sport,5.9+,1,125,39.7428,-105.4043
"Wing Ding","Der Zerkle > Central > Flatirons > Boulder > Colorado",https://www.mountainproject.com/route/105748621/wing-ding,2.7,-1,"Sport, TR",5.9+,1,50,39.9741,-105.2881
Bananarte,"North Face > Crystal Wall > Poudre Canyon > Fort Collins > Colorado",https://www.mountainproject.com/route/107219523/bananarete,2.8,-1,Sport,5.9+,1,75,40.6936,-105.37656
"Fight or Flight","The Dark Side > Shelf Road > Canon City > Colorado",https://www.mountainproject.com/route/105863118/fight-or-flight,2.6,-1,Sport,5.9+,1,60,38.6281,-105.2239
Afterlife,"The Graveyard > Clear Creek Canyon > Golden > Colorado",https://www.mountainproject.com/route/114012359/afterlife,2.5,-1,Sport,5.9+,1,75,39.74438,-105.40288
"Storm Surge","Ripple Wall > Red Rock Canyon Open Space > Colorado Springs > Colorado",https://www.mountainproject.com/route/105867787/storm-surge,2.6,-1,Sport,5.9+,1,65,38.8449,-104.88099
"Sword In The Stone","First Tier > Avalon > Boulder Canyon > Boulder > Colorado",https://www.mountainproject.com/route/105862660/sword-in-the-stone,2.5,-1,Sport,5.9+,1,70,39.99885,-105.4124
"Pink Torpedo","01. Piggy Bank > The Bank > Shelf Road > Canon City > Colorado",https://www.mountainproject.com/route/106994501/pink-torpedo,2.5,-1,Sport,5.9+,2,,38.63547,-105.23428
"Last Call","Happy Hour Crag > Boulder Canyon > Boulder > Colorado",https://www.mountainproject.com/route/105748636/last-call,2.8,-1,"Trad, TR",5.9+,1,,40.0033,-105.3939
"Skunk Crack","Castle Rock > Boulder Canyon > Boulder > Colorado",https://www.mountainproject.com/route/105757534/skunk-crack,2.5,-1,Trad,5.9+,1,80,39.9787,-105.4551
2112,"10. 2150 Wall > The Bank > Shelf Road > Canon City > Colorado",https://www.mountainproject.com/route/109676270/2112,2.5,-1,Sport,5.9+,1,60,38.63179,-105.22852
"Devin's Dihedral","The Riviera > The Bihedral Area > Boulder Canyon > Boulder > Colorado",https://www.mountainproject.com/route/105748241/devins-dihedral,2.4,-1,"Trad, Sport, TR","5.9+ R",1,60,40.0034,-105.3959
"Dead Can Dance","Wall of the Dead > Second Tier > Avalon > Boulder Canyon > Boulder > Colorado",https://www.mountainproject.com/route/105757393/dead-can-dance,2.4,-1,Sport,5.9+,1,60,39.99836,-105.41199
"Baby Face Nelson","02. Bank Rob > The Bank > Shelf Road > Canon City > Colorado",https://www.mountainproject.com/route/106279330/baby-face-nelson,2.4,-1,Sport,5.9+,1,50,38.63553,-105.23225
"Sofa Kingdom","Mine Hole Crag > Boulder Canyon > Boulder > Colorado",https://www.mountainproject.com/route/105750685/sofa-kingdom,2.4,-1,Sport,5.9+,1,90,39.9984,-105.4164
"Cheerleaders Gone Hippie","The Poudre Face > The Palace > Poudre Canyon > Fort Collins > Colorado",https://www.mountainproject.com/route/105874008/cheerleaders-gone-hippie,2.3,-1,Sport,5.9+,1,70,40.69454,-105.37842
"The Undertaker","The Graveyard > Clear Creek Canyon > Golden > Colorado",https://www.mountainproject.com/route/114036204/the-undertaker,2.4,-1,Sport,5.9+,2,130,39.74438,-105.40288
"Coffin Crack","The Sports Wall > Clear Creek Canyon > Golden > Colorado",https://www.mountainproject.com/route/105755722/coffin-crack,2.5,-1,"Trad, TR",5.9+,1,83,39.74561,-105.24985
"Unfamiliar Strangers","Lower Animal World > Animal World > Boulder Canyon > Boulder > Colorado",https://www.mountainproject.com/route/105762684/unfamiliar-strangers,2.3,-1,Sport,5.9+,1,85,39.99752,-105.41522
Qs,"The Boulderado > Boulder Canyon > Boulder > Colorado",https://www.mountainproject.com/route/105748105/qs,2.5,-1,"Sport, TR",5.9+,1,,39.99738,-105.41615
"Deconstructing Harry","10. 2150 Wall > The Bank > Shelf Road > Canon City > Colorado",https://www.mountainproject.com/route/108844974/deconstructing-harry,2.4,-1,Sport,5.9+,1,80,38.63179,-105.22852
"The Black Crack","Castle Rock > Boulder Canyon > Boulder > Colorado",https://www.mountainproject.com/route/105749899/the-black-crack,2.3,-1,Trad,5.9+,1,,39.9787,-105.4551
"Gear Head","The Highlands aka Highlander > Clear Creek Canyon > Golden > Colorado",https://www.mountainproject.com/route/106451195/gear-head,2.4,-1,Trad,5.9+,1,75,39.73821,-105.3164
"Hot Potato","Middle Ice Caves (Potato Routes) > Ice Cave Walls > Rifle Mountain Park > Rifle > Colorado",https://www.mountainproject.com/route/105757243/hot-potato,2.3,-1,Sport,5.9+,1,70,39.71112,-107.69235
"Dumb Waiter","Menses Prow > The Gallery > Shelf Road > Canon City > Colorado",https://www.mountainproject.com/route/105752893/dumb-waiter,2.2,-1,Sport,5.9+,1,,38.6199,-105.2371
"Nurse Shark","The East Quarry > North Table Mountain/Golden Cliffs > Golden > Colorado",https://www.mountainproject.com/route/106396592/nurse-shark,2.4,-1,Trad,5.9+,1,40,39.77286,-105.20459
Snoopy,"The Dog House > Clear Creek Canyon > Golden > Colorado",https://www.mountainproject.com/route/105819372/snoopy,2.2,-1,Sport,5.9+,1,95,39.7436,-105.40788
"Is It Ready Yet...Moe","Lower Animal World > Animal World > Boulder Canyon > Boulder > Colorado",https://www.mountainproject.com/route/106107243/is-it-ready-yetmoe,2.1,-1,Sport,5.9+,1,80,39.99752,-105.41522
"Hueco Mania (submitted as Huecos Rancheros)","Penitente - Inner Canyon > Penitente Canyon > San Luis Valley > Colorado",https://www.mountainproject.com/route/105760152/hueco-mania-submitted-as-huecos-rancheros,2.2,-1,Sport,5.9+,1,50,37.84519,-106.28863
"Three Little Bats","B. First, Second, and Third Triangles > B. Upper Tier > Tiers of Zion > Lookout Mountain Road > Golden > Colorado",https://www.mountainproject.com/route/110517233/three-little-bats,2.5,-1,Sport,5.9+,1,100,39.74404,-105.24206
Gambino,"01. Piggy Bank > The Bank > Shelf Road > Canon City > Colorado",https://www.mountainproject.com/route/107018884/gambino,2.2,-1,Sport,5.9+,1,70,38.63547,-105.23428
"""Is Our Children Learning?""","Little Eiger > Clear Creek Canyon > Golden > Colorado",https://www.mountainproject.com/route/105985777/is-our-children-learning,2.1,-1,Sport,5.9+,1,115,39.7432,-105.2991
"Stone of Ignorance","Spiney Ridge > Shelf Road > Canon City > Colorado",https://www.mountainproject.com/route/105759102/stone-of-ignorance,2.1,-1,Sport,5.9+,1,55,38.6307,-105.2178
"Black Dog","The Dog House > Clear Creek Canyon > Golden > Colorado",https://www.mountainproject.com/route/106119076/black-dog,2.1,-1,Sport,5.9+,1,75,39.7436,-105.40788
"Gully Washer","Dream Dome > Upper Dream Canyon > Boulder > Colorado",https://www.mountainproject.com/route/105748553/gully-washer,2.1,-1,Sport,5.9+,1,,40.00952,-105.40892
"Wet Dreams","Dream Dome > Upper Dream Canyon > Boulder > Colorado",https://www.mountainproject.com/route/105834737/wet-dreams,2.1,-1,Sport,5.9+,1,70,40.00952,-105.40892
"What The Hey","Penitente - Entrance Area > Penitente Canyon > San Luis Valley > Colorado",https://www.mountainproject.com/route/105763161/what-the-hey,2.1,-1,Sport,5.9+,1,80,37.84401,-106.28755
"South Face","Castle Rock > Boulder Canyon > Boulder > Colorado",https://www.mountainproject.com/route/105750373/south-face,2.7,-1,Trad,5.9+,3,250,39.9787,-105.4551
"Junk in the Trunk","Wipeyur Buttress > Devil's Head > South Platte > Colorado",https://www.mountainproject.com/route/107152238/junk-in-the-trunk,2.0,-1,Sport,5.9+,1,80,39.25879,-105.10917
Tonto,"Scout Rock > South Fork of St. Vrain Canyon > St. Vrain Canyons > Lyons > Colorado",https://www.mountainproject.com/route/106430187/tonto,2.0,-1,Sport,5.9+,1,50,40.2037,-105.3111
"Eclipse This","Solar Slab > Red Rock Canyon Open Space > Colorado Springs > Colorado",https://www.mountainproject.com/route/106380548/eclipse-this,2.3,-1,Sport,5.9+,1,50,38.845,-104.8823
"Hume's Horror","Far Side > The Gallery > Shelf Road > Canon City > Colorado",https://www.mountainproject.com/route/107041112/humes-horror,2.4,-1,Sport,5.9+,1,40,38.6187,-105.2377
"Ordinary People","Penitente - Inner Canyon > Penitente Canyon > San Luis Valley > Colorado",https://www.mountainproject.com/route/105763005/ordinary-people,1.9,-1,Sport,"5.9+ R",1,50,37.84519,-106.28863
"Lazy Day","Lower Animal World > Animal World > Boulder Canyon > Boulder > Colorado",https://www.mountainproject.com/route/106147677/lazy-day,1.9,-1,Sport,5.9+,1,60,39.99752,-105.41522
"Rooster Tail","Hen and Chickens > Lumpy Ridge > Estes Park Valley > Colorado",https://www.mountainproject.com/route/105756802/rooster-tail,2.7,-1,Trad,5.9+,1,110,40.40313,-105.51698
"Bart's Route","Chicken Head Ranch > Devil's Head > South Platte > Colorado",https://www.mountainproject.com/route/106905351/barts-route,2.8,-1,Sport,5.9+,1,,39.25855,-105.10569
"Twilight Time","Treasure Wall > Tonnere Tower > Boulder Canyon > Boulder > Colorado",https://www.mountainproject.com/route/105994585/twilight-time,1.9,-1,Sport,5.9+,1,60,40.0041,-105.4061
"High Hard One","The Bihedral (Upper Tier) > The Bihedral Area > Boulder Canyon > Boulder > Colorado",https://www.mountainproject.com/route/106301291/high-hard-one,1.9,-1,Sport,5.9+,1,80,40.0035,-105.3964
"Short, Cupped Hands","Tiara Rado > Colorado National Monument > Grand Junction Area > Colorado",https://www.mountainproject.com/route/105842506/short-cupped-hands,2.8,-1,Trad,5.9+,1,60,39.07632,-108.68464
"BB King","Lover's Leap on Beaver Brook > Lookout Mountain Road > Golden > Colorado",https://www.mountainproject.com/route/106916670/bb-king,2.8,-1,Sport,5.9+,1,70,39.73478,-105.26476
"Black Bart","2. Blazing Saddles > Dines Cliff > Staunton State Park > South Platte > Colorado",https://www.mountainproject.com/route/111904675/black-bart,2.6,-1,"Sport, TR",5.9+,1,80,39.50346,-105.37002
"Thin Crack","Practice Rock > Boulder Canyon > Boulder > Colorado",https://www.mountainproject.com/route/105748460/thin-crack,2.5,-1,"Trad, TR",5.9+,1,,40.0017,-105.4133
"Obe Won Canobe","Hidden Valley Wall > The Access Fund Trailhead > Main Canyon: Unaweep Granite > Unaweep Canyon > Grand Junction Area > Colorado",https://www.mountainproject.com/route/105910296/obe-won-canobe,3.3,-1,Trad,5.9+,3,300,38.82198,-108.60371
"The Itch","Gold Wall > X Rock > Durango > Colorado",https://www.mountainproject.com/route/105821942/the-itch,2.8,-1,TR,5.9+,1,60,37.31071,-107.86172
5.9,"Homestake Road Crag > Eagle/Vail/Minturn/Red Cliff > Colorado",https://www.mountainproject.com/route/106476416/59,2.6,-1,Sport,5.9+,1,85,39.47072,-106.37294
"Harder Than It Looks","Pine Cone Dome > Elevenmile Canyon > South Platte > Colorado",https://www.mountainproject.com/route/106858593/harder-than-it-looks,2.4,-1,Sport,5.9+,1,80,38.9073,-105.462
"Tiger's Tooth","Twin Owls > Lumpy Ridge > Estes Park Valley > Colorado",https://www.mountainproject.com/route/105750529/tigers-tooth,3.6,-1,Trad,5.9+,2,,40.4029,-105.5188
"Camel Toe","McGregor Slab > Fall River Road (US 34 West) > Estes Park Valley > Colorado",https://www.mountainproject.com/route/105956634/camel-toe,3.0,-1,"Trad, Sport",5.9+,6,940,40.40851,-105.5854
"Strawberry Shortcut","West Ridge - part B - Long John to Verschneidung > The West Ridge > Eldorado Canyon State Park > Boulder > Colorado",https://www.mountainproject.com/route/105753514/strawberry-shortcut,2.4,-1,Trad,5.9+,1,,39.9314,-105.2879
"Follow That Thief","2. Canyon Amphitheater > The Pooka > Staunton Rocks > Staunton State Park > South Platte > Colorado",https://www.mountainproject.com/route/113538998/follow-that-thief,3.0,-1,Sport,5.9+,2,,39.5157,-105.39341
"Teepee Tower Crack","Wigwam Dome > Wigwam Creek/Lost Creek Wilderness > South Platte > Colorado",https://www.mountainproject.com/route/105760218/teepee-tower-crack,3.4,-1,Trad,5.9+,2,250,39.26137,-105.36789
"Texas Sucks","G. Apple Cider > East  Animas > Durango > Colorado",https://www.mountainproject.com/route/105828018/texas-sucks,2.7,-1,Trad,5.9+,1,70,37.32124,-107.83364
"Forty Two and No Rinkhals","Cash Wall > Shelf Road > Canon City > Colorado",https://www.mountainproject.com/route/105950010/forty-two-and-no-rinkhals,2.3,-1,Sport,5.9+,1,80,38.6334,-105.2239
"No Name Route","Lower Mother's Buttress > Mother's Buttress > Main Canyon: Unaweep Granite > Unaweep Canyon > Grand Junction Area > Colorado",https://www.mountainproject.com/route/105756835/no-name-route,2.7,-1,Trad,5.9+,1,,38.81351,-108.61807
"Bat Crack","Menses Prow > The Gallery > Shelf Road > Canon City > Colorado",https://www.mountainproject.com/route/105756616/bat-crack,1.8,-1,"Trad, Sport",5.9+,1,,38.6199,-105.2371
"Shimminy Cricket","Radio Head > Devil's Head > South Platte > Colorado",https://www.mountainproject.com/route/107268270/shimminy-cricket,2.8,-1,Trad,5.9+,1,105,39.26976,-105.11789
"Short, Some Hands","Zappa Wall > Escalante Canyon > Grand Junction Area > Colorado",https://www.mountainproject.com/route/107078021/short-some-hands,2.3,-1,Trad,5.9+,1,50,38.64055,-108.38967
"Lightning Crashes","Piedra River -  Lower West > Piedra River > Pagosa Springs > Colorado",https://www.mountainproject.com/route/106976777/lightning-crashes,2.6,-1,Sport,5.9+,1,70,37.4197,-107.1968
Aphrodite,"The Whale > Red Rock Canyon Open Space > Colorado Springs > Colorado",https://www.mountainproject.com/route/105872827/aphrodite,2.6,-1,Sport,5.9+,1,90,38.8461,-104.8824
Simplexity,"Outer Gates > The Monastery > Big Thompson Canyon > Estes Park Valley > Colorado",https://www.mountainproject.com/route/105756712/simplexity,2.2,-1,Sport,5.9+,1,75,40.45293,-105.369
"Cardiac Crack","Asshole Rock > Buffalo Creek > South Platte > Colorado",https://www.mountainproject.com/route/105758134/cardiac-crack,3.7,-1,Trad,5.9+,1,100,39.33172,-105.2752
"Beginning of the End a/k/a Sandy Monster","East Face > Kindergarten Rock > Garden of the Gods > Colorado Springs > Colorado",https://www.mountainproject.com/route/105751693/beginning-of-the-end-aka-sandy-monster,2.4,-1,Sport,5.9+,1,65,38.87475,-104.87948
"Pygmy Pony","West Ridge - part C - Pony Express to Long John > The West Ridge > Eldorado Canyon State Park > Boulder > Colorado",https://www.mountainproject.com/route/105758608/pygmy-pony,1.9,-1,Trad,"5.9+ PG13",1,80,39.93203,-105.28849
"Wrestle with the Pig","Pine Cone Dome > Elevenmile Canyon > South Platte > Colorado",https://www.mountainproject.com/route/105762507/wrestle-with-the-pig,2.8,-1,Sport,5.9+,1,70,38.9073,-105.462
"Ligneous Embracer","Rock Garden > San Luis Valley > Colorado",https://www.mountainproject.com/route/105753418/ligneous-embracer,2.9,-1,Sport,5.9+,1,,37.85137,-106.29103
"Crooked Cross","The Sentinel > South Fork of St. Vrain Canyon > St. Vrain Canyons > Lyons > Colorado",https://www.mountainproject.com/route/105757501/crooked-cross,3.2,-1,Trad,5.9+,2,,40.19432,-105.32878
"Little John's Big Stick","Sherwood Forest > Boulder Canyon > Boulder > Colorado",https://www.mountainproject.com/route/105748044/little-johns-big-stick,1.9,-1,Trad,5.9+,1,80,40.0014,-105.3959
"Bucket Brigade","Storm Jumper Wall > Ptarmigan Creek Area > Independence Pass > Colorado",https://www.mountainproject.com/route/107649997/bucket-brigade,2.8,-1,Sport,5.9+,1,,39.12656,-106.68088
"Blood Pudding","The Grocery Store Walls > Castlewood Canyon SP > Denver South > Colorado",https://www.mountainproject.com/route/105749338/blood-pudding,1.9,-1,TR,5.9+,1,40,39.35285,-104.76871
"Mister MIA","The Whale > Red Rock Canyon Open Space > Colorado Springs > Colorado",https://www.mountainproject.com/route/106140194/mister-mia,2.4,-1,Sport,5.9+,1,100,38.8461,-104.8824
"Fin Du Monde","Outer Gates > The Monastery > Big Thompson Canyon > Estes Park Valley > Colorado",https://www.mountainproject.com/route/105761109/fin-du-monde,2.3,-1,Sport,5.9+,1,70,40.45293,-105.369
Eddyline,"Ripple Wall > Red Rock Canyon Open Space > Colorado Springs > Colorado",https://www.mountainproject.com/route/106406425/eddyline,2.4,-1,TR,5.9+,1,75,38.8449,-104.88099
"Pass the Ditchie","Lower Wall > Puoux > Glenwood Canyon > Glenwood Springs > Colorado",https://www.mountainproject.com/route/105975456/pass-the-ditchie,2.7,-1,Sport,5.9+,1,65,39.5624,-107.30452
"Brain Cramps","Turkey Rock > Turkey Rocks > South Platte > Colorado",https://www.mountainproject.com/route/105751795/brain-cramps,2.7,-1,Trad,5.9+,1,,39.11917,-105.23983
"Clowntime is Over","Batman Rock > Lumpy Ridge > Estes Park Valley > Colorado",https://www.mountainproject.com/route/105749104/clowntime-is-over,3.2,-1,Trad,5.9+,2,,40.40596,-105.52981
Hesse-Ferguson,"Hallett Peak > RMNP - Rock > Alpine Rock > Colorado",https://www.mountainproject.com/route/105756919/hesse-ferguson,3.2,-1,"Trad, Alpine","5.9+ R",7,1000,40.3033,-105.686
"Rain of Terror","The Alcove > The Pool Wall > Ouray vicinity (rock) > Colorado",https://www.mountainproject.com/route/106886624/rain-of-terror,2.6,-1,Sport,5.9+,1,90,38.03114,-107.67124
"Sam's Spam","Ridgway Dike Wall > Ouray vicinity (rock) > Colorado",https://www.mountainproject.com/route/107330525/sams-spam,2.6,-1,Sport,5.9+,1,90,38.1141,-107.7179
"Trigger Finger","West Face > North Gateway Rock > Garden of the Gods > Colorado Springs > Colorado",https://www.mountainproject.com/route/105757732/trigger-finger,2.3,-1,"Sport, TR",5.9+,1,80,38.88,-104.88146
"Parallel Journey","Mickey Mouse Wall > Eldorado Mountain > Boulder > Colorado",https://www.mountainproject.com/route/105761088/parallel-journey,2.8,-1,Trad,5.9+,2,300,39.91728,-105.28551
Blackjack,"South Rim Routes > Black Canyon of the Gunnison > Gunnison > Colorado",https://www.mountainproject.com/route/105761430/blackjack,2.3,-1,Trad,5.9+,6,600,38.5811,-107.71539
"Brownies In The Basin","Cob Rock > Boulder Canyon > Boulder > Colorado",https://www.mountainproject.com/route/105756787/brownies-in-the-basin,2.4,-1,"Trad, Sport",5.9+,2,,40.0005,-105.3895
"Three Amigos","Chicken Rock > Valley of The Chickens > Badger Flats > Badger Mountain > South Platte > Colorado",https://www.mountainproject.com/route/113584940/three-amigos,3.1,-1,Sport,5.9+,1,100,39.10057,-105.52353
"Guru Crack","Upper Tier (Bocco Area) > Wolcott Crags and Boulders > Eagle/Vail/Minturn/Red Cliff > Colorado",https://www.mountainproject.com/route/111776942/guru-crack,3.6,-1,Trad,5.9+,1,50,39.71525,-106.70244
"Battle Axe","The Palace Pages > The Palace > Poudre Canyon > Fort Collins > Colorado",https://www.mountainproject.com/route/105932141/battle-axe,2.1,-1,Sport,5.9+,1,80,40.69444,-105.37934
"Dark Matter","3. Astronomy Wall > The Pooka > Staunton Rocks > Staunton State Park > South Platte > Colorado",https://www.mountainproject.com/route/113532119/dark-matter,2.8,-1,Trad,5.9+,1,100,39.51595,-105.39306
"Slightly Smaller Than Large","Bob's Rock > Buena Vista > Colorado",https://www.mountainproject.com/route/113519581/slightly-smaller-than-large,2.4,-1,"Sport, TR",5.9+,1,50,38.88407,-106.14983
"Not Lichen This","Haus Rock > Keystone a.k.a. Montezuma > Colorado",https://www.mountainproject.com/route/105909968/not-lichen-this,2.3,-1,Sport,5.9+,1,,39.60924,-105.91895
"Fool's Gold","Helen's Dome > Sheeprock > Goose Creek/Molly Gulch Campground > South Platte > Colorado",https://www.mountainproject.com/route/105750802/fools-gold,3.5,-1,"Trad, Sport",5.9+,2,,39.18947,-105.33724
Knossos,"Land That Time Forgot > Sheeprock > Goose Creek/Molly Gulch Campground > South Platte > Colorado",https://www.mountainproject.com/route/105926176/knossos,2.9,-1,Sport,5.9+,5,590,39.18999,-105.33063
Wilson,"Main Elk Crag > Main Elk Creek > Glenwood Springs > Colorado",https://www.mountainproject.com/route/117914237/wilson,3.0,-1,Sport,5.9+,1,85,39.68301,-107.57778
"Old Aid","Creekside Wall > North Cheyenne Canyon > Colorado Springs > Colorado",https://www.mountainproject.com/route/105754540/old-aid,3.1,-1,"Trad, TR",5.9+,1,,38.79164,-104.87645
Chinook,"Sheep's Nose > West Creek > South Platte > Colorado",https://www.mountainproject.com/route/105754741/chinook,3.0,-1,Trad,5.9+,1,,39.14092,-105.19385
"Baby Face","Baby Face / Middle Wall > First Buttress > Taylor Canyon > Gunnison > Colorado",https://www.mountainproject.com/route/105990934/baby-face,2.6,-1,Trad,5.9+,1,100,38.72585,-106.77007
Impotence,"Four Blocks Crag > Nine Mile Roped > Nine Mile Hill > Unaweep Canyon > Grand Junction Area > Colorado",https://www.mountainproject.com/route/107896251/impotence,2.7,-1,Sport,5.9+,1,35,38.9351,-108.485
"Jack The Ripper","The Whale's Tail > Eldorado Canyon State Park > Boulder > Colorado",https://www.mountainproject.com/route/105751165/jack-the-ripper,2.7,-1,Trad,"5.9+ X",1,100,39.9312,-105.283
"Mickey Mouse Nailup","Redgarden - Tower One > Redgarden Wall > Eldorado Canyon State Park > Boulder > Colorado",https://www.mountainproject.com/route/105755551/mickey-mouse-nailup,2.2,-1,Trad,"5.9+ R",2,,39.93194,-105.28603
"The Bat","West Ridge - part E - top to Xanadu > The West Ridge > Eldorado Canyon State Park > Boulder > Colorado",https://www.mountainproject.com/route/105754678/the-bat,2.1,-1,Trad,"5.9+ PG13",1,60,39.93325,-105.28897
"Offwidth Bulge","The Quarry Wall > North Table Mountain/Golden Cliffs > Golden > Colorado",https://www.mountainproject.com/route/106496207/offwidth-bulge,2.4,-1,Trad,5.9+,1,30,39.77115,-105.20625
"The Book of Marmot","Marmot Tower > Staunton Rocks > Staunton State Park > South Platte > Colorado",https://www.mountainproject.com/route/112130873/the-book-of-marmot,2.8,-1,Sport,5.9+,1,95,39.51777,-105.39611
Northcutt-Carter,"Hallett Peak > RMNP - Rock > Alpine Rock > Colorado",https://www.mountainproject.com/route/105952163/northcutt-carter,2.7,-1,"Trad, Alpine",5.9+,8,900,40.3033,-105.686
"Eager Beaver","Lower Bulldog Cliff > Upper Boulderfield Area > Independence Pass > Colorado",https://www.mountainproject.com/route/107747731/eager-beaver,2.4,-1,Sport,5.9+,1,55,39.12615,-106.66736
"The Enthusiast aka Guided by Voices","Rapids Rock > South Fork of St. Vrain Canyon > St. Vrain Canyons > Lyons > Colorado",https://www.mountainproject.com/route/105760956/the-enthusiast-aka-guided-by-voices,4.0,-1,"Trad, TR",5.9+,2,130,40.18438,-105.33872
Dine-o-mite,"3. Dines Amphitheater > Dines Cliff > Staunton State Park > South Platte > Colorado",https://www.mountainproject.com/route/118742190/dine-o-mite,2.4,-1,Sport,5.9+,1,90,39.50339,-105.36934
"The Joy of My World (is in Zion)","B. First, Second, and Third Triangles > B. Upper Tier > Tiers of Zion > Lookout Mountain Road > Golden > Colorado",https://www.mountainproject.com/route/110251296/the-joy-of-my-world-is-in-zion,2.4,-1,Sport,5.9+,1,75,39.74404,-105.24206
"The Waffle","The Quarry > Thunder Ridge > West Creek > South Platte > Colorado",https://www.mountainproject.com/route/106385324/the-waffle,2.6,-1,Trad,"5.9+ PG13",1,70,39.19906,-105.22163
"Pearly Burly Brooke","Jewel of the Nile Wall > Palisade Mountain > Big Thompson Canyon > Estes Park Valley > Colorado",https://www.mountainproject.com/route/107283775/pearly-burly-brooke,3.4,-1,Trad,5.9+,2,200,40.43666,-105.31171
"East Prow","Spearhead > Glacier Gorge > RMNP - Rock > Alpine Rock > Colorado",https://www.mountainproject.com/route/105754771/east-prow,3.1,-1,"Trad, Alpine",5.9+,6,,40.2567,-105.63834
"Charlenes Dreams","Dr. Cs Classroom > Land's End Area > Grand Mesa > Grand Junction Area > Colorado",https://www.mountainproject.com/route/121253200/charlenes-dreams,3.5,-1,Sport,5.9+,1,60,38.99983,-108.18326
"Power Lounger","Couch Potatoes > Goose Creek/Molly Gulch Campground > South Platte > Colorado",https://www.mountainproject.com/route/110286724/power-lounger,4.0,-1,Trad,"5.9+ PG13",2,230,39.18868,-105.33495
"Lessons in Discipline","Hidden Valley Wall > The Access Fund Trailhead > Main Canyon: Unaweep Granite > Unaweep Canyon > Grand Junction Area > Colorado",https://www.mountainproject.com/route/120709216/lessons-in-discipline,4.0,-1,Trad,5.9+,1,160,38.82198,-108.60371
"The Wanderer","The Three Amigos > Buena Vista > Colorado",https://www.mountainproject.com/route/119760718/the-wanderer,4.0,-1,Trad,5.9+,2,200,38.93351,-106.10197
"Mongolian Boodog","The Whistle Pig > Staunton Rocks > Staunton State Park > South Platte > Colorado",https://www.mountainproject.com/route/114207852/mongolian-boodog,2.6,-1,Sport,5.9+,1,60,39.5161,-105.3982
"Raised by Lions","The Three Amigos > Buena Vista > Colorado",https://www.mountainproject.com/route/115688167/raised-by-lions,4.0,-1,Trad,5.9+,3,225,38.93351,-106.10197
"Milky Way","Day Dream Crag > Buena Vista > Colorado",https://www.mountainproject.com/route/113866373/milky-way,4.0,-1,Trad,5.9+,2,200,38.85518,-106.11139
"Fun in the Sun","Simple Crag > Climbing Areas 53-64 > Buena Vista > Colorado",https://www.mountainproject.com/route/118588483/fun-in-the-sun,4.0,-1,Trad,5.9+,1,70,38.85294,-106.10111
"Hair Line","Hidden Jem > Climbing Areas 53-64 > Buena Vista > Colorado",https://www.mountainproject.com/route/118650723/hair-line,4.0,-1,Trad,5.9+,1,35,38.85117,-106.12447
"She Blew Me","Diamond Head > Eldorado Canyon State Park > Boulder > Colorado",https://www.mountainproject.com/route/105755419/she-blew-me,4.0,-1,"Trad, TR","5.9+ X",1,,39.94674,-105.29556
"Frozen Fingers (aka Top Rope Route)","Morrison Routes > Morrison/Evergreen/Littleton > Colorado",https://www.mountainproject.com/route/107573106/frozen-fingers-aka-top-rope-route,2.3,-1,"Sport, TR",5.9+,1,60,39.6531,-105.1878
"Short Cut to The Student's Section","Colorado College > Colorado Springs > Colorado",https://www.mountainproject.com/route/123418317/short-cut-to-the-students-section,4.0,-1,Trad,"5.9+ PG13",1,35,38.84699,-104.82541
"The Rook","Apache Peak > Indian Peaks > Alpine Rock > Colorado",https://www.mountainproject.com/route/105764481/the-rook,3.5,-1,"Trad, Alpine",5.9+,1,60,40.0583,-105.651
"Mnemonic Plague","December Wall > South Fork of St. Vrain Canyon > St. Vrain Canyons > Lyons > Colorado",https://www.mountainproject.com/route/105761973/mnemonic-plague,2.5,-1,Trad,5.9+,1,80,40.19871,-105.33055
"Dog House","Loch Vale & uphill > Glacier Gorge Trailhead Ice > RMNP - Mixed/Ice > CO Ice & Mixed > Colorado",https://www.mountainproject.com/route/106378992/dog-house,3.7,-1,"Trad, Mixed, Snow","5.9+ M5+ Steep Snow",5,600,40.29451,-105.65776
"Five Beer Plan","Whiskey Rocks North > Whiskey Rocks > Goose Creek/Molly Gulch Campground > South Platte > Colorado",https://www.mountainproject.com/route/119274705/five-beer-plan,3.8,-1,"Trad, TR",5.9+,1,40,39.22001,-105.33287
Crackside,"Creek Side > Clear Creek Canyon > Golden > Colorado",https://www.mountainproject.com/route/105763788/crackside,2.5,-1,Trad,5.9+,1,,39.74102,-105.41042
"Highway of Diamonds","Cadillac Crag > Eldorado Canyon State Park > Boulder > Colorado",https://www.mountainproject.com/route/105754963/highway-of-diamonds,2.5,-1,Trad,5.9+,2,,39.93617,-105.2911
Sideslot,"The Hallway > Devil's Head > South Platte > Colorado",https://www.mountainproject.com/route/105969299/sideslot,2.5,-1,Sport,5.9+,1,,39.25688,-105.09894
Persistence,"Arch Rock > Elevenmile Canyon > South Platte > Colorado",https://www.mountainproject.com/route/105763968/persistence,2.6,-1,Sport,5.9+,1,120,38.93784,-105.40579
"Route  4","Monument Canyon > Colorado National Monument > Grand Junction Area > Colorado",https://www.mountainproject.com/route/106563768/route-4,3.1,-1,Trad,5.9+,1,80,39.10162,-108.72271
"Northern Comfort","Turkey Rock > Turkey Rocks > South Platte > Colorado",https://www.mountainproject.com/route/112280708/northern-comfort,3.3,-1,Trad,"5.9+ PG13",2,210,39.11917,-105.23983
"Kirk's Corner","Squat Rock > Pine Area > South Platte > Colorado",https://www.mountainproject.com/route/105751201/kirks-corner,2.8,-1,Trad,5.9+,1,,39.41587,-105.32132
"First Mate","The Whale > Red Rock Canyon Open Space > Colorado Springs > Colorado",https://www.mountainproject.com/route/106273665/first-mate,2.2,-1,Sport,5.9+,1,50,38.8461,-104.8824
"Left Hand","Upper Crag > Seedhouse Crag > Steamboat Springs > Colorado",https://www.mountainproject.com/route/106860164/left-hand,2.4,-1,Sport,5.9+,1,40,40.746,-106.8503
"I Promise Not To Cam In Your Mouth","December Wall > South Fork of St. Vrain Canyon > St. Vrain Canyons > Lyons > Colorado",https://www.mountainproject.com/route/105749674/i-promise-not-to-cam-in-your-mouth,2.4,-1,Trad,5.9+,2,,40.19871,-105.33055
"The Front Nine","The Wading Pool > The Pool Wall > Ouray vicinity (rock) > Colorado",https://www.mountainproject.com/route/106772717/the-front-nine,3.2,-1,Trad,5.9+,1,70,38.02939,-107.6706
"Jam Back Crack","Downtown Denver > Denver Metropolitan Area Bouldering and Buildering > Colorado",https://www.mountainproject.com/route/113765170/jam-back-crack,3.7,-1,Trad,5.9+,1,60,39.7526,-104.9991
"Left of Seven","Friendship 7 Wall > Beige Tube Area / The Narrows > Big Thompson Canyon > Estes Park Valley > Colorado",https://www.mountainproject.com/route/107241104/left-of-seven,3.1,-1,Trad,"5.9+ PG13",1,70,40.42166,-105.24053
"Black Gash","The Upper Wall > First Buttress > Taylor Canyon > Gunnison > Colorado",https://www.mountainproject.com/route/112389605/black-gash,3.1,-1,Trad,5.9+,1,90,38.72589,-106.77013
"Call Me Bwana","The Big Five > The Safari > Clear Creek Canyon > Golden > Colorado",https://www.mountainproject.com/route/111359821/call-me-bwana,2.1,-1,Sport,5.9+,1,100,39.74349,-105.40865
"Death of a Dinosaur","East Face > Kindergarten Rock > Garden of the Gods > Colorado Springs > Colorado",https://www.mountainproject.com/route/107334645/death-of-a-dinosaur,2.5,-1,Sport,5.9+,1,70,38.87475,-104.87948
"High Time","G. Pumphouse Right > Dolores River Canyon (Dove Creek) > Four Corners Area > Colorado",https://www.mountainproject.com/route/109594884/high-time,3.3,-1,Trad,5.9+,1,140,37.81082,-108.81875
"Rain Dance","The Grocery Store Walls > Castlewood Canyon SP > Denver South > Colorado",https://www.mountainproject.com/route/105755350/rain-dance,2.1,-1,TR,5.9+,1,,39.35285,-104.76871
"Locksmith aka Dihedral Route","Sphinx Rock > Pine Area > South Platte > Colorado",https://www.mountainproject.com/route/105751372/locksmith-aka-dihedral-route,3.0,-1,Trad,5.9+,2,,39.4163,-105.31924
"Green Slab","Buick Rocks and Hitler's Sex Life > Longmont Reservoir Area (aka Buttonrock) > North Fork of the St. Vrain River > St. Vrain Canyons > Lyons > Colorado",https://www.mountainproject.com/route/105755032/green-slab,2.6,-1,Sport,5.9+,1,,40.23746,-105.31917
"Winnebago Warrior","RV Wall > Durango > Colorado",https://www.mountainproject.com/route/110788841/winnebago-warrior,2.9,-1,Sport,5.9+,1,90,37.69904,-107.77615
"Neutral Zone","Groove Rock aka Leap of Faith Area > Hartman Rocks > Gunnison > Colorado",https://www.mountainproject.com/route/105833333/neutral-zone,2.9,-1,Sport,5.9+,1,60,38.49174,-106.94196
"Norman Rockshoes","The Dungeon > Castlewood Canyon SP > Denver South > Colorado",https://www.mountainproject.com/route/105749311/norman-rockshoes,2.4,-1,Sport,5.9+,1,,39.34998,-104.75902
"Hyena Crack","Cecilville Slab aka Cecil Rock > Fremont Pass > Colorado",https://www.mountainproject.com/route/105850436/hyena-crack,2.5,-1,Sport,5.9+,1,,39.33014,-106.21737
"Cat Don't Piss on My Rope aka Cat Piss","Company Wall > North Cheyenne Canyon > Colorado Springs > Colorado",https://www.mountainproject.com/route/112548813/cat-dont-piss-on-my-rope-aka-cat-piss,2.6,-1,Sport,5.9+,1,,38.79258,-104.87595
"Da Cherry on Top!","Tradistan Tower > Pine River Trad > Durango > Colorado",https://www.mountainproject.com/route/108222794/da-cherry-on-top,3.3,-1,Trad,5.9+,6,900,37.4638,-107.4936
"Hero Loop","Southwest TR > Gold Butte > Colorado",https://www.mountainproject.com/route/116837136/hero-loop,3.1,-1,Sport,5.9+,1,50,39.2158,-106.84409
"The Volunteers Did It","4. Trail Boss > Dines Cliff > Staunton State Park > South Platte > Colorado",https://www.mountainproject.com/route/119603922/the-volunteers-did-it,2.5,-1,Sport,5.9+,1,80,39.50357,-105.37006
"Daddy Didn't Need No Magnum","The Prow > Lime Park (a.k.a. Lime Creek) > Eagle/Vail/Minturn/Red Cliff > Colorado",https://www.mountainproject.com/route/108221889/daddy-didnt-need-no-magnum,2.2,-1,Sport,5.9+,1,80,39.4073,-106.6562
Fenceline,"The Crag Ranch > Devil's Head > South Platte > Colorado",https://www.mountainproject.com/route/105757663/fenceline,2.2,-1,Sport,5.9+,1,100,39.25846,-105.10125
"Mike in the Fast Lane","The Urban Alpine Crag > Morrison/Evergreen/Littleton > Colorado",https://www.mountainproject.com/route/107751734/mike-in-the-fast-lane,2.1,-1,Sport,5.9+,1,,39.54217,-105.17232
"The Big Sneak","The Extraterrestrial > Morrison/Evergreen/Littleton > Colorado",https://www.mountainproject.com/route/118789846/the-big-sneak,3.5,-1,Trad,"5.9+ R",2,70,39.63561,-105.1947
"Fluttering Silk","Buddha Wall > Buckskin Crags > Canon City > Colorado",https://www.mountainproject.com/route/118580603/fluttering-silk,3.5,-1,Sport,5.9+,1,40,38.4751,-105.31867
Albatross,"Morning Sun Wall > Castlewood Canyon SP > Denver South > Colorado",https://www.mountainproject.com/route/110826079/albatross,3.5,-1,Trad,5.9+,1,45,39.34873,-104.76605
"Needs a Bolt","Second Buttress > Taylor Canyon > Gunnison > Colorado",https://www.mountainproject.com/route/106014802/needs-a-bolt,3.5,-1,Trad,"5.9+ PG13",1,180,38.72652,-106.76942
Francis,"Vatican > Phantom Canyon > Canon City > Colorado",https://www.mountainproject.com/route/111774098/francis,2.7,-1,Sport,5.9+,1,60,38.52461,-105.12703
"Voodoo Butter","The Slot > Hartman Rocks > Gunnison > Colorado",https://www.mountainproject.com/route/109194595/voodoo-butter,2.5,-1,Sport,5.9+,1,45,38.49684,-106.94787
"Grit Some","Grit Wall > Nine Mile Roped > Nine Mile Hill > Unaweep Canyon > Grand Junction Area > Colorado",https://www.mountainproject.com/route/107006280/grit-some,2.4,-1,Sport,5.9+,1,40,38.9104,-108.4935
"Green Wall","X Rock > X Rock > Durango > Colorado",https://www.mountainproject.com/route/106229863/green-wall,2.7,-1,TR,5.9+,1,40,37.31105,-107.86121
"Via Alpinista","Ophir Wall southwest > Ophir Wall > Ophir > Telluride/Norwood area > Colorado",https://www.mountainproject.com/route/112213424/via-alpinista,2.8,-1,Trad,5.9+,8,600,37.86075,-107.86826
"The Offset","Mickey Mouse Wall > Eldorado Mountain > Boulder > Colorado",https://www.mountainproject.com/route/105755401/the-offset,3.1,-1,"Trad, TR","5.9+ R",1,,39.91728,-105.28551
"Left Center","B. Between Castaway and Wizard's Gate > Lower Great Face > The Crags > CO Hwy 7 & Tributaries > Estes Park Valley > Colorado",https://www.mountainproject.com/route/106296200/left-center,3.1,-1,Trad,"5.9+ R",4,400,40.30566,-105.52313
"Cliff Hanger","MBA Buttress > North Table Mountain/Golden Cliffs > Golden > Colorado",https://www.mountainproject.com/route/105751027/cliff-hanger,2.0,-1,Sport,5.9+,1,,39.76824,-105.21785
"Snow Blind Friend, Walk the Line? (submitted as Attractive Hazard)","Camp Bird Road > Ouray (Ice/Mixed) > CO Ice & Mixed > Colorado",https://www.mountainproject.com/route/107954125/snow-blind-friend-walk-the-line-submitted-as-attractive-hazard,3.2,-1,"Trad, Mixed, Ice, Snow","5.9+ WI4+ M6 Steep Snow X",8,1200,37.98459,-107.70051
"Mes Amis","Water Slabs > Upper Dream Canyon > Boulder > Colorado",https://www.mountainproject.com/route/105748660/mes-amis,2.1,-1,"Sport, TR",5.9+,1,65,40.0102,-105.4066
"First Blood","Pup Tent of Solitude > Main Elk Creek > Glenwood Springs > Colorado",https://www.mountainproject.com/route/107329256/first-blood,2.1,-1,"Trad, Sport",5.9+,1,35,39.68296,-107.57729
"In the Groove","First Wall > Hurd Creek Crag > Grand County / Fraser Valley > Colorado",https://www.mountainproject.com/route/120011908/in-the-groove,3.3,-1,Sport,5.9+,1,,40.00991,-105.82257
"Thunder Thighs","The Alcove > The Pool Wall > Ouray vicinity (rock) > Colorado",https://www.mountainproject.com/route/109331494/thunder-thighs,2.3,-1,Sport,5.9+,1,25,38.03114,-107.67124
Arapiles,"The Whale > Red Rock Canyon Open Space > Colorado Springs > Colorado",https://www.mountainproject.com/route/106204872/arapiles,2.0,-1,Sport,5.9+,1,,38.8461,-104.8824
"Two Worlds","The Outback > Mother's Buttress > Main Canyon: Unaweep Granite > Unaweep Canyon > Grand Junction Area > Colorado",https://www.mountainproject.com/route/109328496/two-worlds,3.0,-1,Trad,5.9+,1,120,38.81444,-108.62338
"Old Man's Myth","Play Pen > Clear Creek Canyon > Golden > Colorado",https://www.mountainproject.com/route/108442733/old-mans-myth,2.2,-1,Trad,5.9+,1,75,39.74194,-105.41271
"Slippin' Sloan","Main Wall > Surgery Buttress > Glenwood Canyon > Glenwood Springs > Colorado",https://www.mountainproject.com/route/106388268/slippin-sloan,2.3,-1,Sport,5.9+,1,80,39.62375,-107.13401
"Head Over Squeals","Scoop Wall > Elevenmile Canyon > South Platte > Colorado",https://www.mountainproject.com/route/105762903/head-over-squeals,3.3,-1,"Trad, Sport",5.9+,1,100,38.9344,-105.4075
"Opharian Complex","Main Wall > Ophir Wall > Ophir > Telluride/Norwood area > Colorado",https://www.mountainproject.com/route/105847264/opharian-complex,3.3,-1,Trad,"5.9+ R",1,110,37.859,-107.86669
Winterfest,"Creek Side > Clear Creek Canyon > Golden > Colorado",https://www.mountainproject.com/route/106634047/winterfest,2.1,-1,Sport,5.9+,1,55,39.74102,-105.41042
"Slot Right Step Left","East Buttress > Ophir Wall > Ophir > Telluride/Norwood area > Colorado",https://www.mountainproject.com/route/105765096/slot-right-step-left,3.2,-1,Trad,5.9+,1,100,37.86179,-107.86834
"Route  2","Monument Canyon > Colorado National Monument > Grand Junction Area > Colorado",https://www.mountainproject.com/route/106093183/route-2,2.8,-1,Trad,5.9+,1,70,39.10162,-108.72271
"Different Strokes","Piedra River -  Lower West > Piedra River > Pagosa Springs > Colorado",https://www.mountainproject.com/route/107197222/different-strokes,2.3,-1,Sport,5.9+,1,50,37.4197,-107.1968
Indifferent,"The Ledges > Beige Tube Area / The Narrows > Big Thompson Canyon > Estes Park Valley > Colorado",https://www.mountainproject.com/route/115365194/indifferent,2.9,-1,Sport,5.9+,1,70,40.42159,-105.24011
"Binky of the Mountains","Upper Tier (Bocco Area) > Wolcott Crags and Boulders > Eagle/Vail/Minturn/Red Cliff > Colorado",https://www.mountainproject.com/route/109600270/binky-of-the-mountains,2.5,-1,Sport,5.9+,1,40,39.71525,-106.70244
Otto,"Rock Garden > San Luis Valley > Colorado",https://www.mountainproject.com/route/106257915/otto,2.5,-1,Sport,5.9+,1,,37.85137,-106.29103
"Sticks and Stone May Break My Bones...","Cactus Rose Cliff > The Bank > Shelf Road > Canon City > Colorado",https://www.mountainproject.com/route/105752830/sticks-and-stone-may-break-my-bones,2.8,-1,Trad,5.9+,1,,38.63385,-105.23274
"Hand Job (aka West Face)","Cynical Pinnacle > Cathedral Spires Area > South Platte > Colorado",https://www.mountainproject.com/route/105764805/hand-job-aka-west-face,2.8,-1,Trad,5.9+,3,500,39.42059,-105.25164
"Cap'n Smith (submitted as Junk Corner)","Cabin Wall > Escalante Canyon > Grand Junction Area > Colorado",https://www.mountainproject.com/route/107061126/capn-smith-submitted-as-junk-corner,2.0,-1,Trad,5.9+,1,50,38.68073,-108.31363
"South OW aka Front Crack","Duncan's Ridge > Horsetooth Reservoir > Fort Collins > Colorado",https://www.mountainproject.com/route/105763062/south-ow-aka-front-crack,2.3,-1,Trad,5.9+,1,40,40.53352,-105.14488
"Thought Control","Stonehenge > Central > Flatirons > Boulder > Colorado",https://www.mountainproject.com/route/105749641/thought-control,2.5,-1,Sport,5.9+,1,,39.9719,-105.2886
"Bum Cakes (formerly listed as Buns)","01. Piggy Bank > The Bank > Shelf Road > Canon City > Colorado",https://www.mountainproject.com/route/107065893/bum-cakes-formerly-listed-as-buns,2.1,-1,Sport,5.9+,1,50,38.63547,-105.23428
"The Youth","Wiggins' Wall > Red Rock Canyon Open Space > Colorado Springs > Colorado",https://www.mountainproject.com/route/106187256/the-youth,2.4,-1,Sport,5.9+,1,125,38.8409,-104.8853
"The Green Party","Sewemup Mesa > Gateway Vicinity aka The West End > Unaweep Canyon > Grand Junction Area > Colorado",https://www.mountainproject.com/route/106578182/the-green-party,2.7,-1,Trad,5.9+,1,100,38.49259,-108.88521
"Hot Spot","Transmitter Tower > Buena Vista > Colorado",https://www.mountainproject.com/route/119132021/hot-spot,2.8,-1,Sport,5.9+,1,65,38.88771,-106.1382
"Fire Marshall Bill","Quarry Wall at the Bank > The Bank > Shelf Road > Canon City > Colorado",https://www.mountainproject.com/route/118323210/fire-marshall-bill,2.9,-1,Sport,5.9+,1,50,38.64085,-105.24069
"Final Finger","Torture Chamber > Horsetooth Reservoir > Fort Collins > Colorado",https://www.mountainproject.com/route/105762537/final-finger,2.4,-1,TR,5.9+,1,30,40.52969,-105.13763
"Gray Pilgrim","The Shadows > South Fork of St. Vrain Canyon > St. Vrain Canyons > Lyons > Colorado",https://www.mountainproject.com/route/108458217/gray-pilgrim,3.0,-1,Trad,5.9+,1,80,40.18092,-105.33759
"Christopher Robin's Arete","Pooh Corner > Pooh Corner Area > Independence Pass > Colorado",https://www.mountainproject.com/route/107645508/christopher-robins-arete,2.6,-1,Sport,5.9+,1,30,39.12042,-106.70159
"The Golden Staircase,  pitches 12, 13, 14","The Upper Great Face > The Crags > CO Hwy 7 & Tributaries > Estes Park Valley > Colorado",https://www.mountainproject.com/route/119318372/the-golden-staircase-pitches-12-13-14,3.0,-1,Trad,5.9+,3,340,40.30342,-105.52275
Fireball,"Whiskey Rocks West > Whiskey Rocks > Goose Creek/Molly Gulch Campground > South Platte > Colorado",https://www.mountainproject.com/route/114436165/fireball,3.0,-1,Trad,5.9+,1,50,39.20967,-105.33679
"Knight's Gambit","The Bookend > Lumpy Ridge > Estes Park Valley > Colorado",https://www.mountainproject.com/route/105760983/knights-gambit,2.9,-1,Trad,5.9+,5,550,40.40681,-105.5372
"Hand Jive","Chalcopyrite Wall > Main Canyon: Unaweep Granite > Unaweep Canyon > Grand Junction Area > Colorado",https://www.mountainproject.com/route/106578837/hand-jive,3.0,-1,Trad,5.9+,1,155,38.81658,-108.60438
"The Merrimac","Tanner Dome > Oak Creek Canyon > The Wet Mountains > Colorado",https://www.mountainproject.com/route/107521285/the-merrimac,2.9,-1,Sport,5.9+,1,80,38.30838,-105.26009
"The Green Room","The Stripe > Silverton area > Colorado",https://www.mountainproject.com/route/107213691/the-green-room,2.6,-1,Sport,5.9+,1,90,37.78791,-107.66958
"Lost paddle","The River Chamber > Buena Vista > Colorado",https://www.mountainproject.com/route/118641763/lost-paddle,3.0,-1,Sport,5.9+,1,50,38.86876,-106.14413
"Fully Equipped","E. Cactus Cliff Far Right (Funkdemental and right) > Cactus Cliff > Shelf Road > Canon City > Colorado",https://www.mountainproject.com/route/106259786/fully-equipped,1.9,-1,Sport,5.9+,1,70,38.63066,-105.21961
"Direct Hit","Turkey Rock > Turkey Rocks > South Platte > Colorado",https://www.mountainproject.com/route/107301213/direct-hit,3.0,-1,Trad,"5.9+ R",2,75,39.11917,-105.23983
"Air Soles","Bob's Rock > Buena Vista > Colorado",https://www.mountainproject.com/route/106157974/air-soles,2.0,-1,Trad,5.9+,1,,38.88407,-106.14983
"Rainbow Warrior","Main Wall > Ophir Wall > Ophir > Telluride/Norwood area > Colorado",https://www.mountainproject.com/route/105847261/rainbow-warrior,3.0,-1,Sport,"5.9+ R",1,120,37.859,-107.86669
"Unknown 5.9 crack","Amphitheater Area > Juniper Pass > Morrison/Evergreen/Littleton > Colorado",https://www.mountainproject.com/route/106869313/unknown-59-crack,2.4,-1,Trad,5.9+,1,140,39.6696,-105.5758
"Stabbin' the Cat","Penthouse > Vallecito Crags > Durango > Colorado",https://www.mountainproject.com/route/106271585/stabbin-the-cat,2.3,-1,Sport,5.9+,1,40,37.48066,-107.53568
Pandemonium,"Main Wall > The Halidome > Empire > Colorado",https://www.mountainproject.com/route/118656069/pandemonium,3.0,-1,"Sport, Alpine",5.9+,2,210,39.77006,-105.74841
"Sponge Bath","Nursing Home > Boulder Canyon > Boulder > Colorado",https://www.mountainproject.com/route/105794563/sponge-bath,1.8,-1,"Trad, Sport",5.9+,1,60,39.9859,-105.4418
Unknown,"1. Trek Wall > Dines Cliff > Staunton State Park > South Platte > Colorado",https://www.mountainproject.com/route/121352701/unknown,3.0,-1,Trad,5.9+,1,80,39.50391,-105.3706
"Crack Up","Broken Rock > Boulder Canyon > Boulder > Colorado",https://www.mountainproject.com/route/105759951/crack-up,2.0,-1,Trad,5.9+,1,60,39.9792,-105.4542
"Western Swing","Slamdance Buttress > Lily Mountain > CO Hwy 7 & Tributaries > Estes Park Valley > Colorado",https://www.mountainproject.com/route/107202342/western-swing,2.0,-1,Sport,5.9+,1,35,40.32363,-105.53417
"Instant Clarification (AKA Rap Route)","Notchtop > RMNP - Rock > Alpine Rock > Colorado",https://www.mountainproject.com/route/106041786/instant-clarification-aka-rap-route,3.0,-1,"Trad, Alpine",5.9+,3,400,40.3186,-105.694
"Double Cracks","Devil's Head Rock > Devil's Head > South Platte > Colorado",https://www.mountainproject.com/route/107750854/double-cracks,3.0,-1,Trad,5.9+,2,120,39.25393,-105.08976
"Slipstream Dihedral","Ironing Board Slabs (Upper & Lower Slabs) > Beige Tube Area / The Narrows > Big Thompson Canyon > Estes Park Valley > Colorado",https://www.mountainproject.com/route/105764529/slipstream-dihedral,3.0,-1,"Trad, Sport",5.9+,2,130,40.42251,-105.23537
"The Enemy Within","Crack Land > Third Tier > Avalon > Boulder Canyon > Boulder > Colorado",https://www.mountainproject.com/route/105987462/the-enemy-within,2.0,-1,Trad,5.9+,1,80,39.99888,-105.41159
"Brown Sugar","Rightovers > Turkey Rocks > South Platte > Colorado",https://www.mountainproject.com/route/105755575/brown-sugar,2.5,-1,Trad,5.9+,1,,39.11915,-105.2396
"Back in Black","Teenage Wasteland > Hartman Rocks > Gunnison > Colorado",https://www.mountainproject.com/route/105833828/back-in-black,2.6,-1,Sport,5.9+,1,50,38.48903,-106.94275
"Potholes Variation","Red Twin > Twin Spires > Garden of the Gods > Colorado Springs > Colorado",https://www.mountainproject.com/route/114786754/potholes-variation,2.7,-1,TR,5.9+,1,60,38.8783,-104.88091
"Chimney Route","Chimney Rock > Elk Creek Spires > Staunton State Park > South Platte > Colorado",https://www.mountainproject.com/route/110023016/chimney-route,2.5,-1,Trad,"5.9+ PG13",1,130,39.50653,-105.4142
"Bunkhouse Barbie's Dream Castle","2. Sawmill  Wall > Sawmill Crag > Old Mill Area > Staunton State Park > South Platte > Colorado",https://www.mountainproject.com/route/121201141/bunkhouse-barbies-dream-castle,2.3,-1,Sport,5.9+,2,190,39.52299,-105.38836
"Rainbow Bread","The Grocery Store Walls > Castlewood Canyon SP > Denver South > Colorado",https://www.mountainproject.com/route/106172567/rainbow-bread,2.0,-1,TR,5.9+,1,40,39.35285,-104.76871
"South Face (aka Radwaste?)","Centurion Tower > Gateway Vicinity aka The West End > Unaweep Canyon > Grand Junction Area > Colorado",https://www.mountainproject.com/route/115133320/south-face-aka-radwaste,3.0,-1,"Trad, Aid","5.9+ C1-2",4,350,38.52436,-108.89259
"Inner Light","Grayback Wall > Grayback Peak > Old Stage Road > Colorado Springs > Colorado",https://www.mountainproject.com/route/122768968/inner-light,3.0,-1,Sport,5.9+,1,90,38.71338,-104.9012
"Evacuation Route","Inventions in Nature > Tarryall > South Platte > Colorado",https://www.mountainproject.com/route/118852732/evacuation-route,3.0,-1,Trad,5.9+,1,100,39.16196,-105.4756
"Karuna (Compassion)","Buddha Wall > Buckskin Crags > Canon City > Colorado",https://www.mountainproject.com/route/118580544/karuna-compassion,3.0,-1,"Sport, TR",5.9+,1,55,38.4751,-105.31867
"Rastaman Roof","Wind Tower - SW Face > The Wind Tower > Eldorado Canyon State Park > Boulder > Colorado",https://www.mountainproject.com/route/105754846/rastaman-roof,2.2,-1,Trad,5.9+,1,,39.9315,-105.283
"Chicken Dance","Hesse Wall > Phantom Canyon > Canon City > Colorado",https://www.mountainproject.com/route/111764279/chicken-dance,3.0,-1,Sport,5.9+,1,60,38.49598,-105.11011
"Santa Claws","Cat Scratch Wall > Chalk Creek Canyon > Buena Vista > Colorado",https://www.mountainproject.com/route/120727880/santa-claws,3.0,-1,"Trad, TR",5.9+,1,100,38.72118,-106.25731
"Brain Damage","The Pope's Nose > Pine River Trad > Durango > Colorado",https://www.mountainproject.com/route/108634528/brain-damage,3.0,-1,Trad,5.9+,3,400,37.57016,-107.40019
"Stimulus Check","Pandemic Rock > The Crags > CO Hwy 7 & Tributaries > Estes Park Valley > Colorado",https://www.mountainproject.com/route/119116515/stimulus-check,2.6,-1,Sport,5.9+,1,80,40.3067,-105.52446
"Presley Arte","Torture Chamber > Horsetooth Reservoir > Fort Collins > Colorado",https://www.mountainproject.com/route/119067051/presley-arete,2.3,-1,"Trad, TR",5.9+,1,25,40.52969,-105.13763
"Swimming Through Fields of Bullets and Thorn Bushes","Whiskey Rocks West > Whiskey Rocks > Goose Creek/Molly Gulch Campground > South Platte > Colorado",https://www.mountainproject.com/route/114436083/swimming-through-fields-of-bullets-and-thorn-bushes,3.0,-1,Trad,"5.9+ R",1,60,39.20967,-105.33679
Corker,"Radio Head > Devil's Head > South Platte > Colorado",https://www.mountainproject.com/route/119044407/corker,2.4,-1,Sport,5.9+,1,80,39.26976,-105.11789
"Balched Again","CU General Campus > CU Campus > City of Boulder Buildering > Boulder > Colorado",https://www.mountainproject.com/route/113760766/balched-again,3.0,-1,"Trad, Boulder","5.9+ V1",1,35,40.0068,-105.266
Tourretesosaurus-Rex,"Grayback Wall > Grayback Peak > Old Stage Road > Colorado Springs > Colorado",https://www.mountainproject.com/route/122770391/tourretesosaurus-rex,3.0,-1,Trad,5.9+,1,75,38.71338,-104.9012
"Oil Slick","The Wave > Wild Ridge Area > Independence Pass > Colorado",https://www.mountainproject.com/route/117635247/oil-slick,3.0,-1,"Trad, Alpine",5.9+,1,80,39.12992,-106.67446
"Unnamed Hand Crack","Toby Crag > Hillside Drive in San Juan National Forest > Four Corners Area > Colorado",https://www.mountainproject.com/route/122655557/unnamed-hand-crack,3.0,-1,Trad,5.9+,1,80,37.54469,-108.13111
"Franklin's Tower - The Mine Shaft","The Gypsies > Colorado National Monument > Grand Junction Area > Colorado",https://www.mountainproject.com/route/108095503/franklins-tower-the-mine-shaft,3.0,-1,Trad,5.9+,2,220,39.04935,-108.66128
"Flint Knap","Obsidian Wall > Grayback Peak > Old Stage Road > Colorado Springs > Colorado",https://www.mountainproject.com/route/122769379/flint-knap,3.0,-1,Sport,5.9+,1,65,38.71354,-104.90141
"The Warm Up","Terra Tower Crag > Terra Tower Buttress > Colorado National Monument > Grand Junction Area > Colorado",https://www.mountainproject.com/route/108800744/the-warm-up,3.0,-1,Trad,5.9+,1,100,39.06838,-108.67796
"Scarpa Diem","Eagle Wall > Wolcott Crags and Boulders > Eagle/Vail/Minturn/Red Cliff > Colorado",https://www.mountainproject.com/route/107354816/scarpa-diem,2.8,-1,Sport,5.9+,1,55,39.713,-106.6973
"Hidden Valley Offwidth","Hidden Valley Wall > The Access Fund Trailhead > Main Canyon: Unaweep Granite > Unaweep Canyon > Grand Junction Area > Colorado",https://www.mountainproject.com/route/106839772/hidden-valley-offwidth,3.0,-1,Trad,5.9+,1,85,38.82198,-108.60371
"Shady Character","Sun Towers > Sun Tower Complex > Main Canyon: Unaweep Granite > Unaweep Canyon > Grand Junction Area > Colorado",https://www.mountainproject.com/route/105960482/shady-character,3.0,-1,Trad,5.9+,2,100,38.80031,-108.63947
"The Slit","Wall of Winter Warmth > Lower Dream Canyon > Boulder Canyon > Boulder > Colorado",https://www.mountainproject.com/route/105763371/the-slit,2.1,-1,"Trad, TR",5.9+,1,100,40.0073,-105.405
"Into Temptation","Boulder Falls East > Boulder Canyon > Boulder > Colorado",https://www.mountainproject.com/route/105976499/into-temptation,3.0,-1,Trad,"5.9+ R",2,,40.00565,-105.40638
Simpatico,"Upper Tier (Bocco Area) > Wolcott Crags and Boulders > Eagle/Vail/Minturn/Red Cliff > Colorado",https://www.mountainproject.com/route/108315615/simpatico,2.2,-1,Sport,5.9+,1,,39.71525,-106.70244
"Cold Turkey","West Ridge - part D - Xanadu to Pony Express > The West Ridge > Eldorado Canyon State Park > Boulder > Colorado",https://www.mountainproject.com/route/105759033/cold-turkey,1.8,-1,Trad,5.9+,1,140,39.93239,-105.28874
"Dashboard Variation","Canyon Road Cliffs > Witches' Canyon > San Luis Valley > Colorado",https://www.mountainproject.com/route/106172913/dashboard-variation,2.3,-1,Sport,5.9+,1,50,37.83924,-106.29425
"Motor Mouth","Bucksnort Slab > Pine Area > South Platte > Colorado",https://www.mountainproject.com/route/105756160/motor-mouth,2.2,-1,Trad,5.9+,1,110,39.42133,-105.31936
"Image of the Invisible","South Rim Routes > Black Canyon of the Gunnison > Gunnison > Colorado",https://www.mountainproject.com/route/116215722/image-of-the-invisible,2.0,-1,Trad,5.9+,6,975,38.5811,-107.71539
"22/23 AFC Championship","Phantom Spire > Devil's Canyon > McInnis Canyons > Grand Junction Area > Colorado",https://www.mountainproject.com/route/122503769/2223-afc-championship,3.0,-1,"Trad, Aid","5.9+ C1",1,70,39.1185,-108.76722
"Piece Snatcher","SW Quarry Wall > Quarry Wall Complex > Main Canyon: Unaweep Granite > Unaweep Canyon > Grand Junction Area > Colorado",https://www.mountainproject.com/route/120870792/piece-snatcher,3.0,-1,Trad,5.9+,4,250,38.82985,-108.58025
"Supremacy Slab","Supremacy Rock > Eldorado Canyon State Park > Boulder > Colorado",https://www.mountainproject.com/route/105751405/supremacy-slab,2.1,-1,"Trad, TR","5.9+ R",1,70,39.9306,-105.29107
"Mystery Route (right of The Altar)","The Vestibule > The Monastery > Big Thompson Canyon > Estes Park Valley > Colorado",https://www.mountainproject.com/route/111052367/mystery-route-right-of-the-altar,2.0,-1,Sport,5.9+,1,40,40.45334,-105.36914
"Over The Top","No Mans Land > Devil's Canyon > McInnis Canyons > Grand Junction Area > Colorado",https://www.mountainproject.com/route/121857302/over-the-top,3.0,-1,"Trad, Aid","5.9+ C1-",1,65,39.11249,-108.76521
[Redacted],"[Redacted] > Golden Gate Canyon SP > Golden > Colorado",https://www.mountainproject.com/route/105755815/redacted,2.0,-1,Trad,5.9+,1,,39.87548,-105.42313
"The Brawl to End it ALL","Hidden Valley Wall > The Access Fund Trailhead > Main Canyon: Unaweep Granite > Unaweep Canyon > Grand Junction Area > Colorado",https://www.mountainproject.com/route/120828255/the-brawl-to-end-it-all,3.0,-1,Trad,5.9+,1,115,38.82198,-108.60371
"Wanton Endangerment","The Mordwand > Ouray vicinity (rock) > Colorado",https://www.mountainproject.com/route/120875682/wanton-endangerment,3.0,-1,Sport,5.9+,1,85,37.97945,-107.65742
Dweeb,"Winterfest Wall > North Table Mountain/Golden Cliffs > Golden > Colorado",https://www.mountainproject.com/route/107409303/dweeb,2.0,-1,"Trad, Sport",5.9+,1,55,39.76953,-105.22006
"Mark IV","No Mans Land > Devil's Canyon > McInnis Canyons > Grand Junction Area > Colorado",https://www.mountainproject.com/route/121857241/mark-iv,3.0,-1,Trad,5.9+,1,50,39.11249,-108.76521
"Bottle Top: North Face Direct","Gold Star Canyon > Colorado National Monument > Grand Junction Area > Colorado",https://www.mountainproject.com/route/117986910/bottle-top-north-face-direct,3.0,-1,"Trad, Aid","5.9+ C1",4,400,39.08444,-108.69518
"Zolar Czakl","Fourth Buttress > Elephant Buttresses > Boulder Canyon > Boulder > Colorado",https://www.mountainproject.com/route/105977683/zolar-czakl,2.1,-1,Trad,5.9+,1,70,40.0122,-105.309
Prowess,"Spearhead > Glacier Gorge > RMNP - Rock > Alpine Rock > Colorado",https://www.mountainproject.com/route/110885710/prowess,3.0,-1,"Trad, Alpine","5.9+ PG13",3,360,40.2567,-105.63834
Splitter,"The Perch > Mt. Harmon > Air Force Academy > Colorado Springs > Colorado",https://www.mountainproject.com/route/119466982/splitter,3.0,-1,"Trad, TR",5.9+,1,110,38.99522,-104.90971
"Chuck Liddel","UFC Wall > Devil's Canyon > McInnis Canyons > Grand Junction Area > Colorado",https://www.mountainproject.com/route/119543661/chuck-liddel,3.0,-1,Trad,5.9+,1,70,39.10625,-108.76447
"Yank the Dank","The Three Amigos > Buena Vista > Colorado",https://www.mountainproject.com/route/119760896/yank-the-dank,3.0,-1,Trad,5.9+,2,200,38.93351,-106.10197
"Short Barrel","Toy Gun Buttress > The Bigfoots > Rampart Range Road > South Platte > Colorado",https://www.mountainproject.com/route/118844486/short-barrel,3.0,-1,"Trad, TR",5.9+,1,80,38.92755,-104.95411
"Farts of Unknown Origin","The Main Wall > Hank's World > Mother's Buttress > Main Canyon: Unaweep Granite > Unaweep Canyon > Grand Junction Area > Colorado",https://www.mountainproject.com/route/119070472/farts-of-unknown-origin,2.6,-1,Trad,5.9+,1,70,38.81394,-108.62312
Babu,"Krishna West > Lower Dream Canyon > Boulder Canyon > Boulder > Colorado",https://www.mountainproject.com/route/113598262/babu,3.0,-1,Trad,5.9+,1,115,40.00781,-105.40629
"Hail the Apocalypse","New Dark Ages Crag > Pagosa Springs > Colorado",https://www.mountainproject.com/route/120173651/hail-the-apocalypse,3.0,-1,Trad,5.9+,1,75,37.38138,-106.86107
Ocelot,"Wildcat One South Face > Wildcat One > Wildcat Complex > Main Canyon: Unaweep Granite > Unaweep Canyon > Grand Junction Area > Colorado",https://www.mountainproject.com/route/121611769/ocelot,3.0,-1,Trad,5.9+,1,60,38.78358,-108.6617
Harry,"The Stacks > The Bigfoots > Rampart Range Road > South Platte > Colorado",https://www.mountainproject.com/route/118054555/harry,3.0,-1,"Trad, TR",5.9+,1,50,38.92866,-104.95601
"Regular Route","Jed's Slab > Chalk Creek Canyon > Buena Vista > Colorado",https://www.mountainproject.com/route/122649347/regular-route,3.0,-1,"Trad, TR","5.9+ PG13",1,210,38.70935,-106.23235
"Pussy Foot","Tiger Wall > Hartman Rocks > Gunnison > Colorado",https://www.mountainproject.com/route/107906030/pussy-foot,2.0,-1,Sport,5.9+,1,30,38.49612,-106.94726
"Hitchin' A Ride","Tom's Thumb > Devil's Gate Sector > Devil's Head > South Platte > Colorado",https://www.mountainproject.com/route/119166327/hitchin-a-ride,3.0,-1,Sport,5.9+,1,50,39.25466,-105.09294
"Route 8","Up Hill Both Ways > Climbing Areas 53-64 > Buena Vista > Colorado",https://www.mountainproject.com/route/118580218/route-8,3.0,-1,Trad,5.9+,1,40,38.84168,-106.10636
"Tee Hee","Cracked Canyon > Ophir > Telluride/Norwood area > Colorado",https://www.mountainproject.com/route/122849732/tee-hee,3.0,-1,Trad,5.9+,1,80,37.8605,-107.86263
"Have Faith!","Promontory Ridge/The Bear? > Golden Gate Canyon SP > Golden > Colorado",https://www.mountainproject.com/route/111936047/have-faith,3.0,-1,Trad,5.9+,1,75,39.86033,-105.43294
Creepy,"The Museum > Buena Vista > Colorado",https://www.mountainproject.com/route/115401938/creepy,3.0,-1,Trad,5.9+,1,60,38.87436,-106.13431
"Left Hand Crack","Existential Pinnacle > Golf Course Trail > Hartman Rocks > Gunnison > Colorado",https://www.mountainproject.com/route/114259403/left-hand-crack,3.0,-1,Trad,5.9+,1,45,38.51457,-106.96828
"Brothers in Drilling","The Overhangs aka Original Overhangs > East Elk Granite > East Elk Creek > Glenwood Springs > Colorado",https://www.mountainproject.com/route/111818099/brothers-in-drilling,3.0,-1,Sport,5.9+,1,45,39.66731,-107.52691
"Left of Cleft","Gem Lake Wall > Lumpy Ridge > Estes Park Valley > Colorado",https://www.mountainproject.com/route/107945257/left-of-cleft,3.0,-1,Trad,5.9+,1,100,40.40987,-105.50329
"Hot Line","The Secret Stash > Ouray vicinity (rock) > Colorado",https://www.mountainproject.com/route/108128895/hot-line,3.0,-1,"Trad, Sport",5.9+,1,65,37.9825,-107.6449
"Into Darkness","The Temple of Solitude > The Land of the Lost > Pine River Trad > Durango > Colorado",https://www.mountainproject.com/route/108307930/into-darkness,3.0,-1,"Trad, Alpine","5.9+ PG13",7,1200,37.4597,-107.5011
"Walking on Paper","Sweat Loaf aka Big Dogs > South Fork of St. Vrain Canyon > St. Vrain Canyons > Lyons > Colorado",https://www.mountainproject.com/route/105870538/walking-on-paper,3.0,-1,Trad,"5.9+ PG13",1,150,40.19295,-105.32769
"Forrest Solo","Deer Ridge Buttress > Deer Mountain > Estes Park Valley > Colorado",https://www.mountainproject.com/route/106518399/forrest-solo,3.0,-1,Trad,5.9+,1,120,40.38915,-105.58748
Angelica,"Juniper Wall > Main Canyon: Unaweep Granite > Unaweep Canyon > Grand Junction Area > Colorado",https://www.mountainproject.com/route/106463136/angelica,3.0,-1,Trad,5.9+,1,90,38.81658,-108.60438
"Heterosexual Life Partners","Have a Little Help From My Friends Wall > Gate View Canyon > Gunnison > Colorado",https://www.mountainproject.com/route/107781316/heterosexual-life-partners,3.0,-1,Trad,5.9+,1,100,38.5448,-106.928
Plumbline,"Slab of Despair > Ouray vicinity (rock) > Colorado",https://www.mountainproject.com/route/107769025/plumbline,3.0,-1,Sport,5.9+,1,55,37.9949,-107.6562
"Grand Opening","Wall Mart > Hole in the Wall Canyon > Steamboat Springs > Colorado",https://www.mountainproject.com/route/106857458/grand-opening,3.0,-1,Trad,5.9+,3,260,40.78866,-106.84027
"Nate's Solo","The Long Walk Wall > Lumpy Ridge > Estes Park Valley > Colorado",https://www.mountainproject.com/route/106268879/nates-solo,3.0,-1,Trad,5.9+,1,65,40.4032,-105.5182
Violation,"West Bend Crag > Oak Creek Canyon > The Wet Mountains > Colorado",https://www.mountainproject.com/route/105970212/violation,3.0,-1,Trad,5.9+,1,45,38.31063,-105.24943
"Way Out","Clohesy Lake > Buena Vista > Colorado",https://www.mountainproject.com/route/123225508/way-out,3.0,-1,"Trad, Alpine",5.9+,5,1000,38.96687,-106.40609
"Twin Cracks","Lower Crag > Seedhouse Crag > Steamboat Springs > Colorado",https://www.mountainproject.com/route/106860227/twin-cracks,2.4,-1,Trad,5.9+,1,70,40.746,-106.8503
Rastafarian,"Turkey Rock > Turkey Rocks > South Platte > Colorado",https://www.mountainproject.com/route/106197871/rastafarian,2.4,-1,Trad,5.9+,1,105,39.11917,-105.23983
"Perfect Hand Crack","Pebble Beach > The Sacred Cliffs > Flatirons > Boulder > Colorado",https://www.mountainproject.com/route/105751930/perfect-hand-crack,2.3,-1,Trad,5.9+,1,,39.98181,-105.30124
"The Royal Scam","Quarry Wall at the Bank > The Bank > Shelf Road > Canon City > Colorado",https://www.mountainproject.com/route/116762989/the-royal-scam,2.5,-1,Sport,5.9+,1,40,38.64085,-105.24069
"California Dreamin'","Zipper Buttress > The Neighborhood > Glenwood Canyon > Glenwood Springs > Colorado",https://www.mountainproject.com/route/106370147/california-dreamin,2.1,-1,Sport,5.9+,1,60,39.55116,-107.31743
"The Great Unknown (submitted as Unnamed 5.9)","Elevenmile Dome > Elevenmile Canyon > South Platte > Colorado",https://www.mountainproject.com/route/106565404/the-great-unknown-submitted-as-unnamed-59,2.6,-1,Sport,5.9+,1,120,38.94534,-105.39205
"#8 Unknown","Main Amphitheater > Cougar > Steamboat Springs > Colorado",https://www.mountainproject.com/route/117703809/8-unknown,2.6,-1,Sport,5.9+,1,60,40.77052,-106.80768
"Laughing Sam's Dice","The Wild Westerlies > The Dark Side > Ophir > Telluride/Norwood area > Colorado",https://www.mountainproject.com/route/113116060/laughing-sams-dice,2.6,-1,Sport,5.9+,1,40,37.85639,-107.86738
Wired,"Lower Peanuts > Peanuts Walls > Eldorado Canyon State Park > Boulder > Colorado",https://www.mountainproject.com/route/105755242/wired,2.1,-1,Trad,"5.9+ PG13",1,,39.92885,-105.28656
Scheikopf,"Quarry Wall at the Bank > The Bank > Shelf Road > Canon City > Colorado",https://www.mountainproject.com/route/116763222/scheisskopf,2.3,-1,Sport,5.9+,1,40,38.64085,-105.24069
"Smokin' John (submitted as Roof Rack)","Mill Creek Crag > Dumont vicinity > Colorado",https://www.mountainproject.com/route/107262335/smokin-john-submitted-as-roof-rack,2.3,-1,Trad,5.9+,1,60,39.7838,-105.6242
"Prince Charming Left","Waterfall Wall > Ouray vicinity (rock) > Colorado",https://www.mountainproject.com/route/111156958/prince-charming-left,2.7,-1,Sport,5.9+,1,55,37.97795,-107.65657
"Cat In Heat","Wildcat One South Face > Wildcat One > Wildcat Complex > Main Canyon: Unaweep Granite > Unaweep Canyon > Grand Junction Area > Colorado",https://www.mountainproject.com/route/121611522/cat-in-heat,2.7,-1,Trad,5.9+,1,80,38.78358,-108.6617
"Twist O' Flex","Cynical Pinnacle > Cathedral Spires Area > South Platte > Colorado",https://www.mountainproject.com/route/108410270/twist-o-flex,2.7,-1,Trad,5.9+,1,65,39.42059,-105.25164
"Climb It Like You Stole It","Quarry Wall at the Bank > The Bank > Shelf Road > Canon City > Colorado",https://www.mountainproject.com/route/118273693/climb-it-like-you-stole-it,2.8,-1,Trad,5.9+,1,55,38.64085,-105.24069
Canine,"Easter Island > The Alpine Lite Cliffs > Mt. Blue Sky (formerly Mt. Evans) > Alpine Rock > Colorado",https://www.mountainproject.com/route/112146513/canine,2.8,-1,"Trad, Alpine",5.9+,1,115,39.61224,-105.63025
"Inner Space","Parking Lot Wall > First Buttress > Taylor Canyon > Gunnison > Colorado",https://www.mountainproject.com/route/112138965/inner-space,2.8,-1,Trad,5.9+,1,120,38.72575,-106.77046
"Sorcerer's Apprentice","The Bookend > Lumpy Ridge > Estes Park Valley > Colorado",https://www.mountainproject.com/route/107340434/sorcerers-apprentice,2.8,-1,Trad,"5.9+ PG13",3,450,40.40681,-105.5372
"Jam Left","Bitty Buttress > Boulder Canyon > Boulder > Colorado",https://www.mountainproject.com/route/105759153/jam-left,2.2,-1,Trad,5.9+,1,40,40.0018,-105.3869
"Roughcut aka Small Tree Route","D. The Badlands > Black Creek Wall > Old Mill Area > Staunton State Park > South Platte > Colorado",https://www.mountainproject.com/route/122430959/roughcut-aka-small-tree-route,2.5,-1,Sport,5.9+,1,75,39.52364,-105.38746
"Black Streak","Upper Tier (Bocco Area) > Wolcott Crags and Boulders > Eagle/Vail/Minturn/Red Cliff > Colorado",https://www.mountainproject.com/route/110627225/black-streak,2.6,-1,Sport,5.9+,1,40,39.71525,-106.70244
"Between You and Me","Poncho's Vista > Buena Vista > Colorado",https://www.mountainproject.com/route/105966667/between-you-and-me,2.4,-1,Sport,5.9+,1,,38.87921,-106.14689
Ecstasy,"Upper Tier (Bocco Area) > Wolcott Crags and Boulders > Eagle/Vail/Minturn/Red Cliff > Colorado",https://www.mountainproject.com/route/110627211/ecstasy,2.4,-1,Sport,5.9+,1,40,39.71525,-106.70244
"Put Up","Lower Wall > Hurd Creek Crag > Grand County / Fraser Valley > Colorado",https://www.mountainproject.com/route/119766610/put-up,2.4,-1,Sport,5.9+,1,40,40.01324,-105.77238
Courage,"Jumbled Buttress > West Side > No Name Canyon > Glenwood Canyon > Glenwood Springs > Colorado",https://www.mountainproject.com/route/107099856/courage,2.5,-1,Trad,5.9+,1,60,39.57124,-107.29179
"The Cyber Spraylord","Ridge 1 > Eldorado Mountain > Boulder > Colorado",https://www.mountainproject.com/route/105799885/the-cyber-spraylord,2.5,-1,Sport,5.9+,1,60,39.9081,-105.28817
"Black Powder","The Acrophile > South Fork of St. Vrain Canyon > St. Vrain Canyons > Lyons > Colorado",https://www.mountainproject.com/route/106331512/black-powder,2.5,-1,Trad,5.9+,3,250,40.1863,-105.3334
Lothar,"Project X Wall > Castlewood Canyon SP > Denver South > Colorado",https://www.mountainproject.com/route/105758131/lothar,2.3,-1,"Sport, TR",5.9+,1,,39.34744,-104.75776
Columbia,"Roadside > Phantom Canyon > Canon City > Colorado",https://www.mountainproject.com/route/111764327/columbia,2.1,-1,Sport,5.9+,1,60,38.51947,-105.11904
"The Joker","Super Slabs > Hartman Rocks > Gunnison > Colorado",https://www.mountainproject.com/route/105833112/the-joker,2.0,-1,Trad,5.9+,1,40,38.49087,-106.94242
"Out to Lunge ... with Dessert","The Bastille - W Face > The Bastille > Eldorado Canyon State Park > Boulder > Colorado",https://www.mountainproject.com/route/107780724/out-to-lunge-with-dessert,2.6,-1,Trad,"5.9+ PG13",1,100,39.9304,-105.283
"Northumberland Crack","Redgarden - Lumpe to the top > Redgarden Wall > Eldorado Canyon State Park > Boulder > Colorado",https://www.mountainproject.com/route/105764973/northumberland-crack,2.0,-1,Trad,5.9+,3,350,39.93228,-105.28671
"Siberian North Face","The Amphitheater > Gregory Canyon (including The Amphitheatre) > North > Flatirons > Boulder > Colorado",https://www.mountainproject.com/route/105751432/siberian-north-face,2.3,-1,"Trad, Sport",5.9+,1,,39.9958,-105.2929
"Sunday Comix","The Matron > South > Flatirons > Boulder > Colorado",https://www.mountainproject.com/route/105761301/sunday-comix,2.7,-1,"Trad, TR","5.9+ X",1,120,39.94304,-105.2884
"Unknown on the Right","Saint Peter's Overlook > Old Stage Road > Colorado Springs > Colorado",https://www.mountainproject.com/route/106511385/unknown-on-the-right,2.7,-1,"Trad, Sport","5.9+ PG13",1,75,38.74613,-104.91559
"South Face Left Side","Roadside Fin > The Airy Block > Glenwood Canyon > Glenwood Springs > Colorado",https://www.mountainproject.com/route/106386216/south-face-left-side,2.6,-1,Sport,5.9+,1,45,39.57696,-107.21446
"Y Crack","Lower Mighty Mouse Wall > Mighty Mouse Wall > Main Canyon: Unaweep Granite > Unaweep Canyon > Grand Junction Area > Colorado",https://www.mountainproject.com/route/106483208/y-crack,2.8,-1,Trad,5.9+,1,60,38.81775,-108.59864
Boomerang,"Halfway Rock > 10 Mile Canyon > Colorado",https://www.mountainproject.com/route/107751897/boomerang,2.0,-1,Sport,5.9+,1,65,39.5388,-106.1364
"Lord of the Flies","The Prow > Lime Park (a.k.a. Lime Creek) > Eagle/Vail/Minturn/Red Cliff > Colorado",https://www.mountainproject.com/route/122761287/lord-of-the-flies,3.0,-1,Sport,5.9+,1,75,39.4073,-106.6562
"Unknown 3","Main Slab > Juniper Pass > Morrison/Evergreen/Littleton > Colorado",https://www.mountainproject.com/route/106869417/unknown-3,2.3,-1,Sport,5.9+,1,80,39.6696,-105.5758
"Run for the Shadows","08. Lesser Of Two Evils > The Bank > Shelf Road > Canon City > Colorado",https://www.mountainproject.com/route/121822739/run-for-the-shadows,2.6,-1,Sport,5.9+,1,40,38.63266,-105.22956
"Bless You","Sakkety Point > Gore Mountain Range > Alpine Rock > Colorado",https://www.mountainproject.com/route/117560008/bless-you,2.7,-1,"Sport, Alpine",5.9+,1,50,40.15442,-106.55174
"Grand Giraffe Slot Variation","Redgarden - Tower One > Redgarden Wall > Eldorado Canyon State Park > Boulder > Colorado",https://www.mountainproject.com/route/111831187/grand-giraffe-slot-variation,2.7,-1,Trad,"5.9+ PG13",1,100,39.93194,-105.28603
"Crackside Direct (var.)","Creek Side > Clear Creek Canyon > Golden > Colorado",https://www.mountainproject.com/route/105763791/crackside-direct-var,2.3,-1,Trad,5.9+,1,,39.74102,-105.41042
"Rain Delay","Rain Delay Crag > Glacier Gorge > RMNP - Rock > Alpine Rock > Colorado",https://www.mountainproject.com/route/111990529/rain-delay,2.5,-1,"Trad, Alpine",5.9+,1,100,40.25944,-105.63121
"Later Gator","Cat Scratch Wall > Thunder Ridge > West Creek > South Platte > Colorado",https://www.mountainproject.com/route/112905158/later-gator,2.7,-1,Trad,5.9+,1,70,39.20123,-105.21977
"End of Autumn","West Crag > Crosier Mountain Crags > Big Thompson Canyon > Estes Park Valley > Colorado",https://www.mountainproject.com/route/109831989/end-of-autumn,2.7,-1,Trad,5.9+,1,95,40.43456,-105.38939
"Brown Hangers","Jug Dome aka Anne's Rock > Big Thompson Canyon > Estes Park Valley > Colorado",https://www.mountainproject.com/route/109222551/brown-hangers,2.1,-1,Sport,5.9+,1,60,40.41158,-105.38089
"Enigma (pending FA info)","Main Crag > Crosier Mountain Crags > Big Thompson Canyon > Estes Park Valley > Colorado",https://www.mountainproject.com/route/109635459/enigma-pending-fa-info,2.5,-1,Trad,5.9+,1,100,40.43411,-105.38742
"Shut Up","Lower Wall > Hurd Creek Crag > Grand County / Fraser Valley > Colorado",https://www.mountainproject.com/route/119767011/shut-up,2.5,-1,Sport,5.9+,1,40,40.01324,-105.77238
ThisisRCity,"The Washout > Mother's Buttress > Main Canyon: Unaweep Granite > Unaweep Canyon > Grand Junction Area > Colorado",https://www.mountainproject.com/route/120927204/thisisrcity,2.5,-1,Trad,5.9+,1,80,38.81386,-108.62005
"Kennesaw Mountain","Tanner Dome > Oak Creek Canyon > The Wet Mountains > Colorado",https://www.mountainproject.com/route/107510768/kennesaw-mountain,2.4,-1,Sport,5.9+,1,70,38.30838,-105.26009
Bu-bump,"Cattle Guard Wall > Nine Mile Roped > Nine Mile Hill > Unaweep Canyon > Grand Junction Area > Colorado",https://www.mountainproject.com/route/109871258/bu-bump,2.3,-1,Sport,5.9+,1,40,38.95628,-108.47346
"Elusive Wapiti","Squat Rock > Pine Area > South Platte > Colorado",https://www.mountainproject.com/route/105760122/elusive-wapiti,2.4,-1,Trad,5.9+,1,80,39.41587,-105.32132
"Scoop Up a Little Sky","Second Tier > Pilot Knob > South Fork of St. Vrain Canyon > St. Vrain Canyons > Lyons > Colorado",https://www.mountainproject.com/route/107306439/scoop-up-a-little-sky,2.2,-1,Trad,5.9+,1,50,40.17425,-105.36141
Hummingbird,"Penitente - Entrance Area > Penitente Canyon > San Luis Valley > Colorado",https://www.mountainproject.com/route/118892593/hummingbird,1.9,-1,Sport,5.9+,1,35,37.84401,-106.28755
"Black Streak Through Overlap","Murphy's Dome South Face > Deckers > South Platte > Colorado",https://www.mountainproject.com/route/111765336/black-streak-through-overlap,2.2,-1,Sport,5.9+,1,75,39.3741,-105.1657
"Grateful Head","Dance Hall of the Dead > South Fork of St. Vrain Canyon > St. Vrain Canyons > Lyons > Colorado",https://www.mountainproject.com/route/107044408/grateful-head,1.8,-1,"Sport, TR",5.9+,1,80,40.20413,-105.32292
"Smegma Burns","Da Butts > Buffalo Creek > South Platte > Colorado",https://www.mountainproject.com/route/105952078/smegma-burns,1.8,-1,Trad,5.9+,2,120,39.33131,-105.26801
F.E.M.A,"West Face of Hurricane Wall > Hurricane Ridge > Old Stage Road > Colorado Springs > Colorado",https://www.mountainproject.com/route/106437648/fema,2.1,-1,Sport,5.9+,1,70,38.74651,-104.89691
Strangeways,"Contest Wall > Sand Gulch > Shelf Road > Canon City > Colorado",https://www.mountainproject.com/route/112858687/strangeways,2.5,-1,Trad,5.9+,1,85,38.62148,-105.23217
"Bottle Top - Bouncing Betty Route","Gold Star Canyon > Colorado National Monument > Grand Junction Area > Colorado",https://www.mountainproject.com/route/106899493/bottle-top-bouncing-betty-route,2.3,-1,Trad,5.9+,1,100,39.08444,-108.69518
"Collagen Crack","Chuck Norris Wall > Devil's Head > South Platte > Colorado",https://www.mountainproject.com/route/113038116/collagen-crack,2.5,-1,Trad,5.9+,1,55,39.2605,-105.09164
"Yawning Flake","The Acrophile > South Fork of St. Vrain Canyon > St. Vrain Canyons > Lyons > Colorado",https://www.mountainproject.com/route/107640385/yawning-flake,2.5,-1,Trad,"5.9+ PG13",2,200,40.1863,-105.3334
Slippage,"The Pear > Lumpy Ridge > Estes Park Valley > Colorado",https://www.mountainproject.com/route/105760887/slippage,2.5,-1,Trad,5.9+,2,400,40.40731,-105.54041
R.N.R,"East Ridge > Eldorado Mountain > Boulder > Colorado",https://www.mountainproject.com/route/105757672/rnr,2.5,-1,Sport,5.9+,1,40,39.9204,-105.288
Kickapoo,"The River Chamber > Buena Vista > Colorado",https://www.mountainproject.com/route/109349027/kickapoo,1.9,-1,Sport,5.9+,1,,38.86876,-106.14413
"Moon Age","Wiggins' Wall > Red Rock Canyon Open Space > Colorado Springs > Colorado",https://www.mountainproject.com/route/107152705/moon-age,2.2,-1,Sport,5.9+,1,120,38.8409,-104.8853
"Hug A Pirate","Lost Wall > Loveland Pass Area > Keystone a.k.a. Montezuma > Colorado",https://www.mountainproject.com/route/120925479/hug-a-pirate,2.3,-1,"Sport, TR",5.9+,1,30,39.62738,-105.90945
Fumblerooski,"Quarry Wall at the Bank > The Bank > Shelf Road > Canon City > Colorado",https://www.mountainproject.com/route/119155659/fumblerooski,2.3,-1,Sport,5.9+,1,50,38.64085,-105.24069
"Jake's Break","Ridgway Dike Wall > Ouray vicinity (rock) > Colorado",https://www.mountainproject.com/route/114340578/jakes-break,2.1,-1,Sport,5.9+,1,75,38.1141,-107.7179
"Le Nouveau Riche Variation","The Riviera > The Bihedral Area > Boulder Canyon > Boulder > Colorado",https://www.mountainproject.com/route/108517124/le-nouveau-riche-variation,2.0,-1,"Trad, TR","5.9+ PG13",1,85,40.0034,-105.3959
"Rock Island","Creekside > Muddy Creek > Steamboat Springs > Colorado",https://www.mountainproject.com/route/110799237/rock-island,2.5,-1,Sport,5.9+,1,35,40.35978,-106.63217
"Fool's Grasp","Cracked Canyon > Ophir > Telluride/Norwood area > Colorado",https://www.mountainproject.com/route/110787797/fools-grasp,2.3,-1,Trad,5.9+,1,60,37.8605,-107.86263
"Bongo Fury","The Point, Powderhorn, Colorado (AKA Indian Creek) > Gunnison > Colorado",https://www.mountainproject.com/route/106518472/bongo-fury,2.3,-1,Sport,5.9+,1,40,38.24062,-107.16446
"Northwest Arete","Desdemona > South Fork of St. Vrain Canyon > St. Vrain Canyons > Lyons > Colorado",https://www.mountainproject.com/route/107598465/northwest-arete,2.7,-1,Trad,5.9+,1,100,40.19705,-105.32059
"Planet Janet","Zipper Buttress > The Neighborhood > Glenwood Canyon > Glenwood Springs > Colorado",https://www.mountainproject.com/route/106370861/planet-janet,2.1,-1,Sport,5.9+,1,30,39.55116,-107.31743
"No Name  1","Middle Mother's > Mother's Buttress > Main Canyon: Unaweep Granite > Unaweep Canyon > Grand Junction Area > Colorado",https://www.mountainproject.com/route/106749516/no-name-1,2.4,-1,Trad,5.9+,1,50,38.81392,-108.61899
"Green Eggs & Ham","The Skillet > The Frying Pan > Carbondale Area > Colorado",https://www.mountainproject.com/route/106471747/green-eggs-ham,2.4,-1,"Trad, Sport",5.9+,1,50,39.36705,-106.83188
"Cozyhang Out","The Dome > Boulder Canyon > Boulder > Colorado",https://www.mountainproject.com/route/105959077/cozyhang-out,2.3,-1,Trad,5.9+,1,30,40.0139,-105.30787
"Dike Arch","Sunday Wall > The Access Fund Trailhead > Main Canyon: Unaweep Granite > Unaweep Canyon > Grand Junction Area > Colorado",https://www.mountainproject.com/route/108518714/dike-arch,2.3,-1,"Trad, Sport",5.9+,1,65,38.81832,-108.60765
"Knuckle Sandwich","Left Infirmary Slab > Infirmary Slabs > South Fork of St. Vrain Canyon > St. Vrain Canyons > Lyons > Colorado",https://www.mountainproject.com/route/108022413/knuckle-sandwich,2.3,-1,Sport,5.9+,1,80,40.18746,-105.33378
"Le Divorce","Reese's Pieces > Lincoln Creek > Independence Pass > Colorado",https://www.mountainproject.com/route/107759809/le-divorce,2.3,-1,Trad,5.9+,1,50,39.11089,-106.6813
"Crystal Ball","Metaphysical Wall > Thunder Ridge > West Creek > South Platte > Colorado",https://www.mountainproject.com/route/106387535/crystal-ball,2.3,-1,Trad,5.9+,1,,39.1987,-105.2199
"Cacophony Corners","Sunday Wall > The Access Fund Trailhead > Main Canyon: Unaweep Granite > Unaweep Canyon > Grand Junction Area > Colorado",https://www.mountainproject.com/route/120448808/cacophony-corners,2.5,-1,Trad,5.9+,1,80,38.81832,-108.60765
Slipaway,"Helen's Dome > Sheeprock > Goose Creek/Molly Gulch Campground > South Platte > Colorado",https://www.mountainproject.com/route/120086598/slipaway,2.5,-1,Sport,5.9+,1,180,39.18947,-105.33724
"Porcelain Arete","Aretes > North Rim Routes > Black Canyon of the Gunnison > Gunnison > Colorado",https://www.mountainproject.com/route/105763587/porcelain-arete,2.1,-1,Trad,5.9+,9,1800,38.5874,-107.71815
Genesha,"Devil's Gate Tower > Devil's Canyon > McInnis Canyons > Grand Junction Area > Colorado",https://www.mountainproject.com/route/116578048/genesha,2.5,-1,Trad,5.9+,1,90,39.12323,-108.76618
"22 Rats","Nirvana Wall > Stanley Canyon > Air Force Academy > Colorado Springs > Colorado",https://www.mountainproject.com/route/120344508/22-rats,2.5,-1,"Trad, TR",5.9+,1,50,38.98746,-104.90827
"West Face","Needle Rock > Telluride/Norwood area > Colorado",https://www.mountainproject.com/route/112035953/west-face,2.5,-1,"Trad, Alpine","5.9+ PG13",1,80,37.9263,-107.81383
"Lean & Mean","North Horsetooth Ridge > Horsetooth Reservoir > Fort Collins > Colorado",https://www.mountainproject.com/route/108370569/lean-mean,2.0,-1,TR,5.9+,1,70,40.60839,-105.17039
"Smooth Moves Dihedral","The Dungeon > Horsetooth Reservoir > Fort Collins > Colorado",https://www.mountainproject.com/route/113849719/smooth-moves-dihedral,2.3,-1,TR,5.9+,1,25,40.53104,-105.13645
Toprope,"Cathedral Boulder > Cathedral Boulders (Middle Drainage) > Electric Hills Bouldering > Montrose > Colorado",https://www.mountainproject.com/route/122192400/toprope,2.3,-1,"TR, Boulder","5.9+ V0",1,,38.41676,-107.9873
"Man's Best Friend","Scarpa Pizzo > Middle Fork of St. Vrain Canyon > St. Vrain Canyons > Lyons > Colorado",https://www.mountainproject.com/route/113253668/mans-best-friend,2.5,-1,Sport,5.9+,1,60,40.14885,-105.46867
"The West Arete (of T1)","Redgarden - Tower One > Redgarden Wall > Eldorado Canyon State Park > Boulder > Colorado",https://www.mountainproject.com/route/105753457/the-west-arete-of-t1,2.5,-1,Trad,"5.9+ X",1,,39.93194,-105.28603
"Bring Your Brass","Main Crag > Crosier Mountain Crags > Big Thompson Canyon > Estes Park Valley > Colorado",https://www.mountainproject.com/route/109843046/bring-your-brass,2.7,-1,Trad,5.9+,1,180,40.43411,-105.38742
"The Secret Garden","Astro Tower & Group Half Mt., Glacier Gorge, RMNP > Half Mountain > Glacier Gorge > RMNP - Rock > Alpine Rock > Colorado",https://www.mountainproject.com/route/107493890/the-secret-garden,2.5,-1,"Trad, Alpine",5.9+,3,400,40.2655,-105.64137
"Hudak Attack","Crypto Wall > Main Canyon: Unaweep Granite > Unaweep Canyon > Grand Junction Area > Colorado",https://www.mountainproject.com/route/107125196/hudak-attack,2.5,-1,Trad,5.9+,2,180,38.8461,-108.5594
"The Flaw","Diamond Head > Eldorado Canyon State Park > Boulder > Colorado",https://www.mountainproject.com/route/105755998/the-flaw,2.5,-1,Trad,"5.9+ R",1,,39.94674,-105.29556
"You Can't Handle The Truth","Far Side > The Gallery > Shelf Road > Canon City > Colorado",https://www.mountainproject.com/route/112271002/you-cant-handle-the-truth,2.0,-1,Sport,5.9+,1,60,38.6187,-105.2377
"Crimson Crime","The Red Wall > Staunton State Park > South Platte > Colorado",https://www.mountainproject.com/route/114233671/crimson-crime,2.1,-1,Trad,5.9+,1,80,39.51391,-105.39062
"Love, Honor, and Belay","Scout Rock > South Fork of St. Vrain Canyon > St. Vrain Canyons > Lyons > Colorado",https://www.mountainproject.com/route/106430216/love-honor-and-belay,1.9,-1,"Trad, Sport",5.9+,1,45,40.2037,-105.3111
"Interface Arete","Brown Cloud Rocks > North Table Mountain/Golden Cliffs > Golden > Colorado",https://www.mountainproject.com/route/112815304/interface-arete,2.0,-1,TR,5.9+,1,,39.76831,-105.21562
"Irish Spring","Fiddlehead > Fern Canyon > South > Flatirons > Boulder > Colorado",https://www.mountainproject.com/route/105879977/irish-spring,2.1,-1,"Trad, Sport","5.9+ PG13",1,70,39.9659,-105.2891
"Every Which Way But Loose","Friendship 7 Wall > Beige Tube Area / The Narrows > Big Thompson Canyon > Estes Park Valley > Colorado",https://www.mountainproject.com/route/106837623/every-which-way-but-loose,1.9,-1,Sport,"5.9+ PG13",1,140,40.42166,-105.24053
"North Crack","Second Flatiron > North > Flatirons > Boulder > Colorado",https://www.mountainproject.com/route/105758296/north-crack,2.1,-1,Trad,5.9+,2,300,39.9891,-105.293
"Stocking Stuffer","The Dungeon > Castlewood Canyon SP > Denver South > Colorado",https://www.mountainproject.com/route/107508992/stocking-stuffer,2.1,-1,Sport,5.9+,1,40,39.34998,-104.75902
"Super Scooper","West Ridge - part A - Verschneidung to base > The West Ridge > Eldorado Canyon State Park > Boulder > Colorado",https://www.mountainproject.com/route/105758955/super-scooper,1.9,-1,Trad,5.9+,2,100,39.93063,-105.28689
"Owl Pellet","Grazing Allotment Crag > Creedmore Lakes Road > Red Feather Lakes > Fort Collins > Colorado",https://www.mountainproject.com/route/111936062/owl-pellet,2.1,-1,Sport,5.9+,2,110,40.83842,-105.50911
Tubby,"Quarry Wall at the Bank > The Bank > Shelf Road > Canon City > Colorado",https://www.mountainproject.com/route/116763297/tubby,2.0,-1,Sport,5.9+,1,40,38.64085,-105.24069
"Solar Slab","Grazing Allotment Crag > Creedmore Lakes Road > Red Feather Lakes > Fort Collins > Colorado",https://www.mountainproject.com/route/122493482/solar-slab,2.0,-1,Sport,5.9+,1,80,40.83842,-105.50911
"King Tut","Redgarden - Tower Two > Redgarden Wall > Eldorado Canyon State Park > Boulder > Colorado",https://www.mountainproject.com/route/107130711/king-tut,2.3,-1,Trad,"5.9+ R",2,275,39.9312,-105.28518
Overlooked,"Bucksnort Slab > Pine Area > South Platte > Colorado",https://www.mountainproject.com/route/105753073/overlooked,2.3,-1,Trad,5.9+,1,,39.42133,-105.31936
"M5? hand crack","Loch Vale Gorge > Glacier Gorge Trailhead Ice > RMNP - Mixed/Ice > CO Ice & Mixed > Colorado",https://www.mountainproject.com/route/105747579/m5-hand-crack,2.0,-1,"Trad, Mixed, Ice","5.9+ WI4+ M5 R",1,45,40.29421,-105.65195
Ophelia,"Hurricane Wall > Hurricane Ridge > Old Stage Road > Colorado Springs > Colorado",https://www.mountainproject.com/route/106437624/ophelia,1.9,-1,Sport,5.9+,1,70,38.74636,-104.89673
"Cigar Tower: You're Gonna Go Far","Government Cheese Area > Mee Canyon > Westwater Area > Grand Junction Area > Colorado",https://www.mountainproject.com/route/114327020/cigar-tower-youre-gonna-go-far,3.5,-1,"Trad, Aid","5.9+ C2-",2,220,39.14518,-108.92618
"Garston Trout: Crusher's Sloppy Seconds","Arch Tower Area > Mee Canyon > Westwater Area > Grand Junction Area > Colorado",https://www.mountainproject.com/route/114317909/garston-trout-crushers-sloppy-seconds,3.5,-1,"Trad, Aid","5.9+ C1",2,200,39.14777,-108.9317
"Consolation Crack","Time to Head Home Boulder > Almost Asshole Rock Bouldering > Buffalo Creek Bouldering > Buffalo Creek > South Platte > Colorado",https://www.mountainproject.com/route/119880393/consolation-crack,2.3,-1,Boulder,"5.9+ V0",1,12,39.33529,-105.28043
"Dextrous Digits","The Pear > Lumpy Ridge > Estes Park Valley > Colorado",https://www.mountainproject.com/route/105762255/dextrous-digits,2.3,-1,"Trad, TR",5.9+,1,80,40.40731,-105.54041
"Johnny Cash","Roadside Crag > Spring Creek > Gunnison > Colorado",https://www.mountainproject.com/route/121087644/johnny-cash,2.3,-1,Trad,5.9+,1,75,38.76368,-106.76818
"Jimmy G.","Kloof Alcove > Eldorado Canyon State Park > Boulder > Colorado",https://www.mountainproject.com/route/110424648/jimmy-g,2.5,-1,Trad,5.9+,1,50,39.93163,-105.28704
"Adament Eve - A.k.a Don't Bolt","North Bank Left > North Bank > Taylor Canyon > Gunnison > Colorado",https://www.mountainproject.com/route/112142402/adament-eve-aka-dont-bolt,2.3,-1,Trad,"5.9+ PG13",1,85,38.72652,-106.76942
"Crack of Thunder","Upper Tier Main Crag > Crosier Mountain Crags > Big Thompson Canyon > Estes Park Valley > Colorado",https://www.mountainproject.com/route/111889688/crack-of-thunder,2.3,-1,Trad,5.9+,1,60,40.43421,-105.38849
MI5,"Chief's Head > Buena Vista > Colorado",https://www.mountainproject.com/route/106412736/mi5,2.0,-1,"Trad, Sport",5.9+,1,,38.8388,-106.1329
"Magnum P.I.","The Throne > South Fork of St. Vrain Canyon > St. Vrain Canyons > Lyons > Colorado",https://www.mountainproject.com/route/107546977/magnum-pi,2.3,-1,Trad,"5.9+ PG13",3,300,40.18354,-105.33506
"Stone Soup","The Stone Cafe > The Sport Park > Boulder Canyon > Boulder > Colorado",https://www.mountainproject.com/route/107951349/stone-soup,2.3,-1,Trad,5.9+,1,55,39.9726,-105.4648
"Sicilian Defense","The Bookend > Lumpy Ridge > Estes Park Valley > Colorado",https://www.mountainproject.com/route/105750664/sicilian-defense,2.3,-1,Trad,5.9+,5,,40.40681,-105.5372
"The Way We Were","The Dark Side > Shelf Road > Canon City > Colorado",https://www.mountainproject.com/route/106782195/the-way-we-were,2.3,-1,Trad,"5.9+ PG13",1,60,38.6281,-105.2239
Stronghold,"Combat Rock > Big Thompson Canyon > Estes Park Valley > Colorado",https://www.mountainproject.com/route/105761763/stronghold,2.2,-1,Trad,"5.9+ R",2,200,40.44204,-105.34428
"Texas Toast","Daily Bread Wall > Box Canyon Crags > Long Draw Road > West of Rustic > Poudre Canyon > Fort Collins > Colorado",https://www.mountainproject.com/route/122762429/texas-toast,2.3,-1,Sport,5.9+,1,50,40.56679,-105.83182
"Professor Peart","Quarry Wall at the Bank > The Bank > Shelf Road > Canon City > Colorado",https://www.mountainproject.com/route/118323241/professor-peart,2.2,-1,Sport,5.9+,1,50,38.64085,-105.24069
"Lone Wolf","Cecilville Slab aka Cecil Rock > Fremont Pass > Colorado",https://www.mountainproject.com/route/119220683/lone-wolf,2.3,-1,"Trad, TR","5.9+ PG13",1,45,39.33014,-106.21737
"Deux Pour Une","Napoleon Wall > Gilman Canyon > Eagle/Vail/Minturn/Red Cliff > Colorado",https://www.mountainproject.com/route/113197705/deux-pour-une,2.3,-1,Sport,5.9+,1,50,39.50859,-106.3804
"White Light","Kyle's Tower > Muddy Creek > Steamboat Springs > Colorado",https://www.mountainproject.com/route/110801295/white-light,2.3,-1,Sport,5.9+,1,40,40.38557,-106.68075
Artemis,"Arrowhead > Glacier Gorge > RMNP - Rock > Alpine Rock > Colorado",https://www.mountainproject.com/route/105759522/artemis,2.2,-1,"Trad, Alpine",5.9+,4,300,40.2683,-105.65
"The Heartland","Fourth Buttress > Elephant Buttresses > Boulder Canyon > Boulder > Colorado",https://www.mountainproject.com/route/105758236/the-heartland,2.0,-1,Trad,5.9+,2,210,40.0122,-105.309
Stargazing,"Observatory Rock > South Fork of St. Vrain Canyon > St. Vrain Canyons > Lyons > Colorado",https://www.mountainproject.com/route/106790391/stargazing,2.3,-1,Trad,5.9+,1,100,40.18578,-105.33685
"Fat Head","Gnome Dome > Buffalo Creek > South Platte > Colorado",https://www.mountainproject.com/route/110864391/fat-head,2.2,-1,Trad,5.9+,1,70,39.37837,-105.26026
Semi-Wild,"Redgarden - S Buttress > Redgarden Wall > Eldorado Canyon State Park > Boulder > Colorado",https://www.mountainproject.com/route/105764397/semi-wild,2.2,-1,Trad,"5.9+ R",1,130,39.93119,-105.28395
"For Better or Worse","The Quarry > Thunder Ridge > West Creek > South Platte > Colorado",https://www.mountainproject.com/route/109131176/for-better-or-worse,2.2,-1,Trad,5.9+,1,100,39.19906,-105.22163
"Easy Left Face","Upper Tier Left > Hornsilver > Eagle/Vail/Minturn/Red Cliff > Colorado",https://www.mountainproject.com/route/106899905/easy-left-face,2.3,-1,Sport,5.9+,1,,39.4908,-106.36499
"Kid Rock","Penthouse > Vallecito Crags > Durango > Colorado",https://www.mountainproject.com/route/106271589/kid-rock,2.1,-1,Trad,5.9+,1,40,37.48066,-107.53568
"Sugar Magnolia","Humphrey's Dome > Buffalo Creek > South Platte > Colorado",https://www.mountainproject.com/route/105758509/sugar-magnolia,2.2,-1,Trad,5.9+,3,,39.37837,-105.26026
"Talus Food Crack","Sphinx Rock > Pine Area > South Platte > Colorado",https://www.mountainproject.com/route/105762624/talus-food-crack,2.0,-1,Trad,5.9+,2,180,39.4163,-105.31924
"Night of the Unicorn","The Lost World > Fern Canyon Rocks > RMNP - Rock > Alpine Rock > Colorado",https://www.mountainproject.com/route/105749053/night-of-the-unicorn,2.0,-1,Trad,5.9+,1,,40.352,-105.65683
Scorcher,"Canyon Block > Boulder Canyon > Boulder > Colorado",https://www.mountainproject.com/route/106014130/scorcher,2.0,-1,Trad,5.9+,1,35,40.00503,-105.3649
"COVID Toes","Inferno Slab > Goose Creek/Molly Gulch Campground > South Platte > Colorado",https://www.mountainproject.com/route/118933647/covid-toes,2.0,-1,Sport,5.9+,1,120,39.21141,-105.32192
Chatters,"Southwest Face / Finger Face > North Gateway Rock > Garden of the Gods > Colorado Springs > Colorado",https://www.mountainproject.com/route/106948007/chatters,2.0,-1,Sport,"5.9+ PG13",1,80,38.87889,-104.88096
"Lilies of the Valley","Left Hand Rock > Jurassic Park - Lily Lake > CO Hwy 7 & Tributaries > Estes Park Valley > Colorado",https://www.mountainproject.com/route/106527000/lilies-of-the-valley,2.0,-1,Trad,5.9+,1,90,40.31164,-105.54242
"Curving Crack Variation","Turkey Rock > Turkey Rocks > South Platte > Colorado",https://www.mountainproject.com/route/112280684/curving-crack-variation,2.0,-1,Trad,"5.9+ PG13",1,90,39.11917,-105.23983
"Plain High Poser","The Crag Ranch > Devil's Head > South Platte > Colorado",https://www.mountainproject.com/route/109376232/plain-high-poser,2.0,-1,Sport,5.9+,1,90,39.25846,-105.10125
"Sub Slab","Redgarden - Below Lower Ramp > Redgarden Wall > Eldorado Canyon State Park > Boulder > Colorado",https://www.mountainproject.com/route/105943777/sub-slab,2.0,-1,Trad,"5.9+ R",1,80,39.9309,-105.28548
"Dirty Dog","Dog Wall > Upper Boulderfield Area > Independence Pass > Colorado",https://www.mountainproject.com/route/109352768/dirty-dog,1.8,-1,"Sport, TR",5.9+,1,40,39.12459,-106.67171
"Beamer Up Scotty","Buick Rocks and Hitler's Sex Life > Longmont Reservoir Area (aka Buttonrock) > North Fork of the St. Vrain River > St. Vrain Canyons > Lyons > Colorado",https://www.mountainproject.com/route/105761991/beamer-up-scotty,2.0,-1,Trad,5.9+,1,50,40.23746,-105.31917
"Cave Route","Duncan's Ridge > Horsetooth Reservoir > Fort Collins > Colorado",https://www.mountainproject.com/route/107667320/cave-route,2.0,-1,"Trad, TR",5.9+,1,45,40.53352,-105.14488
"Judgment Day","08. Lesser Of Two Evils > The Bank > Shelf Road > Canon City > Colorado",https://www.mountainproject.com/route/121822768/judgment-day,2.1,-1,Sport,5.9+,1,40,38.63266,-105.22956
"The John Roskelley Show or Polyvinyl Chloride","Industrial Buttress > North Table Mountain/Golden Cliffs > Golden > Colorado",https://www.mountainproject.com/route/106626618/the-john-roskelley-show-or-polyvinyl-chloride,1.9,-1,Trad,5.9+,1,,39.76842,-105.21838
Turtle,"Yellow Dog Rock > Dog Rocks > Tarryall > South Platte > Colorado",https://www.mountainproject.com/route/113618493/turtle,2.0,-1,Sport,5.9+,1,60,39.08737,-105.40503
"Camera Obscura","Turkey Tail > Turkey Rocks > South Platte > Colorado",https://www.mountainproject.com/route/109640206/camera-obscura,2.0,-1,Trad,5.9+,1,140,39.11911,-105.23949
X,"West Ridge - part D - Xanadu to Pony Express > The West Ridge > Eldorado Canyon State Park > Boulder > Colorado",https://www.mountainproject.com/route/106073974/x,2.0,-1,Trad,"5.9+ PG13",1,60,39.93239,-105.28874
Peeps,"Peeps Wall > The Palace > Poudre Canyon > Fort Collins > Colorado",https://www.mountainproject.com/route/107994729/peeps,2.0,-1,Sport,5.9+,1,80,40.69384,-105.37878
"Anniversary Route","The Tan Buttresses > Mt. Blue Sky (formerly Mt. Evans) > Alpine Rock > Colorado",https://www.mountainproject.com/route/106858424/anniversary-route,2.0,-1,"Trad, Alpine",5.9+,5,600,39.61101,-105.65243
