Route,Location,URL,"Avg Stars","Your Stars","Route Type",Rating,Pitches,Length,"Area Latitude","Area Longitude"
Sparerib,"Sparerib Area > East Side > Gallatin Canyon > Southwest Region > Montana",https://www.mountainproject.com/route/105961561/sparerib,3.8,-1,Trad,5.8,2,225,45.4196,-111.2293
"The Mutt and Jeff","The Wedge > Humbug Spires > Southwest Region > Montana",https://www.mountainproject.com/route/107321383/the-mutt-and-jeff,3.7,-1,Trad,5.8,5,600,45.7773,-112.63682
"The Waltz","The Waltz Formation > East Side > Gallatin Canyon > Southwest Region > Montana",https://www.mountainproject.com/route/107653331/the-waltz,3.0,-1,Trad,5.8,4,300,45.41747,-111.23097
"The Dagger","Gallatin Tower > West Side > Gallatin Canyon > Southwest Region > Montana",https://www.mountainproject.com/route/106520721/the-dagger,2.9,-1,Trad,5.8,1,40,45.4169,-111.2342
"The Fiver","Practice Rock > Hyalite Canyon > Southwest Region > Montana",https://www.mountainproject.com/route/106497956/the-fiver,2.6,-1,"Trad, TR",5.8,1,70,45.55519,-111.06181
"Watchtower Standard Route","The Watchtower - Lower > East Side > Gallatin Canyon > Southwest Region > Montana",https://www.mountainproject.com/route/108100067/watchtower-standard-route,3.1,-1,Trad,5.8,3,250,45.41896,-111.23205
Batman,"Batman and Robin Slab > Lower Bear Canyon > Bear Canyon > Southwest Region > Montana",https://www.mountainproject.com/route/107643164/batman,2.0,-1,Sport,5.8,1,40,45.6049,-110.9148
"Skin Diver","Under The Sea Wall > Lower Bear Canyon > Bear Canyon > Southwest Region > Montana",https://www.mountainproject.com/route/107656940/skin-diver,2.2,-1,Sport,5.8,1,40,45.6051,-110.915
"Climbing Club Route","Main Crag > Allenspur > Paradise Valley > Southwest Region > Montana",https://www.mountainproject.com/route/107142993/climbing-club-route,3.1,-1,Sport,5.8,1,90,45.5961,-110.5598
"Righteous are the Brave","Ladyfingers Buttress > Mill Creek > Paradise Valley > Southwest Region > Montana",https://www.mountainproject.com/route/107758460/righteous-are-the-brave,3.0,-1,Trad,5.8,1,50,45.26925,-110.4911
"New World Route","Beehive Peak > Beehive Basin > Big Sky Area > Southwest Region > Montana",https://www.mountainproject.com/route/111045917/new-world-route,3.8,-1,"Trad, Alpine",5.8,3,500,45.35399,-111.40566
"Crystal Delight","Fish Face > East Side > Gallatin Canyon > Southwest Region > Montana",https://www.mountainproject.com/route/108295353/crystal-delight,2.8,-1,Trad,5.8,1,100,45.41772,-111.22982
"Jerry's Variation","Practice Rock > Hyalite Canyon > Southwest Region > Montana",https://www.mountainproject.com/route/107758206/jerrys-variation,2.4,-1,"Trad, TR",5.8,1,45,45.55519,-111.06181
"Southwest Face","The Wedge > Humbug Spires > Southwest Region > Montana",https://www.mountainproject.com/route/108184861/southwest-face,3.1,-1,Trad,5.8,5,450,45.7773,-112.63682
"Snake Eye","Sidewinder Buttress > Rattler Gulch > Northwest Region > Montana",https://www.mountainproject.com/route/107111297/snake-eye,2.8,-1,Sport,5.8,1,60,46.72768,-113.23226
"White Line","King (West Face) > Spire Rock > Southwest Region > Montana",https://www.mountainproject.com/route/109284796/white-line,3.2,-1,Trad,5.8,2,200,45.9531,-112.29037
"Where's Jack?","The Little Matterhorn > Glacier National Park > Northwest Region > Montana",https://www.mountainproject.com/route/117298788/wheres-jack,4.0,-1,"Trad, Alpine","5.8 PG13",7,1080,48.63572,-113.78466
"Zig Zag","Sparerib Area > East Side > Gallatin Canyon > Southwest Region > Montana",https://www.mountainproject.com/route/105961577/zig-zag,2.7,-1,Trad,5.8,2,190,45.4196,-111.2293
"Don't Put Your Hand In It","Sidewinder Buttress > Rattler Gulch > Northwest Region > Montana",https://www.mountainproject.com/route/107111306/dont-put-your-hand-in-it,2.5,-1,Sport,5.8,1,60,46.72768,-113.23226
"Orange Peel","Sidewinder Buttress > Rattler Gulch > Northwest Region > Montana",https://www.mountainproject.com/route/107111411/orange-peel,2.4,-1,Sport,5.8,1,70,46.72768,-113.23226
"Dodge Ball","Recess Wall > Bozeman Pass > Southwest Region > Montana",https://www.mountainproject.com/route/107692883/dodge-ball,2.4,-1,Sport,5.8,1,50,45.6423,-110.9073
"Callis' Warts and Corns","Black Line Buttress > East Side > Gallatin Canyon > Southwest Region > Montana",https://www.mountainproject.com/route/118584723/callis-warts-and-corns,3.6,-1,Trad,"5.8 R",1,170,45.41671,-111.2296
"Outermost Limits","Outermost Limits > Kootenai Canyon > Northwest Region > Montana",https://www.mountainproject.com/route/107110067/outermost-limits,2.8,-1,"Trad, Sport",5.8,1,60,46.53742,-114.15643
"Look Ma, No Hands","Main Crag > Allenspur > Paradise Valley > Southwest Region > Montana",https://www.mountainproject.com/route/109301251/look-ma-no-hands,2.4,-1,Sport,"5.8 PG13",1,50,45.5961,-110.5598
"Moray in the Hole","Under The Sea Wall > Lower Bear Canyon > Bear Canyon > Southwest Region > Montana",https://www.mountainproject.com/route/112287456/moray-in-the-hole,2.0,-1,Sport,5.8,1,40,45.6051,-110.915
"Dirty Bird","Blue Collar Wall > Avalanche Gulch > Big Belt Mountains > Southwest Region > Montana",https://www.mountainproject.com/route/108143488/dirty-bird,2.5,-1,Sport,5.8,1,70,46.63356,-111.56334
"No Dick Tick","Tick Farm > Mill Creek North Rim > Mill Creek > Northwest Region > Montana",https://www.mountainproject.com/route/107487718/no-dick-tick,2.6,-1,"Sport, Alpine",5.8,1,60,46.3102,-114.2394
"Public Service Announcement","Public Service Wall > Bozeman Pass > Southwest Region > Montana",https://www.mountainproject.com/route/108236566/public-service-announcement,2.5,-1,Sport,5.8,1,40,45.64329,-110.90634
"Automatic Pilot","Queen (Southeast Corner) > Spire Rock > Southwest Region > Montana",https://www.mountainproject.com/route/108397987/automatic-pilot,2.3,-1,"Trad, TR",5.8,1,40,45.95244,-112.28956
"After Dance","Fish Face > East Side > Gallatin Canyon > Southwest Region > Montana",https://www.mountainproject.com/route/112782935/after-dance,2.8,-1,"Sport, TR",5.8,1,85,45.41772,-111.22982
"The Spiral","Practice Rock > Hyalite Canyon > Southwest Region > Montana",https://www.mountainproject.com/route/108215058/the-spiral,2.3,-1,Trad,5.8,1,55,45.55519,-111.06181
"The Noses Right Off Our Faces","Winter Wall > Madison River Area > Southwest Region > Montana",https://www.mountainproject.com/route/107530322/the-noses-right-off-our-faces,2.4,-1,Trad,5.8,1,50,45.5916,-111.5744
"Atomic Watermelon","Biscuit Wall > Stormcastle > Gallatin Canyon > Southwest Region > Montana",https://www.mountainproject.com/route/119222520/atomic-watermelon,2.7,-1,Sport,5.8,1,50,45.45202,-111.23375
"Christianity on Demand","The Foyer > Natural Bridge and Falls > South Central Region > Montana",https://www.mountainproject.com/route/108072027/christianity-on-demand,1.9,-1,Sport,5.8,1,40,45.5492,-110.205
"Book of Payne","Sunset Wall > Blue Cloud > Southwest Region > Montana",https://www.mountainproject.com/route/106382402/book-of-payne,2.8,-1,Trad,5.8,1,90,46.61878,-112.21187
Smoosh,"The Nuggets > Revenue Flats > Southwest Region > Montana",https://www.mountainproject.com/route/107550548/smoosh,2.8,-1,Trad,5.8,1,35,45.5444,-111.7703
"Pinnacle Dihedral","Practice Rock > Hyalite Canyon > Southwest Region > Montana",https://www.mountainproject.com/route/108119217/pinnacle-dihedral,2.3,-1,Trad,5.8,1,60,45.55519,-111.06181
"Southeast Chimneys","The Wedge > Humbug Spires > Southwest Region > Montana",https://www.mountainproject.com/route/108199673/southeast-chimneys,2.7,-1,Trad,5.8,6,600,45.7773,-112.63682
"Obscurity Crack","Obscurity Crag > Allenspur > Paradise Valley > Southwest Region > Montana",https://www.mountainproject.com/route/113931135/obscurity-crack,2.8,-1,Trad,5.8,1,60,45.59377,-110.55925
"Come As You Are","South Buttress > Blue Cloud > Southwest Region > Montana",https://www.mountainproject.com/route/119072837/come-as-you-are,2.9,-1,Sport,5.8,1,65,46.61907,-112.21207
"Standard Route","Devils Thumb > Sheep Mountain > Southwest Region > Montana",https://www.mountainproject.com/route/111936351/standard-route,3.0,-1,Trad,5.8,1,110,46.49941,-112.03222
"Skyport Chimney","Main Wall > Lost Horse > Northwest Region > Montana",https://www.mountainproject.com/route/120687674/skyport-chimney,3.2,-1,Trad,5.8,1,80,46.10551,-114.26451
"Packrat Ate My Shoes","Excuses Walls > Stryker Crags > Point of Rocks > Northwest Region > Montana",https://www.mountainproject.com/route/121949008/packrat-ate-my-shoes,3.0,-1,Trad,5.8,1,40,48.65689,-114.75976
"Solar Overlaps","Hidden Spire Area > Upper Bear Canyon > Bear Canyon > Southwest Region > Montana",https://www.mountainproject.com/route/118971521/solar-overlaps,3.0,-1,Sport,5.8,1,110,45.59883,-110.90844
"Ten Years After","Lakeside Walls > Stone Hill > Northwest Region > Montana",https://www.mountainproject.com/route/122349185/ten-years-after,3.0,-1,Trad,5.8,2,160,48.83646,-115.26153
"Out of the Blue","Out of Bounds Wall > East Side > Gallatin Canyon > Southwest Region > Montana",https://www.mountainproject.com/route/117288113/out-of-the-blue,3.0,-1,Trad,5.8,2,160,45.42038,-111.22833
"Cracksters Unite","Split Pinnacle > Homestake Pass > Southwest Region > Montana",https://www.mountainproject.com/route/111987909/cracksters-unite,3.0,-1,Trad,5.8,1,60,45.91703,-112.37127
"Guilty Pleasures","Shangri La > Pike Creek > Beaver Creek > Big Belt Mountains > Southwest Region > Montana",https://www.mountainproject.com/route/119692274/guilty-pleasures,2.0,-1,Sport,5.8,1,65,46.85772,-111.70324
"Mom's Meatloaf","Elk Rock > Lolo Area > Northwest Region > Montana",https://www.mountainproject.com/route/118963069/moms-meatloaf,3.0,-1,"Trad, TR",5.8,1,145,46.71374,-114.56526
"Bishops Surprise","Dragon's Back > Homestake Pass > Southwest Region > Montana",https://www.mountainproject.com/route/117678606/bishops-surprise,3.0,-1,Trad,5.8,1,125,45.9127,-112.32828
"Standard Corner","Phat One Buttress > Emigrant Gulch > Southwest Region > Montana",https://www.mountainproject.com/route/114463360/standard-corner,3.0,-1,"Trad, Alpine",5.8,1,100,45.28679,-110.68382
"Maltese Flamingo","Queen (West Face) > Spire Rock > Southwest Region > Montana",https://www.mountainproject.com/route/117111269/maltese-flamingo,2.5,-1,Trad,5.8,1,150,45.95255,-112.29024
"Ski Tracks","Sparerib Area > East Side > Gallatin Canyon > Southwest Region > Montana",https://www.mountainproject.com/route/113082302/ski-tracks,2.5,-1,Trad,5.8,2,240,45.4196,-111.2293
Cocalahishkit,"Medicine Hole Wall > Indian Creek > Southwest Region > Montana",https://www.mountainproject.com/route/107827789/cocalahishkit,2.6,-1,Sport,5.8,1,70,46.3226,-111.6267
"Diamonds on the Soles of Her Shoes","Biscuit Wall > Stormcastle > Gallatin Canyon > Southwest Region > Montana",https://www.mountainproject.com/route/117554958/diamonds-on-the-soles-of-her-shoes,2.3,-1,Sport,5.8,1,40,45.45202,-111.23375
"Be The Rock","Bikini Area > South Stone > Stone Hill > Northwest Region > Montana",https://www.mountainproject.com/route/118775706/be-the-rock,2.8,-1,"Trad, TR",5.8,1,40,48.77519,-115.2978
Catheads!,"The Massif > Little McGregor Massifs > Northwest Region > Montana",https://www.mountainproject.com/route/114534136/catheads,2.6,-1,Sport,5.8,1,50,48.04531,-114.82835
Substandard,"Winter Wall > Madison River Area > Southwest Region > Montana",https://www.mountainproject.com/route/112295729/substandard,2.3,-1,Trad,5.8,2,120,45.5916,-111.5744
"Get Lonely","Mouse House > Point of Rocks > Northwest Region > Montana",https://www.mountainproject.com/route/118875946/get-lonely,2.7,-1,Trad,5.8,1,40,48.6416,-114.69125
"Solitary Smile","Alien West Face > The Alien > Avalanche Gulch > Big Belt Mountains > Southwest Region > Montana",https://www.mountainproject.com/route/113487114/solitary-smile,2.7,-1,Sport,5.8,1,35,46.6335,-111.56522
"Easy Rider","Alberton Rest Stop > Northwest Region > Montana",https://www.mountainproject.com/route/106301148/easy-rider,1.9,-1,Sport,5.8,1,70,47.01234,-114.54191
Charcoal,"The Ovens > Red Lodge > South Central Region > Montana",https://www.mountainproject.com/route/114427477/charcoal,2.5,-1,Sport,5.8,1,60,45.1566,-109.3085
"5.8 Sport","Gregory > Billings Rimrocks > South Central Region > Montana",https://www.mountainproject.com/route/110481756/58-sport,2.2,-1,Sport,5.8,1,40,45.8033,-108.5884
Unknown,"Main Cliff > Red Cliff Campground > Big Sky Area > Southwest Region > Montana",https://www.mountainproject.com/route/108225791/unknown,2.0,-1,Sport,5.8,1,50,45.16972,-111.24067
"The Ripple","Wave Crag > Allenspur > Paradise Valley > Southwest Region > Montana",https://www.mountainproject.com/route/112005894/the-ripple,2.5,-1,Sport,5.8,1,50,45.59543,-110.55829
Unknown(3),"Alberton Rest Stop > Northwest Region > Montana",https://www.mountainproject.com/route/106367743/unknown3,1.9,-1,Sport,5.8,1,50,47.01234,-114.54191
"Left Side","Queen (North Face) > Spire Rock > Southwest Region > Montana",https://www.mountainproject.com/route/108217310/left-side,2.0,-1,"Trad, TR",5.8,1,30,45.9526,-112.2897
"Baby Bear","Winter Wall > Madison River Area > Southwest Region > Montana",https://www.mountainproject.com/route/118560340/baby-bear,2.1,-1,Sport,5.8,1,30,45.5916,-111.5744
Rabbit,"Enchanted Neighborhood > Stone Hill > Northwest Region > Montana",https://www.mountainproject.com/route/119086173/rabbit,2.0,-1,Trad,5.8,1,70,48.82478,-115.28123
"Glass Catcher","First Buttress > East Side > Gallatin Canyon > Southwest Region > Montana",https://www.mountainproject.com/route/109307736/glass-catcher,2.0,-1,Trad,5.8,1,100,45.41629,-111.23013
"Mickey Mantle","Mouse House > Point of Rocks > Northwest Region > Montana",https://www.mountainproject.com/route/118875967/mickey-mantle,2.3,-1,Sport,5.8,1,40,48.6416,-114.69125
"Rocky and Bullwinkle","Tip Toe Area > Stone Hill > Northwest Region > Montana",https://www.mountainproject.com/route/106079966/rocky-and-bullwinkle,2.3,-1,Sport,5.8,1,70,48.79306,-115.29986
"Fuzzy Navel","Happy Hour > Sheep Mountain > Southwest Region > Montana",https://www.mountainproject.com/route/111529859/fuzzy-navel,2.2,-1,"Sport, TR",5.8,1,35,46.4855,-112.03699
"Trailer Queen","Main Wall > Lost Horse > Northwest Region > Montana",https://www.mountainproject.com/route/120722371/trailer-queen,2.2,-1,Trad,5.8,1,150,46.10551,-114.26451
"Middle Climb","Canadian Roadcut > Stone Hill > Northwest Region > Montana",https://www.mountainproject.com/route/113694599/middle-climb,2.1,-1,"Sport, Alpine",5.8,1,50,48.83782,-115.26413
"Anchors Away","Mikey's Mussel Beach > Stone Hill > Northwest Region > Montana",https://www.mountainproject.com/route/114484558/anchors-away,2.2,-1,Trad,5.8,1,70,48.79273,-115.30123
Pterodactyl,"Lizard Slabs > Stone Hill > Northwest Region > Montana",https://www.mountainproject.com/route/117064598/pterodactyl,2.2,-1,Trad,5.8,1,60,48.78809,-115.29772
"Stranger in a Strange Land","The Wafers > Revenue Flats > Southwest Region > Montana",https://www.mountainproject.com/route/112311474/stranger-in-a-strange-land,2.3,-1,"Trad, TR",5.8,1,60,45.5447,-111.7674
"Unknown 5.8","Winter Wall > Madison River Area > Southwest Region > Montana",https://www.mountainproject.com/route/112494377/unknown-58,2.3,-1,Sport,5.8,1,70,45.5916,-111.5744
"Johnny Utah","Gregory > Billings Rimrocks > South Central Region > Montana",https://www.mountainproject.com/route/108228159/johnny-utah,2.2,-1,"Sport, TR",5.8,1,50,45.8033,-108.5884
"Involuntary Tick","Tick Farm > Mill Creek North Rim > Mill Creek > Northwest Region > Montana",https://www.mountainproject.com/route/107487697/involuntary-tick,2.0,-1,"Sport, Alpine",5.8,1,50,46.3102,-114.2394
"Can't Roller Skate in a Buffalo Herd","Medicine Hole Wall > Indian Creek > Southwest Region > Montana",https://www.mountainproject.com/route/107827823/cant-roller-skate-in-a-buffalo-herd,1.9,-1,Sport,5.8,1,70,46.3226,-111.6267
"Broken Keg Blues","Hay Stack Rock > Sheep Mountain > Southwest Region > Montana",https://www.mountainproject.com/route/111589784/broken-keg-blues,2.0,-1,"Sport, TR",5.8,1,50,46.49058,-112.02704
"Ridin' For Justice","The Bud Wall > Wolverine Bowl > Bridger Range > Southwest Region > Montana",https://www.mountainproject.com/route/109342857/ridin-for-justice,2.0,-1,"Sport, Alpine",5.8,1,55,45.83906,-110.93754
"What About Schmee?","The Foyer > Natural Bridge and Falls > South Central Region > Montana",https://www.mountainproject.com/route/120859159/what-about-schmee,2.0,-1,Sport,5.8,1,65,45.5492,-110.205
"Members Only","Crew Crag > Bear Trap Road Routes > Madison River Area > Southwest Region > Montana",https://www.mountainproject.com/route/116996404/members-only,2.0,-1,Trad,5.8,2,140,45.5931,-111.5683
"Beer and Smear","Hold Up Bluffs North > Stone Hill > Northwest Region > Montana",https://www.mountainproject.com/route/106136411/beer-and-smear,2.0,-1,"Trad, TR",5.8,1,30,48.79306,-115.29984
"Pooh’s Honey Jar","Enchanted Neighborhood > Stone Hill > Northwest Region > Montana",https://www.mountainproject.com/route/119085961/poohs-honey-jar,2.0,-1,"Sport, TR",5.8,1,70,48.82478,-115.28123
"Squiggle and Scratch","Elk Rock > Lolo Area > Northwest Region > Montana",https://www.mountainproject.com/route/119288933/squiggle-and-scratch,2.0,-1,"Trad, TR",5.8,2,140,46.71374,-114.56526
"Surface to Air","Blow-Hard Wall > Blackleaf Canyon > Northwest Region > Montana",https://www.mountainproject.com/route/119055253/surface-to-air,2.0,-1,Sport,5.8,1,45,48.00649,-112.71
"Helmet Head","Sphinx & Helmet Area > Big Sky Area > Southwest Region > Montana",https://www.mountainproject.com/route/121192064/helmet-head,2.0,-1,"Trad, Alpine","5.8 R",2,220,45.16466,-111.49845
Proto-Pacific,"East Crags > Frog Rock > Southwest Region > Montana",https://www.mountainproject.com/route/107688190/proto-pacific,2.0,-1,Sport,5.8,2,200,45.63953,-110.90027
Beknackt,"Left Rock > Sheep Mountain > Southwest Region > Montana",https://www.mountainproject.com/route/122810915/beknackt,2.0,-1,Trad,5.8,1,65,46.49977,-112.02775
"Bolts To Nowhere","Parking Lot Wall > Blodgett Canyon > Northwest Region > Montana",https://www.mountainproject.com/route/107241404/bolts-to-nowhere,2.0,-1,"Trad, Sport","5.8 PG13",1,110,46.277,-114.3572
"Big Bird","Playland > Stone Hill > Northwest Region > Montana",https://www.mountainproject.com/route/119531200/big-bird,2.0,-1,Trad,5.8,1,30,48.7325,-115.30307
Legatee,"Leggat Spire > Tobacco Root Mountains > Southwest Region > Montana",https://www.mountainproject.com/route/106608362/legatee,2.0,-1,"Trad, Alpine",5.8,4,550,45.5172,-111.991
"Bar Refaeli","Nude Beach Cove > Avalanche Gulch > Big Belt Mountains > Southwest Region > Montana",https://www.mountainproject.com/route/112983787/bar-refaeli,2.0,-1,Sport,5.8,1,50,46.63493,-111.56212
"Petrified Bat Shit","New Rock (Butte) > Southwest Region > Montana",https://www.mountainproject.com/route/111657628/petrified-bat-shit,2.0,-1,"Trad, TR",5.8,1,30,45.83536,-112.33778
"High Ore","Prospector Crag > Memorial Falls > Northwest Region > Montana",https://www.mountainproject.com/route/110966876/high-ore,2.0,-1,TR,5.8,1,75,46.91644,-110.70509
"Corona Crack","The Carwash > Stone Hill > Northwest Region > Montana",https://www.mountainproject.com/route/122350254/corona-crack,2.0,-1,Trad,5.8,1,70,48.82752,-115.27622
"JC Crack No. 2 (Right Crack)","North of Northwest Wall > Stone Hill > Northwest Region > Montana",https://www.mountainproject.com/route/119952461/jc-crack-no-2-right-crack,2.0,-1,Trad,5.8,1,40,48.84324,-115.25951
"Elevator's Out of Order","The Massif > Little McGregor Massifs > Northwest Region > Montana",https://www.mountainproject.com/route/123151615/elevators-out-of-order,2.5,-1,Sport,5.8,1,40,48.04531,-114.82835
"Echo Slab","Elk Rock > Lolo Area > Northwest Region > Montana",https://www.mountainproject.com/route/119288765/echo-slab,2.0,-1,Trad,5.8,1,70,46.71374,-114.56526
"Black Baby","Gamma > Crystal Theater / Babcock Spires > Lolo Area > Northwest Region > Montana",https://www.mountainproject.com/route/119291802/black-baby,2.0,-1,Trad,5.8,1,90,46.65617,-114.60086
"Green Bay Packers #3","Baker Lake Boulders > Northwest Region > Montana",https://www.mountainproject.com/route/118601274/green-bay-packers-3,2.0,-1,Trad,5.8,3,175,45.89355,-114.25759
"Unnamed 5.8","Upper Falls > Memorial Falls > Northwest Region > Montana",https://www.mountainproject.com/route/114946719/unnamed-58,2.0,-1,"Trad, TR",5.8,1,40,46.91478,-110.69328
"Climbing Baby Bites the Sun","The Fins > Hyalite Canyon > Southwest Region > Montana",https://www.mountainproject.com/route/113863435/climbing-baby-bites-the-sun,2.0,-1,Trad,5.8,1,75,45.5088,-110.9947
"Algae on Parade","Split Pinnacle > Homestake Pass > Southwest Region > Montana",https://www.mountainproject.com/route/111987887/algae-on-parade,2.0,-1,Trad,5.8,1,70,45.91703,-112.37127
"Plumb Line","Interface Rocks > Spire Rock > Southwest Region > Montana",https://www.mountainproject.com/route/118889206/plumb-line,2.0,-1,Trad,5.8,1,30,45.95288,-112.29002
"Rolling stones","Prospector Crag > Memorial Falls > Northwest Region > Montana",https://www.mountainproject.com/route/113446973/rolling-stones,2.0,-1,"Trad, TR","5.8 PG13",1,70,46.91644,-110.70509
"Acme Belay Company","New Rock (Butte) > Southwest Region > Montana",https://www.mountainproject.com/route/111657726/acme-belay-company,2.0,-1,Trad,5.8,1,30,45.83536,-112.33778
Lotus,"Cap Rock > Homestake Pass > Southwest Region > Montana",https://www.mountainproject.com/route/109346924/lotus,2.0,-1,Trad,5.8,1,40,45.9202,-112.4091
"Right Side","Raspberry Wall > Mill Creek > Paradise Valley > Southwest Region > Montana",https://www.mountainproject.com/route/113140827/right-side,2.0,-1,TR,5.8,1,50,45.2695,-110.49245
"My Friend Flicker","La Cantina > Blue Cloud > Southwest Region > Montana",https://www.mountainproject.com/route/119221449/my-friend-flicker,2.0,-1,Sport,5.8,1,40,46.6188,-112.2119
Triceratops,"Lizard Slabs > Stone Hill > Northwest Region > Montana",https://www.mountainproject.com/route/123754847/triceratops,2.0,-1,Trad,"5.8 PG13",1,60,48.78809,-115.29772
"When You're This Big","Baby Roof Rock > Gillespie Basin > Southwest Region > Montana",https://www.mountainproject.com/route/124533930/when-youre-this-big,3.0,-1,Trad,5.8,1,55,45.99349,-112.25971
Cowography,"Cowboy Dome > Green Canyon > Castle Mountains > Southwest Region > Montana",https://www.mountainproject.com/route/124563519/cowography,3.0,-1,Trad,5.8,1,120,46.49373,-110.44671
"Cheeky Chicken","WTPZ > Point of Rocks > Northwest Region > Montana",https://www.mountainproject.com/route/124569442/cheeky-chicken,3.0,-1,Sport,5.8,1,40,48.6329,-114.68332
Riverview,"Crew Crag > Bear Trap Road Routes > Madison River Area > Southwest Region > Montana",https://www.mountainproject.com/route/124585693/riverview,2.5,-1,Trad,5.8,1,60,45.5931,-111.5683
"Back in the Game","Wheat Thins Cliff > Homestake Pass > Southwest Region > Montana",https://www.mountainproject.com/route/124649193/back-in-the-game,2.0,-1,Trad,5.8,1,,45.90901,-112.32768
"Compost in Training","Main Cliff > Red Cliff Campground > Big Sky Area > Southwest Region > Montana",https://www.mountainproject.com/route/124738824/compost-in-training,2.3,-1,Sport,5.8,1,45,45.16972,-111.24067
"Full Sail","Hold Up Bluffs North > Stone Hill > Northwest Region > Montana",https://www.mountainproject.com/route/124761516/full-sail,3.0,-1,Trad,5.8,1,50,48.79306,-115.29984
"Green Bay Packers #111 - Direct","Lambeau Field Rock > Glen Domes > Northwest Region > Montana",https://www.mountainproject.com/route/123711020/green-bay-packers-111-direct,2.0,-1,Trad,5.8,1,47,46.40423,-114.26013
"Montana Street","Long Wall > Roof Rock > Gillespie Basin > Southwest Region > Montana",https://www.mountainproject.com/route/125091517/montana-street,4.0,-1,Trad,5.8,1,200,45.99309,-112.25951
Midterms,"Schoolhouse Crag > Bear Trap Road Routes > Madison River Area > Southwest Region > Montana",https://www.mountainproject.com/route/125188322/midterms,3.0,-1,Trad,5.8,1,50,45.59504,-111.56848
