Route,Location,URL,"Avg Stars","Your Stars","Route Type",Rating,Pitches,Length,"Area Latitude","Area Longitude"
"The Velvet Tongue","The Texas Wall / West Velvet Wall > (16) Black Velvet Canyon > Red Rocks > Southern Nevada > Nevada",https://www.mountainproject.com/route/106714924/the-velvet-tongue,4.0,-1,Trad,5.12+,6,600,36.03599,-115.46885
"The Main Vein","Blood Wall > Cactus Flower Tower > (12) Oak Creek Canyon > Red Rocks > Southern Nevada > Nevada",https://www.mountainproject.com/route/114390894/the-main-vein,4.0,-1,Trad,5.12+,1,90,36.09804,-115.48736
Jazzmatazz,"4. South Central > The Hood > Kyle Canyon > Mount Charleston > Southern Nevada > Nevada",https://www.mountainproject.com/route/109305113/jazzmatazz,2.8,-1,Sport,5.12+,1,70,36.27421,-115.65778
"Storm Trooper (incomplete project)","Nueva Esperanza > Kyle Canyon > Mount Charleston > Southern Nevada > Nevada",https://www.mountainproject.com/route/114194913/storm-trooper-incomplete-project,3.0,-1,Sport,5.12+,1,,36.27524,-115.66963
"Dancin' with Moloch","The Owl's Den > (01) Calico Basin > Red Rocks > Southern Nevada > Nevada",https://www.mountainproject.com/route/111835245/dancin-with-moloch,3.0,-1,Sport,5.12+,1,110,36.1581,-115.43399
"Reverse Cowgirl","Missionary Wall > Campsite Canyon > Mormon Mountains > Southern Nevada > Nevada",https://www.mountainproject.com/route/108690597/reverse-cowgirl,3.0,-1,Sport,5.12+,1,70,36.9095,-114.29276
"Big Black Cadillac","Blue Sky Bluff > Kyle Canyon > Mount Charleston > Southern Nevada > Nevada",https://www.mountainproject.com/route/107680488/big-black-cadillac,2.7,-1,Sport,5.12+,1,50,36.26316,-115.62859
Catclaw,"Cactus Joes > North Side > Mount Potosi > Southern Nevada > Nevada",https://www.mountainproject.com/route/120418237/catclaw,3.0,-1,Sport,5.12+,1,55,36.00409,-115.48324
Scorpio,"Ghetto Wall > Lone Mountain > La Madre Range > Southern Nevada > Nevada",https://www.mountainproject.com/route/123824478/scorpio,3.0,-1,Sport,5.12+,1,45,36.23574,-115.31345
