Route,Location,URL,"Avg Stars","Your Stars","Route Type",Rating,Pitches,Length,"Area Latitude","Area Longitude"
Ravenous,"Eagle Falls > I: Old Forge Region > Adirondacks > New York",https://www.mountainproject.com/route/108328489/ravenous,3.8,-1,Sport,5.11a/b,1,75,43.9051,-75.1959
The.Crack,"3. Scheyichbi > m. Picatinny > Powerlinez > New York",https://www.mountainproject.com/route/112251829/thecrack,3.5,-1,"Trad, TR",5.11a/b,1,40,41.1458,-74.16712
"Void Where Inhibited","d. Harvest Moon to the End > The Near Trapps > The Gunks > New York",https://www.mountainproject.com/route/106473002/void-where-inhibited,2.2,-1,Trad,5.11a/b,1,80,41.72872,-74.20061
"April Showers","k. The Slime Wall > The Trapps > The Gunks > New York",https://www.mountainproject.com/route/107342001/april-showers,2.5,-1,Trad,5.11a/b,1,,41.74928,-74.1749
"The Price is Right","Main Wall > Shelving Rock > F: Lake George Region > Adirondacks > New York",https://www.mountainproject.com/route/117719921/the-price-is-right,2.8,-1,Sport,5.11a/b,1,,43.5605,-73.60366
