Route,Location,URL,"Avg Stars","Your Stars","Route Type",Rating,Pitches,Length,"Area Latitude","Area Longitude"
"Frosted Flake","Cereal Buttress > Rumbling Bald > 1. Southern Mountains Region > North Carolina",https://www.mountainproject.com/route/105899306/frosted-flake,3.6,-1,Trad,5.9+,1,80,35.44953,-82.21258
"Unfinished Concerto","South Side > Looking Glass Rock > 1. Southern Mountains Region > North Carolina",https://www.mountainproject.com/route/105950764/unfinished-concerto,3.1,-1,Trad,5.9+,3,300,35.30054,-82.79229
Nutsweat,"North End > Moore's Wall (Routes) > Moore's Wall > 3. Piedmont Region > North Carolina",https://www.mountainproject.com/route/106820188/nutsweat,3.6,-1,Trad,5.9+,1,110,36.3979,-80.2917
"The Fin","Little Wilson > 2. Northern Mountains Region > North Carolina",https://www.mountainproject.com/route/107265638/the-fin,2.6,-1,Sport,5.9+,1,45,36.0885,-81.79303
"Blast in Black","Section 4 > Rocky Face Recreational Area > 3. Piedmont Region > North Carolina",https://www.mountainproject.com/route/108540246/blast-in-black,2.6,-1,Sport,5.9+,1,50,35.96367,-81.11972
"The Sperm","North Side > Looking Glass Rock > 1. Southern Mountains Region > North Carolina",https://www.mountainproject.com/route/105874515/the-sperm,2.9,-1,Trad,5.9+,4,350,35.30546,-82.79093
Fantastic,"Stone Mountain South Face > Stone Mountain > 3. Piedmont Region > North Carolina",https://www.mountainproject.com/route/107666745/fantastic,3.8,-1,"Trad, Sport","5.9+ PG13",4,470,36.3916,-81.0473
"Tall Climb to Be Good On","Table Rock > Linville Gorge > 2. Northern Mountains Region > North Carolina",https://www.mountainproject.com/route/106455427/tall-climb-to-be-good-on,2.7,-1,Trad,5.9+,1,85,35.88831,-81.88519
"Morris' Arete","West Cliff - Main > Melrose Mtn. Climbing Park > 1. Southern Mountains Region > North Carolina",https://www.mountainproject.com/route/118226668/morris-arete,3.0,-1,"Sport, TR",5.9+,1,50,35.20194,-82.28068
"Fire Point","Main Tier > Ship Rock > 2. Northern Mountains Region > North Carolina",https://www.mountainproject.com/route/106812828/fire-point,3.1,-1,Trad,"5.9+ R",1,100,36.099,-81.7815
"Toads R Us","Cedar Rock - Main Wall > Cedar Rock > 1. Southern Mountains Region > North Carolina",https://www.mountainproject.com/route/106240116/toads-r-us,3.3,-1,Trad,"5.9+ PG13",2,250,35.25532,-82.80667
"Electric Boobs","Stone Mountain South Face > Stone Mountain > 3. Piedmont Region > North Carolina",https://www.mountainproject.com/route/106369747/electric-boobs,3.1,-1,Trad,"5.9+ PG13",3,300,36.3916,-81.0473
"The Twins Right","Section 2 > Rocky Face Recreational Area > 3. Piedmont Region > North Carolina",https://www.mountainproject.com/route/108556955/the-twins-right,2.5,-1,Sport,5.9+,1,,35.96386,-81.12042
"Strattle Castor","Better Late Than Never Wall > Ship Rock > 2. Northern Mountains Region > North Carolina",https://www.mountainproject.com/route/106918300/strattle-castor,2.8,-1,Trad,"5.9+ PG13",1,70,36.099,-81.7815
"Rattle Snake Crack","John Rock > 1. Southern Mountains Region > North Carolina",https://www.mountainproject.com/route/117986504/rattle-snake-crack,3.4,-1,Trad,"5.9+ R",4,400,35.27825,-82.79183
"High Anxiety","Stone Mountain North Face > Stone Mountain > 3. Piedmont Region > North Carolina",https://www.mountainproject.com/route/107334781/high-anxiety,4.0,-1,Trad,5.9+,2,220,36.3953,-81.0453
"Tilted Arms","Shortoff Mountain > Linville Gorge > 2. Northern Mountains Region > North Carolina",https://www.mountainproject.com/route/112250597/tilted-arms,4.0,-1,Trad,5.9+,1,,35.83139,-81.90257
"Too Much Fun","Central Wall > Moore's Wall (Routes) > Moore's Wall > 3. Piedmont Region > North Carolina",https://www.mountainproject.com/route/106788983/too-much-fun,2.7,-1,Trad,5.9+,1,100,36.39764,-80.28578
"Dude on the Corner","06. Three Bears > Pilot Mountain > 3. Piedmont Region > North Carolina",https://www.mountainproject.com/route/112534845/dude-on-the-corner,2.4,-1,Sport,5.9+,1,50,36.34011,-80.48519
"Walking On Water","Cereal Wall > Rumbling Bald > 1. Southern Mountains Region > North Carolina",https://www.mountainproject.com/route/106034068/walking-on-water,3.4,-1,Trad,"5.9+ PG13",2,250,35.44964,-82.2129
"Sensemilia Sunset","Nose Area > Looking Glass Rock > 1. Southern Mountains Region > North Carolina",https://www.mountainproject.com/route/105941668/sensemilia-sunset,2.7,-1,Trad,"5.9+ R",4,465,35.30474,-82.79538
LNT,"The Cave > Cathey's Creek Crag > 1. Southern Mountains Region > North Carolina",https://www.mountainproject.com/route/107634266/lnt,2.6,-1,Trad,5.9+,1,100,35.22633,-82.80107
"Hidden-mite short","Lower Tier > Section 5 > Rocky Face Recreational Area > 3. Piedmont Region > North Carolina",https://www.mountainproject.com/route/108597661/hidden-mite-short,2.5,-1,Sport,5.9+,1,45,35.96294,-81.11888
"Apricot Jam","North Carolina Wall > Linville Gorge > 2. Northern Mountains Region > North Carolina",https://www.mountainproject.com/route/106921695/apricot-jam,2.6,-1,Trad,5.9+,4,300,35.87662,-81.89174
"Manatee Fluid","Laurel Knob > 1. Southern Mountains Region > North Carolina",https://www.mountainproject.com/route/106277701/manatee-fluid,3.1,-1,Trad,5.9+,4,600,35.15026,-83.0564
"Original Route","Sitting Bear Spire > Sitting Bear > Linville Gorge > 2. Northern Mountains Region > North Carolina",https://www.mountainproject.com/route/109248806/original-route,2.5,-1,Trad,5.9+,1,40,35.92874,-81.88965
"Black Socks","Left Field > Rumbling Bald > 1. Southern Mountains Region > North Carolina",https://www.mountainproject.com/route/106333729/black-socks,3.5,-1,Trad,"5.9+ PG13",1,110,35.449,-82.2143
"Finders Keepers","Shortoff Mountain > Linville Gorge > 2. Northern Mountains Region > North Carolina",https://www.mountainproject.com/route/106071946/finders-keepers,3.3,-1,Trad,5.9+,1,100,35.83139,-81.90257
"Seven and Seven","Hickory Nutcracker Area > Rumbling Bald > 1. Southern Mountains Region > North Carolina",https://www.mountainproject.com/route/122109512/seven-and-seven,3.3,-1,Sport,"5.9+ PG13",1,150,35.45275,-82.21895
"Fear of Flying","North Side > Looking Glass Rock > 1. Southern Mountains Region > North Carolina",https://www.mountainproject.com/route/109591137/fear-of-flying,2.4,-1,Trad,5.9+,1,45,35.30546,-82.79093
"Trick or Feet","Family Wall > Rumbling Bald > 1. Southern Mountains Region > North Carolina",https://www.mountainproject.com/route/108012836/trick-or-feet,2.6,-1,"Trad, Sport",5.9+,1,45,35.44962,-82.21513
Playground,"01. Practice Wall > Main Climbing Areas > Crowders Mountain > 3. Piedmont Region > North Carolina",https://www.mountainproject.com/route/107217919/playground,2.1,-1,"Trad, TR",5.9+,1,80,35.23235,-81.27513
"Good Samaritans","Cereal Buttress > Rumbling Bald > 1. Southern Mountains Region > North Carolina",https://www.mountainproject.com/route/106353357/good-samaritans,2.4,-1,Trad,5.9+,2,175,35.44953,-82.21258
Luciferin,"Middle Hawksbill > Hawksbill Mtn > Linville Gorge > 2. Northern Mountains Region > North Carolina",https://www.mountainproject.com/route/112007461/luciferin,2.8,-1,Trad,5.9+,1,90,35.91263,-81.88769
"Cedar Blossom","Cedar Rock - Main Wall > Cedar Rock > 1. Southern Mountains Region > North Carolina",https://www.mountainproject.com/route/107047241/cedar-blossom,2.8,-1,Trad,5.9+,1,120,35.25532,-82.80667
"Rubber Cookie","The Fin Area > West Walls > Cooks Wall > 3. Piedmont Region > North Carolina",https://www.mountainproject.com/route/113935468/rubber-cookie,2.9,-1,Trad,5.9+,1,90,36.38134,-80.29585
"Limited Access","The Main Wall > The Dark Side (Closed to climbing, included for historic reference) > 1. Southern Mountains Region > North Carolina",https://www.mountainproject.com/route/106035625/limited-access,3.0,-1,Trad,5.9+,4,350,35.6037,-79.2773
"Sun's Out, Guns Out","Sunshine Wall > Lower Wall > Cooks Wall > 3. Piedmont Region > North Carolina",https://www.mountainproject.com/route/116688463/suns-out-guns-out,3.0,-1,Trad,5.9+,1,100,36.37939,-80.29177
"Twenty Five","Victory Wall > 1. Southern Mountains Region > North Carolina",https://www.mountainproject.com/route/113606416/twenty-five,2.8,-1,Trad,5.9+,1,100,35.33979,-82.89511
"Little Dickie and the No-No Zone","Cedar Rock - North > Cedar Rock > 1. Southern Mountains Region > North Carolina",https://www.mountainproject.com/route/111978500/little-dickie-and-the-no-no-zone,3.0,-1,Trad,"5.9+ PG13",1,125,35.2599,-82.80602
"Slate Night Booty","East Slate Rock > 1. Southern Mountains Region > North Carolina",https://www.mountainproject.com/route/112878881/slate-night-booty,3.0,-1,Trad,5.9+,1,150,35.39381,-82.71196
"MAMA slab","East Face/Guides Wall  (Right Side) > Looking Glass Rock > 1. Southern Mountains Region > North Carolina",https://www.mountainproject.com/route/106656325/mama-slab,3.0,-1,Trad,5.9+,1,150,35.2948,-82.78819
"Sufficiently Breathless","Stone Mountain South Face > Stone Mountain > 3. Piedmont Region > North Carolina",https://www.mountainproject.com/route/123193463/sufficiently-breathless,3.0,-1,Trad,"5.9+ X",4,400,36.3916,-81.0473
"Pirate's Cove","Laurel Knob > 1. Southern Mountains Region > North Carolina",https://www.mountainproject.com/route/106247764/pirates-cove,2.8,-1,Trad,5.9+,4,550,35.15026,-83.0564
"Sex Is A Chore","Cedar Rock - North > Cedar Rock > 1. Southern Mountains Region > North Carolina",https://www.mountainproject.com/route/112299630/sex-is-a-chore,3.0,-1,Trad,5.9+,1,100,35.2599,-82.80602
"Sugar Pop Rocks","Cereal Wall > Rumbling Bald > 1. Southern Mountains Region > North Carolina",https://www.mountainproject.com/route/106240172/sugar-pop-rocks,2.8,-1,Trad,"5.9+ PG13",1,150,35.44964,-82.2129
"Orange Peel","11.  Fear of Flying > Pilot Mountain > 3. Piedmont Region > North Carolina",https://www.mountainproject.com/route/122471669/orange-peel,1.9,-1,Sport,5.9+,1,40,36.33998,-80.48211
"Punji Stick","Hidden Wall > Looking Glass Rock > 1. Southern Mountains Region > North Carolina",https://www.mountainproject.com/route/106905203/punji-stick,2.8,-1,Trad,5.9+,1,70,35.2948,-82.78819
"Mid-Life Crisis","Cereal Buttress > Rumbling Bald > 1. Southern Mountains Region > North Carolina",https://www.mountainproject.com/route/106002407/mid-life-crisis,2.4,-1,Trad,"5.9+ PG13",1,80,35.44953,-82.21258
Direct,"10. The Fortress > Main Climbing Areas > Crowders Mountain > 3. Piedmont Region > North Carolina",https://www.mountainproject.com/route/107294745/direct,1.9,-1,"Trad, TR","5.9+ X",1,50,35.23491,-81.27402
"Cougar Leverage","West Cliff - Main > Melrose Mtn. Climbing Park > 1. Southern Mountains Region > North Carolina",https://www.mountainproject.com/route/118226611/cougar-leverage,2.0,-1,Sport,5.9+,1,50,35.20194,-82.28068
"Risk Radar","The Cave > Cathey's Creek Crag > 1. Southern Mountains Region > North Carolina",https://www.mountainproject.com/route/107634335/risk-radar,2.3,-1,Trad,5.9+,1,55,35.22633,-82.80107
"Catch Me Now I'm Falling","South Side > Looking Glass Rock > 1. Southern Mountains Region > North Carolina",https://www.mountainproject.com/route/107052013/catch-me-now-im-falling,2.5,-1,Trad,"5.9+ R",2,350,35.30054,-82.79229
"Over Done","Sunshine Wall > Lower Wall > Cooks Wall > 3. Piedmont Region > North Carolina",https://www.mountainproject.com/route/111948914/over-done,2.4,-1,Trad,5.9+,1,90,36.37939,-80.29177
"Flight of The Raven","Cedar Rock - North > Cedar Rock > 1. Southern Mountains Region > North Carolina",https://www.mountainproject.com/route/109492988/flight-of-the-raven,2.4,-1,Trad,5.9+,1,70,35.2599,-82.80602
"Sentry Box Ledge Direct","South Side > Looking Glass Rock > 1. Southern Mountains Region > North Carolina",https://www.mountainproject.com/route/112320869/sentry-box-ledge-direct,2.1,-1,"Trad, TR","5.9+ PG13",1,70,35.30054,-82.79229
Anhedonia,"The Cave > Rumbling Bald > 1. Southern Mountains Region > North Carolina",https://www.mountainproject.com/route/121993876/anhedonia,2.4,-1,"Trad, TR","5.9+ PG13",1,60,35.449,-82.2143
"Run to the Rock","West Cliff - Main > Melrose Mtn. Climbing Park > 1. Southern Mountains Region > North Carolina",https://www.mountainproject.com/route/118226603/run-to-the-rock,1.9,-1,Sport,5.9+,1,50,35.20194,-82.28068
"Southern Hospitality","Cedar Rock - North > Cedar Rock > 1. Southern Mountains Region > North Carolina",https://www.mountainproject.com/route/111069887/southern-hospitality,2.0,-1,Trad,5.9+,1,70,35.2599,-82.80602
"Kitty Litter","06. Red Wall > Main Climbing Areas > Crowders Mountain > 3. Piedmont Region > North Carolina",https://www.mountainproject.com/route/107353325/kitty-litter,2.0,-1,"Trad, TR",5.9+,1,,35.23437,-81.27357
Arborcide,"Rawlhide Wall > 07. Resurgence Walls > Main Climbing Areas > Crowders Mountain > 3. Piedmont Region > North Carolina",https://www.mountainproject.com/route/106246802/arborcide,2.0,-1,Trad,5.9+,1,40,35.23539,-81.27232
"Better late than never","Laurel Knob > 1. Southern Mountains Region > North Carolina",https://www.mountainproject.com/route/106572478/better-late-than-never,2.0,-1,Trad,5.9+,2,400,35.15026,-83.0564
"5.9 for the Tough Guy","Cedar Rock - North > Cedar Rock > 1. Southern Mountains Region > North Carolina",https://www.mountainproject.com/route/111069926/59-for-the-tough-guy,2.0,-1,Trad,5.9+,1,70,35.2599,-82.80602
"My Corona","Big Green > 1. Southern Mountains Region > North Carolina",https://www.mountainproject.com/route/118740425/my-corona,2.0,-1,Sport,5.9+,1,50,35.1562,-83.0281
"Wet Dreams","Stone Mountain South Face > Stone Mountain > 3. Piedmont Region > North Carolina",https://www.mountainproject.com/route/121656384/wet-dreams,2.0,-1,Trad,"5.9+ X",2,210,36.3916,-81.0473
"Nameless Face","The Cave > Rumbling Bald > 1. Southern Mountains Region > North Carolina",https://www.mountainproject.com/route/121994179/nameless-face,2.0,-1,"Trad, TR",5.9+,1,80,35.449,-82.2143
"One Damn Goat","Stone Depot > 1. Southern Mountains Region > North Carolina",https://www.mountainproject.com/route/112102270/one-damn-goat,2.0,-1,Trad,"5.9+ PG13",1,90,35.2591,-82.8004
"Crown of Thorns","Southeast Face > Whiteside Mountain > 1. Southern Mountains Region > North Carolina",https://www.mountainproject.com/route/106916959/crown-of-thorns,2.0,-1,Trad,"5.9+ R",6,700,35.0831,-83.1358
Intergalactic,"East Cliff > Melrose Mtn. Climbing Park > 1. Southern Mountains Region > North Carolina",https://www.mountainproject.com/route/120234416/intergalactic,2.0,-1,Trad,5.9+,1,50,35.20113,-82.27508
"Trench Town","Reggae Wall > Linville Gorge > 2. Northern Mountains Region > North Carolina",https://www.mountainproject.com/route/121275650/trench-town,2.0,-1,Trad,5.9+,1,60,35.86963,-81.89377
"Zen Slab","Stone Mountain North Face > Stone Mountain > 3. Piedmont Region > North Carolina",https://www.mountainproject.com/route/108853871/zen-slab,2.0,-1,Trad,"5.9+ R",3,,36.3953,-81.0453
"Little Bugger","Section 4 > Rocky Face Recreational Area > 3. Piedmont Region > North Carolina",https://www.mountainproject.com/route/120416387/little-bugger,2.0,-1,"Sport, TR",5.9+,1,25,35.96367,-81.11972
"Short Stack","Central Boulder Field > Melrose Mtn. Climbing Park > 1. Southern Mountains Region > North Carolina",https://www.mountainproject.com/route/120832148/short-stack,2.0,-1,"Sport, TR",5.9+,1,30,35.20158,-82.27714
"Unknown Wide corner","East Face/Guides Wall  (Left side) > Looking Glass Rock > 1. Southern Mountains Region > North Carolina",https://www.mountainproject.com/route/106654999/unknown-wide-corner,2.0,-1,Trad,5.9+,1,80,35.2948,-82.78819
"Old Yeller","The Dump aka Warpin and Dorphin (Routes) > The Dump > 2. Northern Mountains Region > North Carolina",https://www.mountainproject.com/route/123699695/old-yeller,2.0,-1,Trad,5.9+,1,,36.09709,-81.7719
"Pons of Catalonia","Table Rock > Linville Gorge > 2. Northern Mountains Region > North Carolina",https://www.mountainproject.com/route/125162677/pons-of-catalonia,2.0,-1,Trad,5.9+,1,70,35.88831,-81.88519
