Route,Location,URL,"Avg Stars","Your Stars","Route Type",Rating,Pitches,Length,"Area Latitude","Area Longitude"
"Wartley's Revenge","Christian Brothers - East Side > (l) Christian Brothers > Smith Rock > Central Oregon > Oregon",https://www.mountainproject.com/route/105803545/wartleys-revenge,3.9,-1,Trad,5.11a,3,250,44.36598,-121.14688
"Pure Palm","(2) Wildfire Wall > West Side > (z) Lower Gorge > Smith Rock > Central Oregon > Oregon",https://www.mountainproject.com/route/105803570/pure-palm,3.8,-1,Sport,5.11a,1,80,44.36798,-121.13081
"On The Road","(2) Wildfire Wall > West Side > (z) Lower Gorge > Smith Rock > Central Oregon > Oregon",https://www.mountainproject.com/route/105810605/on-the-road,3.9,-1,Trad,5.11a,1,80,44.36798,-121.13081
"Magic Light Start","(g) Morning Glory Wall > Smith Rock > Central Oregon > Oregon",https://www.mountainproject.com/route/110457319/magic-light-start,3.5,-1,Sport,5.11a,1,,44.36716,-121.14353
"Bad Moon Rising","(q) Mesa Verde Wall > Smith Rock > Central Oregon > Oregon",https://www.mountainproject.com/route/105803451/bad-moon-rising,3.5,-1,Sport,5.11a,1,90,44.36866,-121.14442
"Woman In The Meadow","Left Side > Northern Point > (yy) Basalt Rimrock > Smith Rock > Central Oregon > Oregon",https://www.mountainproject.com/route/106404789/woman-in-the-meadow,3.3,-1,Sport,5.11a,1,35,44.37227,-121.13424
"Gorilla Love Affair","(9) Jungle Cliff > Broughton Bluff > Portland & The Gorge > Oregon",https://www.mountainproject.com/route/107776858/gorilla-love-affair,3.2,-1,Sport,5.11a,1,,45.53735,-122.37207
"Tuesday’s Gone","The Monument Base Area > (7) The Monument > (v) Monument Area > Smith Rock > Central Oregon > Oregon",https://www.mountainproject.com/route/117940677/tuesdays-gone,3.4,-1,Sport,5.11a,1,90,44.37611,-121.13503
Blasphemy,"Christian Brothers - East Side > (l) Christian Brothers > Smith Rock > Central Oregon > Oregon",https://www.mountainproject.com/route/105814533/blasphemy,3.0,-1,Sport,5.11a,1,70,44.36598,-121.14688
"The Struggle Within (Start)","(2) Llama Wall > (m) Smith Rock Group > Smith Rock > Central Oregon > Oregon",https://www.mountainproject.com/route/111761521/the-struggle-within-start,3.0,-1,Sport,5.11a,1,90,44.36418,-121.14694
"More Sandy than Kevin","Shipwreck Wall - East Face > (c) Shipwreck Wall > Smith Rock > Central Oregon > Oregon",https://www.mountainproject.com/route/105790430/more-sandy-than-kevin,2.9,-1,Sport,5.11a,1,,44.36708,-121.14198
"Bucket List","(a) Dreamland > Marsupial Wall > (w) The Marsupials > Smith Rock > Central Oregon > Oregon",https://www.mountainproject.com/route/109638837/bucket-list,3.7,-1,Sport,5.11a,1,50,44.36891,-121.12312
"Zebra Direct","(g) Morning Glory Wall > Smith Rock > Central Oregon > Oregon",https://www.mountainproject.com/route/105817270/zebra-direct,2.4,-1,Sport,5.11a,1,80,44.36716,-121.14353
Armageddon,"(f) Cocaine Gully > Smith Rock > Central Oregon > Oregon",https://www.mountainproject.com/route/105815133/armageddon,2.7,-1,Sport,5.11a,1,80,44.36719,-121.14307
Ecocide,"(9) Jungle Cliff > Broughton Bluff > Portland & The Gorge > Oregon",https://www.mountainproject.com/route/111158613/ecocide,3.3,-1,Sport,5.11a,1,60,45.53735,-122.37207
"Cool Air","Koala Rock > (w) The Marsupials > Smith Rock > Central Oregon > Oregon",https://www.mountainproject.com/route/105812642/cool-air,3.3,-1,Sport,5.11a,1,85,44.36947,-121.12462
"Master Looney","(4) Arrington Columns > East Side > (z) Lower Gorge > Smith Rock > Central Oregon > Oregon",https://www.mountainproject.com/route/105810631/master-looney,3.9,-1,Trad,5.11a,1,80,44.36774,-121.12995
"Cry of the Poor","(2) Wildfire Wall > West Side > (z) Lower Gorge > Smith Rock > Central Oregon > Oregon",https://www.mountainproject.com/route/106745080/cry-of-the-poor,3.8,-1,Trad,5.11a,1,,44.36798,-121.13081
Barad-dûr,"Southeast Face > Wolf Rock > Willamette Valley > Oregon",https://www.mountainproject.com/route/107230099/barad-dur,3.5,-1,Trad,5.11a,8,,44.30131,-122.14792
"Reason To Be","(q) Mesa Verde Wall > Smith Rock > Central Oregon > Oregon",https://www.mountainproject.com/route/105806903/reason-to-be,3.1,-1,Sport,5.11a,1,80,44.36866,-121.14442
"Hemp Liberation","(n) Snake Rock > Smith Rock > Central Oregon > Oregon",https://www.mountainproject.com/route/105815129/hemp-liberation,2.9,-1,Sport,5.11a,1,65,44.36679,-121.14644
"Hanging Judge","(6) Bat Wall > Broughton Bluff > Portland & The Gorge > Oregon",https://www.mountainproject.com/route/116586057/hanging-judge,2.7,-1,Sport,5.11a,1,45,45.53901,-122.37472
"Bop Till You Drop","(r) Pleasure Palace > Smith Rock > Central Oregon > Oregon",https://www.mountainproject.com/route/105803519/bop-till-you-drop,2.7,-1,Sport,5.11a,1,65,44.36918,-121.14304
"Goddess of Virtue","(7) Gods and Monsters Wall > Klinger Spring > Mt. Hood National Forest > Oregon",https://www.mountainproject.com/route/109610777/goddess-of-virtue,3.0,-1,Sport,5.11a,1,60,45.40796,-121.56799
"Mojo Rising","Spring Mountain > Northeast Oregon > Oregon",https://www.mountainproject.com/route/107302512/mojo-rising,3.4,-1,Sport,5.11a,1,80,45.45812,-118.23642
"E-Type Jag","(zz) Upper Gorge > Smith Rock > Central Oregon > Oregon",https://www.mountainproject.com/route/105801776/e-type-jag,3.8,-1,Sport,5.11a,1,90,44.36434,-121.12783
"Hard Attack","(2) Windfall Wall > East Side > (z) Lower Gorge > Smith Rock > Central Oregon > Oregon",https://www.mountainproject.com/route/109153273/hard-attack,3.8,-1,Trad,5.11a,1,90,44.36774,-121.12995
"To Live is to Die","Koala Rock > (w) The Marsupials > Smith Rock > Central Oregon > Oregon",https://www.mountainproject.com/route/107629100/to-live-is-to-die,3.1,-1,Sport,5.11a,1,80,44.36947,-121.12462
"My Secret Garden","Garden Cliffs > The Garden > Willamette Valley > Oregon",https://www.mountainproject.com/route/111975484/my-secret-garden,3.1,-1,Sport,5.11a,1,40,44.44123,-122.57255
"Lion's Chair","(g) Morning Glory Wall > Smith Rock > Central Oregon > Oregon",https://www.mountainproject.com/route/106316075/lions-chair,3.0,-1,Trad,"5.11a R",5,350,44.36716,-121.14353
Murmurations,"(E) Sun Deck > Eagles Rest > Willamette Valley > Oregon",https://www.mountainproject.com/route/121028582/murmurations,3.8,-1,Sport,5.11a,1,80,43.84625,-122.74785
"The Delicate Sound of Falling","(5) The Leaning Tower Area > Klinger Spring > Mt. Hood National Forest > Oregon",https://www.mountainproject.com/route/109628511/the-delicate-sound-of-falling,3.6,-1,Trad,5.11a,1,95,45.40863,-121.56855
"Shapes and Colors","(E) Sun Deck > Eagles Rest > Willamette Valley > Oregon",https://www.mountainproject.com/route/120667437/shapes-and-colors,3.8,-1,Sport,5.11a,1,55,43.84625,-122.74785
"Trail Blazer","Southeast Face > (7) The Monument > (v) Monument Area > Smith Rock > Central Oregon > Oregon",https://www.mountainproject.com/route/118006301/trail-blazer,4.0,-1,Trad,5.11a,2,165,44.37627,-121.13428
"The Red Blende.","Bear Ridge > Southwest Oregon > Oregon",https://www.mountainproject.com/route/121439122/the-red-blende,4.0,-1,Sport,5.11a,3,200,43.30538,-123.52844
"Seige Tower","Shepard's Tower > Central Oregon > Oregon",https://www.mountainproject.com/route/119086899/seige-tower,4.0,-1,Sport,5.11a,1,40,44.64581,-121.6113
"Magic Blocks","Pilot Rock > Southwest Oregon > Oregon",https://www.mountainproject.com/route/119038702/magic-blocks,3.5,-1,Trad,5.11a,3,250,42.03069,-122.561
"Head Out & Eek Adrenaline","1 Turtle Rock > The Callahans > Southwest Oregon > Oregon",https://www.mountainproject.com/route/118156619/head-out-eek-adrenaline,4.0,-1,Sport,5.11a,1,100,43.2201,-123.56512
Aurora,"(1)Aurora Buttress > Rattlesnake > Southwest Oregon > Oregon",https://www.mountainproject.com/route/106557747/aurora,3.7,-1,Sport,5.11a,1,60,42.65264,-122.88545
"By Myself","(G) Quarantine Wall > Eagles Rest > Willamette Valley > Oregon",https://www.mountainproject.com/route/120667384/by-myself,3.4,-1,Sport,5.11a,1,100,43.84616,-122.74763
"Dependent Origination","The Moondial > Cane Creek > Willamette Valley > Oregon",https://www.mountainproject.com/route/122577194/dependent-origination,3.8,-1,Sport,5.11a,1,80,44.11317,-122.3459
"Solstice Party","The Great Arch > Wolf Rock > Willamette Valley > Oregon",https://www.mountainproject.com/route/119376682/solstice-party,3.7,-1,Sport,5.11a,1,108,44.30062,-122.14883
"Well Hung","(6) Bat Wall > Broughton Bluff > Portland & The Gorge > Oregon",https://www.mountainproject.com/route/116586431/well-hung,2.1,-1,Sport,5.11a,1,35,45.53901,-122.37472
"Jesus Saves","Meadow Camp > Central Oregon > Oregon",https://www.mountainproject.com/route/120490044/jesus-saves,3.4,-1,TR,5.11a,1,40,44.00144,-121.37788
Tannerite,"(L) Lower Vista Wall > Eagles Rest > Willamette Valley > Oregon",https://www.mountainproject.com/route/122429582/tannerite,3.2,-1,Sport,5.11a,1,45,43.84613,-122.74743
Ithika,"Viento Wall > Portland & The Gorge > Oregon",https://www.mountainproject.com/route/116381922/ithika,2.4,-1,Sport,5.11a,1,55,45.69264,-121.68108
KaraKorum,"(8)Dominator Wall > Rattlesnake > Southwest Oregon > Oregon",https://www.mountainproject.com/route/107807874/karakorum,3.4,-1,"Sport, TR",5.11a,1,90,42.6497,-122.88655
"Fourteen Days","(G) Quarantine Wall > Eagles Rest > Willamette Valley > Oregon",https://www.mountainproject.com/route/120667365/fourteen-days,3.2,-1,Sport,5.11a,1,75,43.84616,-122.74763
"Bite the Bullet","c. Silver Bullet Bluff > Rocky Butte > Portland & The Gorge > Oregon",https://www.mountainproject.com/route/105843491/bite-the-bullet,2.4,-1,"Trad, TR",5.11a,1,50,45.54998,-122.56346
"The Blues are Still Blue","(F) Bomb Shelter > Eagles Rest > Willamette Valley > Oregon",https://www.mountainproject.com/route/120676348/the-blues-are-still-blue,2.9,-1,Sport,5.11a,1,60,43.84615,-122.74783
"Star Driven","Southeast Face > (7) The Monument > (v) Monument Area > Smith Rock > Central Oregon > Oregon",https://www.mountainproject.com/route/118006554/star-driven,3.0,-1,Sport,5.11a,5,370,44.37627,-121.13428
"Black Nails","(zz) Upper Gorge > Smith Rock > Central Oregon > Oregon",https://www.mountainproject.com/route/121902572/black-nails,3.4,-1,Sport,5.11a,1,90,44.36434,-121.12783
"ADHD (Adventure Dog Hank Direct)","(b) Dog Wall > Marsupial Wall > (w) The Marsupials > Smith Rock > Central Oregon > Oregon",https://www.mountainproject.com/route/109656758/adhd-adventure-dog-hank-direct,3.1,-1,Sport,5.11a,1,45,44.36858,-121.12308
Matrix,"(10) Log Wall > Terra Nova > Southwest Oregon > Oregon",https://www.mountainproject.com/route/121388409/matrix,3.3,-1,Sport,5.11a,1,,42.75706,-122.90493
Initiation,"Spring Mountain > Northeast Oregon > Oregon",https://www.mountainproject.com/route/107313544/initiation,2.8,-1,Sport,5.11a,1,50,45.45812,-118.23642
"Witching Hour","(6) Bat Wall > Broughton Bluff > Portland & The Gorge > Oregon",https://www.mountainproject.com/route/117045555/witching-hour,2.5,-1,Sport,5.11a,1,80,45.53901,-122.37472
"Piranha Pockets","The R.I.P. > Lookout Point > Willamette Valley > Oregon",https://www.mountainproject.com/route/119601983/piranha-pockets,3.1,-1,Sport,5.11a,1,45,43.89259,-122.67866
"It’s Not Awful","Viento Wall > Portland & The Gorge > Oregon",https://www.mountainproject.com/route/117772515/its-not-awful,3.1,-1,Sport,5.11a,1,100,45.69264,-121.68108
"Rain Man","(7)Rainy Day Cave > Rattlesnake > Southwest Oregon > Oregon",https://www.mountainproject.com/route/120320162/rain-man,3.1,-1,"Sport, TR",5.11a,1,45,42.65003,-122.88641
"Chairman Mao's Little Red Book","(u) Red Wall > Smith Rock > Central Oregon > Oregon",https://www.mountainproject.com/route/105808381/chairman-maos-little-red-book,3.1,-1,Trad,5.11a,2,100,44.3696,-121.13916
"I'm Your Hate","(5) Southern Tip > (m) Smith Rock Group > Smith Rock > Central Oregon > Oregon",https://www.mountainproject.com/route/105821061/im-your-hate,2.3,-1,Sport,5.11a,1,,44.35937,-121.15037
"Dod Route","Turkey Monster Group > Menagerie Wilderness > Willamette Valley > Oregon",https://www.mountainproject.com/route/121135948/dod-route,3.3,-1,"Trad, Alpine",5.11a,4,350,44.43287,-122.29616
"Route 02","The Balcony > Fiddlers Hell > Northeast Oregon > Oregon",https://www.mountainproject.com/route/109371263/route-02,3.3,-1,Sport,5.11a,1,60,45.44574,-118.1258
Slab,"Roadside Wall > Burnt River Canyon > Northeast Oregon > Oregon",https://www.mountainproject.com/route/118886305/slab,3.3,-1,Sport,5.11a,1,45,44.54314,-117.68964
"Shape Shifter","Area 51 > Mt. Hood National Forest > Oregon",https://www.mountainproject.com/route/109641364/shape-shifter,2.8,-1,Sport,5.11a,1,45,45.34836,-121.43762
"European Vacation","(1) Northeast Face > (m) Smith Rock Group > Smith Rock > Central Oregon > Oregon",https://www.mountainproject.com/route/109071980/european-vacation,2.9,-1,Trad,"5.11a R",8,600,44.36442,-121.14739
"First Column","Skinner Butte (aka The Columns) > Willamette Valley > Oregon",https://www.mountainproject.com/route/117556855/first-column,3.0,-1,TR,5.11a,1,,44.05839,-123.09714
"Steppin' Out","Spring Mountain > Northeast Oregon > Oregon",https://www.mountainproject.com/route/107724795/steppin-out,2.8,-1,Sport,5.11a,1,,45.45812,-118.23642
Spindrift,"(14) 1st Alcove > Terra Nova > Southwest Oregon > Oregon",https://www.mountainproject.com/route/121374227/spindrift,2.8,-1,Sport,5.11a,1,,42.75708,-122.90477
Extinction,"(5) Shining Wall > Madrone Wall > Portland & The Gorge > Oregon",https://www.mountainproject.com/route/117867719/extinction,2.9,-1,Sport,5.11a,1,60,45.39028,-122.45695
"No name","Power Lines > Central Oregon > Oregon",https://www.mountainproject.com/route/117068405/no-name,2.9,-1,"Sport, TR",5.11a,1,45,44.04393,-121.46742
"Beavis Buddies","(4)The Cathedral > Rattlesnake > Southwest Oregon > Oregon",https://www.mountainproject.com/route/119865945/beavis-buddies,3.0,-1,Sport,5.11a,1,55,42.6507,-122.88616
"Tapestry in Motion","(H) Studio > Eagles Rest > Willamette Valley > Oregon",https://www.mountainproject.com/route/121009502/tapestry-in-motion,2.3,-1,Sport,5.11a,1,35,43.84614,-122.74753
"Winds of War","(6) Hardscrabble Wall > Madrone Wall > Portland & The Gorge > Oregon",https://www.mountainproject.com/route/113921085/winds-of-war,2.5,-1,Sport,5.11a,1,40,45.38985,-122.45609
"China Side","French's Dome > Mt. Hood National Forest > Oregon",https://www.mountainproject.com/route/110902221/china-side,2.5,-1,Sport,5.11a,1,65,45.39719,-121.85985
"Awesome Arete","Meadow Camp > Central Oregon > Oregon",https://www.mountainproject.com/route/111649838/awesome-arete,2.9,-1,TR,5.11a,1,30,44.00144,-121.37788
"Neutral Zone","(2) Wildfire Wall > West Side > (z) Lower Gorge > Smith Rock > Central Oregon > Oregon",https://www.mountainproject.com/route/107783266/neutral-zone,2.9,-1,Trad,5.11a,1,80,44.36798,-121.13081
"Call of the Wild","(b) Dog Wall > Marsupial Wall > (w) The Marsupials > Smith Rock > Central Oregon > Oregon",https://www.mountainproject.com/route/109638925/call-of-the-wild,2.3,-1,Sport,5.11a,1,90,44.36858,-121.12308
"Cry Some More (Extension)","(2) Wildfire Wall > West Side > (z) Lower Gorge > Smith Rock > Central Oregon > Oregon",https://www.mountainproject.com/route/111933994/cry-some-more-extension,3.0,-1,Sport,5.11a,1,40,44.36798,-121.13081
Unchained,"The Great Arch > Wolf Rock > Willamette Valley > Oregon",https://www.mountainproject.com/route/105842993/unchained,3.2,-1,Sport,5.11a,1,80,44.30062,-122.14883
"Bird of Prey","(4)The Cathedral > Rattlesnake > Southwest Oregon > Oregon",https://www.mountainproject.com/route/118966018/bird-of-prey,3.0,-1,"Sport, TR",5.11a,1,85,42.6507,-122.88616
"The Dark Side","(.3) Cougar's Den > Terra Nova > Southwest Oregon > Oregon",https://www.mountainproject.com/route/121389861/the-dark-side,3.0,-1,Sport,5.11a,1,,42.75726,-122.90522
"Exile On Main Street","(f) Cocaine Gully > Smith Rock > Central Oregon > Oregon",https://www.mountainproject.com/route/105937390/exile-on-main-street,2.6,-1,Sport,5.11a,1,70,44.36719,-121.14307
"Firing Line","(5) Shining Wall > Madrone Wall > Portland & The Gorge > Oregon",https://www.mountainproject.com/route/113748964/firing-line,2.6,-1,Trad,5.11a,1,75,45.39028,-122.45695
"Ugly As Sin","(3) Hand Job Wall > East Side > (z) Lower Gorge > Smith Rock > Central Oregon > Oregon",https://www.mountainproject.com/route/110021815/ugly-as-sin,3.0,-1,Trad,5.11a,1,80,44.36774,-121.12995
"Dung Beetle","The Einstein > Leslie Gulch > Southeast Oregon > Oregon",https://www.mountainproject.com/route/110170640/dung-beetle,2.6,-1,Sport,5.11a,1,,43.33778,-117.31209
"Flight of the Seventh Moon","g. Far East Wall > Rocky Butte > Portland & The Gorge > Oregon",https://www.mountainproject.com/route/118843814/flight-of-the-seventh-moon,3.0,-1,"Sport, TR",5.11a,1,,45.55117,-122.56526
Arthritis,"Spring Mountain > Northeast Oregon > Oregon",https://www.mountainproject.com/route/106735080/arthritis,2.8,-1,Trad,5.11a,1,40,45.45812,-118.23642
"The Metro","(9)Sunset Wall > Rattlesnake > Southwest Oregon > Oregon",https://www.mountainproject.com/route/106557612/the-metro,2.8,-1,Sport,5.11a,1,30,42.64763,-122.88811
"I Almost Died","(u) Red Wall > Smith Rock > Central Oregon > Oregon",https://www.mountainproject.com/route/109565262/i-almost-died,2.8,-1,Trad,5.11a,1,40,44.3696,-121.13916
"Sticks and Stones","Crack Corner > Tie Trail Cliffs > Marys Peak > Willamette Valley > Oregon",https://www.mountainproject.com/route/122866552/sticks-and-stones,3.0,-1,Trad,5.11a,1,25,44.51077,-123.54317
"Yost In Space","(5) Shakespeare Cliff > East Side > (z) Lower Gorge > Smith Rock > Central Oregon > Oregon",https://www.mountainproject.com/route/110193211/yost-in-space,2.5,-1,Sport,5.11a,1,85,44.36684,-121.12991
"Competitive Edge","j. Toothpick Wall > Rocky Butte > Portland & The Gorge > Oregon",https://www.mountainproject.com/route/118964961/competitive-edge,2.7,-1,"Trad, TR",5.11a,1,50,45.55193,-122.56703
Arrow,"Pet Cemetary Wall > Lookout Point > Willamette Valley > Oregon",https://www.mountainproject.com/route/119940070/arrow,3.0,-1,Sport,5.11a,1,65,43.89325,-122.67896
"Enter The Void","(9) Jungle Cliff > Broughton Bluff > Portland & The Gorge > Oregon",https://www.mountainproject.com/route/111332330/enter-the-void,3.0,-1,Sport,5.11a,1,40,45.53735,-122.37207
Afterglow,"(g) Lower Walt's Wall > Flagstone > Willamette Valley > Oregon",https://www.mountainproject.com/route/122964804/afterglow,3.0,-1,Sport,5.11a,1,50,43.98513,-122.29845
"Education Graduation","Meadow Camp > Central Oregon > Oregon",https://www.mountainproject.com/route/122370983/education-graduation,3.0,-1,TR,5.11a,1,20,44.00144,-121.37788
Raptastic,"Tokatee Falls > Southwest Oregon > Oregon",https://www.mountainproject.com/route/121244135/raptastic,3.0,-1,Trad,5.11a,1,80,43.2634,-122.43458
"Thin Crack","Skinner Butte (aka The Columns) > Willamette Valley > Oregon",https://www.mountainproject.com/route/119718944/thin-crack,3.0,-1,"Trad, TR",5.11a,1,50,44.05839,-123.09714
"Trash Compactor","(.1) Bone Yard > Terra Nova > Southwest Oregon > Oregon",https://www.mountainproject.com/route/121380498/trash-compactor,2.8,-1,Sport,5.11a,1,,42.75725,-122.90538
"The Platypus Perspective","The Wombat > (w) The Marsupials > Smith Rock > Central Oregon > Oregon",https://www.mountainproject.com/route/122635609/the-platypus-perspective,3.0,-1,Trad,5.11a,2,200,44.3711,-121.12285
"Buying the Goat Farm","2 Mind Planet > The Callahans > Southwest Oregon > Oregon",https://www.mountainproject.com/route/118162426/buying-the-goat-farm,3.0,-1,Sport,5.11a,2,120,43.2198,-123.5657
Lunacy,"2 Mind Planet > The Callahans > Southwest Oregon > Oregon",https://www.mountainproject.com/route/118141553/lunacy,3.0,-1,"Sport, TR",5.11a,2,120,43.2198,-123.5657
Armstrong,"Átya tpísh (North face) > Willow Creek > Central Oregon > Oregon",https://www.mountainproject.com/route/121930415/armstrong,3.0,-1,TR,5.11a,1,50,44.64428,-121.16105
"Steep Learning Curve","Schoolhouse Rocks > The Callahans > Southwest Oregon > Oregon",https://www.mountainproject.com/route/117720262/steep-learning-curve,3.0,-1,"Sport, TR",5.11a,1,90,43.2222,-123.56399
"Lacuna Bender","2 Mind Planet > The Callahans > Southwest Oregon > Oregon",https://www.mountainproject.com/route/118162043/lacuna-bender,3.0,-1,Sport,5.11a,1,60,43.2198,-123.5657
"Beautiful Wickedness","Land of Oz > The Callahans > Southwest Oregon > Oregon",https://www.mountainproject.com/route/118152935/beautiful-wickedness,3.0,-1,"Sport, TR",5.11a,1,75,43.21704,-123.57112
"Bust A Move","One Hit Wonder Buttress > The Callahans > Southwest Oregon > Oregon",https://www.mountainproject.com/route/118141173/bust-a-move,3.0,-1,"Trad, TR",5.11a,1,95,43.21258,-123.57571
"Where the Sidewalk Ends","Salamander Rock > The Callahans > Southwest Oregon > Oregon",https://www.mountainproject.com/route/117722677/where-the-sidewalk-ends,3.0,-1,Sport,5.11a,1,75,43.22151,-123.56427
"Worry's Edge","Paranoia Complex > The Callahans > Southwest Oregon > Oregon",https://www.mountainproject.com/route/118158991/worrys-edge,3.0,-1,"Sport, TR",5.11a,1,70,43.21974,-123.56633
"Lemming Juice","Rodentia Rock > The Callahans > Southwest Oregon > Oregon",https://www.mountainproject.com/route/118156469/lemming-juice,3.0,-1,Sport,5.11a,1,65,43.22049,-123.56461
"Mr. Flexible","Spring Mountain > Northeast Oregon > Oregon",https://www.mountainproject.com/route/107805866/mr-flexible,3.0,-1,Sport,5.11a,1,,45.45812,-118.23642
"Eagle Hunger","(C) Dream Wall > Eagles Rest > Willamette Valley > Oregon",https://www.mountainproject.com/route/123457929/eagle-hunger,3.2,-1,Sport,5.11a,1,40,43.84632,-122.74822
"Dirty Girl (1st pitch)","Viento Wall > Portland & The Gorge > Oregon",https://www.mountainproject.com/route/116381865/dirty-girl-1st-pitch,2.1,-1,Sport,5.11a,1,40,45.69264,-121.68108
"Surgical Focus","Main Area > Cougar Buttress > Central Oregon > Oregon",https://www.mountainproject.com/route/117859699/surgical-focus,2.7,-1,Sport,5.11a,1,45,44.03596,-121.54824
"Street Candy","(2) Llama Wall > (m) Smith Rock Group > Smith Rock > Central Oregon > Oregon",https://www.mountainproject.com/route/118591535/street-candy,2.2,-1,Sport,5.11a,1,80,44.36418,-121.14694
Aldeberan,"(.1) Bone Yard > Terra Nova > Southwest Oregon > Oregon",https://www.mountainproject.com/route/121380368/aldeberan,2.8,-1,Sport,5.11a,1,,42.75725,-122.90538
"Social Distancing","j. Toothpick Wall > Rocky Butte > Portland & The Gorge > Oregon",https://www.mountainproject.com/route/119501466/social-distancing,2.8,-1,"Trad, TR",5.11a,1,50,45.55193,-122.56703
"Window Seat","(4)The Cathedral > Rattlesnake > Southwest Oregon > Oregon",https://www.mountainproject.com/route/107655471/window-seat,2.5,-1,Sport,5.11a,1,40,42.6507,-122.88616
"Hot Monkey Love","Christian Brothers - West Side > (l) Christian Brothers > Smith Rock > Central Oregon > Oregon",https://www.mountainproject.com/route/107629146/hot-monkey-love,1.9,-1,Sport,5.11a,1,60,44.36601,-121.14688
"Fluff's Highball","(.5) Bird Rock > Terra Nova > Southwest Oregon > Oregon",https://www.mountainproject.com/route/121374691/fluffs-highball,2.5,-1,Sport,5.11a,1,,42.75724,-122.90517
"Bat Face","Skinner Butte (aka The Columns) > Willamette Valley > Oregon",https://www.mountainproject.com/route/118641574/bat-face,2.5,-1,TR,5.11a,1,,44.05839,-123.09714
Minotaur,"The Textbooks > Student Wall > (yy) Basalt Rimrock > Smith Rock > Central Oregon > Oregon",https://www.mountainproject.com/route/106795832/minotaur,2.7,-1,"Trad, TR",5.11a,1,45,44.37036,-121.13093
"The Chantrelle","(18) Mycelium Tower > Terra Nova > Southwest Oregon > Oregon",https://www.mountainproject.com/route/121380031/the-chantrelle,2.0,-1,Sport,5.11a,1,,42.75702,-122.90485
Sidewinder,"Left Side > Northern Point > (yy) Basalt Rimrock > Smith Rock > Central Oregon > Oregon",https://www.mountainproject.com/route/107825994/sidewinder,2.6,-1,Trad,5.11a,1,,44.37227,-121.13424
"Full Marge","Greensprings > Southwest Oregon > Oregon",https://www.mountainproject.com/route/109265190/full-marge,2.2,-1,Sport,5.11a,1,80,42.12805,-122.48797
Frankensteens,"Steins Overlook > Steins Pillar > Central Oregon > Oregon",https://www.mountainproject.com/route/119219078/frankensteens,2.6,-1,Sport,5.11a,1,70,44.41091,-120.62029
"The Actual 5.11a","Section 3 > Trillium Lake Crag (Mosquito Butte) > Mt. Hood National Forest > Oregon",https://www.mountainproject.com/route/119118178/the-actual-511a,2.4,-1,Sport,5.11a,1,50,45.27654,-121.73432
"Sunset Arete","(9)Sunset Wall > Rattlesnake > Southwest Oregon > Oregon",https://www.mountainproject.com/route/114217042/sunset-arete,2.3,-1,Sport,5.11a,1,35,42.64763,-122.88811
"Joy Ride","j. Toothpick Wall > Rocky Butte > Portland & The Gorge > Oregon",https://www.mountainproject.com/route/117941244/joy-ride,2.3,-1,"Sport, TR",5.11a,1,60,45.55193,-122.56703
Cryptesthesia,"(6) Northwest Face > (m) Smith Rock Group > Smith Rock > Central Oregon > Oregon",https://www.mountainproject.com/route/109127281/cryptesthesia,2.1,-1,Sport,5.11a,1,,44.36445,-121.1482
"First Kiss","Kissing Rock > Southwest Oregon > Oregon",https://www.mountainproject.com/route/120526854/first-kiss,2.5,-1,Sport,5.11a,1,40,42.3865,-124.42409
"You’ll Dance To Anything","h. Warrior Wall > Rocky Butte > Portland & The Gorge > Oregon",https://www.mountainproject.com/route/119119033/youll-dance-to-anything,2.5,-1,Sport,5.11a,1,,45.5512,-122.56554
"Lethal Dose","(4) Star Wall > West Side > (z) Lower Gorge > Smith Rock > Central Oregon > Oregon",https://www.mountainproject.com/route/111945407/lethal-dose,2.5,-1,"Trad, TR","5.11a R",1,70,44.36629,-121.13069
"Welcome to Spring Mountain (Direct Start)","Spring Mountain > Northeast Oregon > Oregon",https://www.mountainproject.com/route/107721236/welcome-to-spring-mountain-direct-start,2.7,-1,Sport,5.11a,1,,45.45812,-118.23642
"Junior Birdman","Spring Mountain > Northeast Oregon > Oregon",https://www.mountainproject.com/route/107805862/junior-birdman,2.5,-1,Sport,5.11a,1,,45.45812,-118.23642
"Mantle with Care","Spring Mountain > Northeast Oregon > Oregon",https://www.mountainproject.com/route/107722504/mantle-with-care,2.5,-1,Sport,5.11a,1,,45.45812,-118.23642
Neuromancer,"(9) Jungle Cliff > Broughton Bluff > Portland & The Gorge > Oregon",https://www.mountainproject.com/route/119008051/neuromancer,2.1,-1,Sport,5.11a,1,25,45.53735,-122.37207
"Role Model","(6) Northwest Face > (m) Smith Rock Group > Smith Rock > Central Oregon > Oregon",https://www.mountainproject.com/route/117622237/role-model,2.3,-1,Trad,5.11a,1,130,44.36445,-121.1482
"On the Loose","(3) Red Wall > Broughton Bluff > Portland & The Gorge > Oregon",https://www.mountainproject.com/route/107112857/on-the-loose,2.2,-1,TR,5.11a,1,30,45.53999,-122.37622
"Damaged Circuit","d. Video Bluff > Rocky Butte > Portland & The Gorge > Oregon",https://www.mountainproject.com/route/108601026/damaged-circuit,2.2,-1,TR,5.11a,1,35,45.55081,-122.56452
"South Side","Delirium Tremens > (w) The Marsupials > Smith Rock > Central Oregon > Oregon",https://www.mountainproject.com/route/108425471/south-side,2.6,-1,Sport,5.11a,1,,44.36726,-121.12615
"McKenzie's Way","(3) Hand Job Wall > East Side > (z) Lower Gorge > Smith Rock > Central Oregon > Oregon",https://www.mountainproject.com/route/107124525/mckenzies-way,2.3,-1,Trad,5.11a,1,80,44.36774,-121.12995
Rampage,"Mud Pile > (w) The Marsupials > Smith Rock > Central Oregon > Oregon",https://www.mountainproject.com/route/106452976/rampage,2.0,-1,Sport,5.11a,1,40,44.36698,-121.12562
"John Harlin II","(4) Wolf Point > Klinger Spring > Mt. Hood National Forest > Oregon",https://www.mountainproject.com/route/109610551/john-harlin-ii,2.0,-1,Sport,5.11a,1,90,45.40884,-121.56854
Calypso,"(.4) Icicle Wall > Terra Nova > Southwest Oregon > Oregon",https://www.mountainproject.com/route/121388297/calypso,1.9,-1,Sport,5.11a,1,,42.75727,-122.90511
"The Dagger","(3)Long Wall > Rattlesnake > Southwest Oregon > Oregon",https://www.mountainproject.com/route/118878538/the-dagger,2.0,-1,Sport,5.11a,1,45,42.65122,-122.88589
"Cocaine Crack","(f) Cocaine Gully > Smith Rock > Central Oregon > Oregon",https://www.mountainproject.com/route/108358015/cocaine-crack,2.0,-1,Trad,5.11a,1,,44.36719,-121.14307
"Brutalist Bricks","Cubist Cave > NW Trench > Deception Butte > Willamette Valley > Oregon",https://www.mountainproject.com/route/121390808/brutalist-bricks,2.0,-1,Sport,5.11a,1,55,43.74882,-122.57716
Cloudburst,"(7)Rainy Day Cave > Rattlesnake > Southwest Oregon > Oregon",https://www.mountainproject.com/route/120735637/cloudburst,2.0,-1,Sport,5.11a,1,35,42.65003,-122.88641
Wizard,"f. Wizard Wall > Rocky Butte > Portland & The Gorge > Oregon",https://www.mountainproject.com/route/118856793/wizard,2.0,-1,"Trad, TR",5.11a,1,,45.55111,-122.56499
"Mandatory  Blockdown","Power Lines > Central Oregon > Oregon",https://www.mountainproject.com/route/118865753/mandatory-blockdown,2.0,-1,"Sport, TR",5.11a,1,40,44.04393,-121.46742
"Kim Chi Corner","Garden Cliffs > The Garden > Willamette Valley > Oregon",https://www.mountainproject.com/route/117627358/kim-chi-corner,2.0,-1,Sport,5.11a,1,30,44.44123,-122.57255
"Frat House / Variation","Reproductive Wall > Student Wall > (yy) Basalt Rimrock > Smith Rock > Central Oregon > Oregon",https://www.mountainproject.com/route/117677998/frat-house-variation,2.0,-1,Sport,5.11a,1,60,44.37155,-121.13122
"Poodle With a Mohawk","a. Poodle Pinnacle > Rocky Butte > Portland & The Gorge > Oregon",https://www.mountainproject.com/route/119743502/poodle-with-a-mohawk,2.0,-1,Trad,5.11a,1,40,45.54931,-122.56287
"Out of the Way","(3) Catwalk Cliff > West Side > (z) Lower Gorge > Smith Rock > Central Oregon > Oregon",https://www.mountainproject.com/route/119865846/out-of-the-way,2.5,-1,Trad,5.11a,1,115,44.36733,-121.13065
"Friday the 13th","Steins Overlook > Steins Pillar > Central Oregon > Oregon",https://www.mountainproject.com/route/114333396/friday-the-13th,2.0,-1,Sport,5.11a,1,50,44.41091,-120.62029
Father,"(7) Trinity Wall > Broughton Bluff > Portland & The Gorge > Oregon",https://www.mountainproject.com/route/118982974/father,2.0,-1,Trad,5.11a,1,45,45.53833,-122.37379
"Inner Vision","(6) Hardscrabble Wall > Madrone Wall > Portland & The Gorge > Oregon",https://www.mountainproject.com/route/123056169/inner-vision,2.0,-1,Trad,5.11a,1,40,45.38985,-122.45609
"Draggin the Gut","Main Street > Hills Creek Spires > Willamette Valley > Oregon",https://www.mountainproject.com/route/115153823/draggin-the-gut,2.0,-1,Sport,5.11a,1,75,43.6857,-122.36
"Shark Breath","The Zen Spot > The Callahans > Southwest Oregon > Oregon",https://www.mountainproject.com/route/118177094/shark-breath,2.0,-1,Sport,5.11a,1,20,43.23044,-123.55444
"A Little Twisted","Right Side > Northern Point > (yy) Basalt Rimrock > Smith Rock > Central Oregon > Oregon",https://www.mountainproject.com/route/107607368/a-little-twisted,2.0,-1,TR,5.11a,1,,44.37253,-121.13453
"Dynamic Resistance","(2) Hanging Gardens > Broughton Bluff > Portland & The Gorge > Oregon",https://www.mountainproject.com/route/122233751/dynamic-resistance,2.0,-1,Trad,5.11a,1,100,45.54039,-122.37726
Eldorado,"(16) Chockstone Gorge > Terra Nova > Southwest Oregon > Oregon",https://www.mountainproject.com/route/121387864/eldorado,3.0,-1,Sport,5.11a,1,,42.75713,-122.90466
"Stormy Daniels","(x) Tasmanian Devil > Smith Rock > Central Oregon > Oregon",https://www.mountainproject.com/route/123581515/stormy-daniels,3.0,-1,Sport,5.11a,1,80,44.38617,-121.11229
"Exit...Stage Left","The Fourth Area > (xx) The Zoo > Smith Rock > Central Oregon > Oregon",https://www.mountainproject.com/route/123582864/exitstage-left,3.1,-1,Sport,5.11a,1,60,44.38183,-121.11272
"Put Me in the Zoo","The Platform > (xx) The Zoo > Smith Rock > Central Oregon > Oregon",https://www.mountainproject.com/route/123584581/put-me-in-the-zoo,2.3,-1,Sport,5.11a,1,35,44.38135,-121.11188
"One Trick Pony","The Platform > (xx) The Zoo > Smith Rock > Central Oregon > Oregon",https://www.mountainproject.com/route/123584624/one-trick-pony,2.5,-1,Sport,5.11a,1,80,44.38135,-121.11188
"Joey Jo Jo jr. Shabadoo","The Platform > (xx) The Zoo > Smith Rock > Central Oregon > Oregon",https://www.mountainproject.com/route/123584683/joey-jo-jo-jr-shabadoo,2.5,-1,Sport,5.11a,1,40,44.38135,-121.11188
"Racist, Sexist, or Both","(x) Tasmanian Devil > Smith Rock > Central Oregon > Oregon",https://www.mountainproject.com/route/123591314/racist-sexist-or-both,2.0,-1,Sport,5.11a,1,35,44.38617,-121.11229
Cottonmouth,"(C) Dream Wall > Eagles Rest > Willamette Valley > Oregon",https://www.mountainproject.com/route/124266349/cottonmouth,3.0,-1,Sport,5.11a,3,,43.84632,-122.74822
"Eagles Rest Triathlon","(C) Dream Wall > Eagles Rest > Willamette Valley > Oregon",https://www.mountainproject.com/route/124734954/eagles-rest-triathlon,4.0,-1,Sport,5.11a,5,250,43.84632,-122.74822
"Farewell to Smith","(1) Northeast Face > (m) Smith Rock Group > Smith Rock > Central Oregon > Oregon",https://www.mountainproject.com/route/124924804/farewell-to-smith,3.0,-1,Trad,5.11a,2,150,44.36442,-121.14739
Cancelled,"(6) Northwest Face > (m) Smith Rock Group > Smith Rock > Central Oregon > Oregon",https://www.mountainproject.com/route/125099596/cancelled,2.0,-1,Sport,5.11a,1,,44.36445,-121.1482
"Qatari Ardah","(6) Quirky Combat Wall > Pete's Pile > Mt. Hood National Forest > Oregon",https://www.mountainproject.com/route/125207263/qatari-ardah,2.0,-1,Trad,5.11a,2,170,45.40553,-121.56837
"Pain is dignity","Hidden Wall > (yy) Basalt Rimrock > Smith Rock > Central Oregon > Oregon",https://www.mountainproject.com/route/125216443/pain-is-dignity,3.0,-1,"Sport, TR, Mixed","5.11a M4",1,25,44.37219,-121.13363
