Route,Location,URL,"Avg Stars","Your Stars","Route Type",Rating,Pitches,Length,"Area Latitude","Area Longitude"
"Crack Project","Lickmaster Block > The Knobs (Rob's Knob) - CLOSED TO CLIMBING > Southwestern Highlands > Pennsylvania",https://www.mountainproject.com/route/106845021/crack-project,3.0,-1,Trad,5.12,1,30,39.91883,-79.57302
"Nuclear Arms","Main Block, Front Side > The Library > Mocanaqua (aka Shickshinny) > Northeast Ridges and Valleys > Pennsylvania",https://www.mountainproject.com/route/108252342/nuclear-arms,2.3,-1,Sport,5.12,1,40,41.14589,-76.13836
"No Boltage","3.0 Euro Wall > Safe Harbor North > Safe Harbor > South Central PA > Pennsylvania",https://www.mountainproject.com/route/109233233/no-boltage,2.0,-1,TR,5.12,1,50,39.93765,-76.42677
"Between Rains (Thunderhead Var.)","e. Machismo Sector > Safe Harbor South > Safe Harbor > South Central PA > Pennsylvania",https://www.mountainproject.com/route/109296106/between-rains-thunderhead-var,2.0,-1,"Sport, TR",5.12,1,50,39.91712,-76.37657
Mayday,"Vital Juices > Livezey Rock > Wissahickon Valley Park > Philly > Southeastern Lowlands > Pennsylvania",https://www.mountainproject.com/route/107270866/mayday,2.0,-1,"TR, Boulder","5.12 V5+ PG13",1,20,40.0466,-75.2115
