Route,Location,URL,"Avg Stars","Your Stars","Route Type",Rating,Pitches,Length,"Area Latitude","Area Longitude"
"Baba Cool","Chopping Block > Chopping Block > Mount Rushmore National Memorial > The Needles Of Rushmore > South Dakota",https://www.mountainproject.com/route/105714854/baba-cool,3.6,-1,Sport,5.9+,1,60,43.88538,-103.46937
"Pakistani Route","Big Black Face > Sunshine > Spearfish Canyon > South Dakota",https://www.mountainproject.com/route/106138388/pakistani-route,3.5,-1,Sport,5.9+,1,95,44.29371,-103.8935
Dragonfly,"Pheromone Wall > Blue Sky > Spearfish Canyon > South Dakota",https://www.mountainproject.com/route/106933821/dragonfly,3.5,-1,Sport,5.9+,1,70,44.34828,-103.92027
Skywalker,"Warm Up Wall > The Dark Side > Spearfish Canyon > South Dakota",https://www.mountainproject.com/route/107229309/skywalker,2.7,-1,Sport,5.9+,1,70,44.29292,-103.88288
"Suffering Succutash","The Bunny Slope > Sunshine > Spearfish Canyon > South Dakota",https://www.mountainproject.com/route/106460423/suffering-succutash,2.7,-1,Sport,5.9+,1,60,44.29403,-103.89322
"W.A.S.P. (center variation start)","Hornets Nest > South Seas > Mount Rushmore National Memorial > The Needles Of Rushmore > South Dakota",https://www.mountainproject.com/route/106049635/wasp-center-variation-start,3.5,-1,"Trad, Sport",5.9+,1,165,43.88643,-103.46702
"Lost Ninja","Big Black Face > Sunshine > Spearfish Canyon > South Dakota",https://www.mountainproject.com/route/106138396/lost-ninja,2.7,-1,Sport,5.9+,1,100,44.29371,-103.8935
"Aces High","Political Gamblers > Emancipation > Mount Rushmore National Memorial > The Needles Of Rushmore > South Dakota",https://www.mountainproject.com/route/108911085/aces-high,3.9,-1,Trad,5.9+,1,110,43.8827,-103.46054
"Cat's Meow","Spire Three > Cathedral Spires > Custer State Park > South Dakota",https://www.mountainproject.com/route/107684661/cats-meow,4.0,-1,Trad,5.9+,3,200,43.84866,-103.53397
"Son of a Thousand Fathers","Skeletal Remains > Spearfish Canyon > South Dakota",https://www.mountainproject.com/route/106475847/son-of-a-thousand-fathers,3.4,-1,Sport,5.9+,1,70,44.4514,-103.864
"Hornet's Chimney","Hornets Nest > South Seas > Mount Rushmore National Memorial > The Needles Of Rushmore > South Dakota",https://www.mountainproject.com/route/110430551/hornets-chimney,3.6,-1,Trad,5.9+,1,140,43.88643,-103.46702
Kodah,"Axe Edge > Monster North > Magna Carta > Mount Rushmore National Memorial > The Needles Of Rushmore > South Dakota",https://www.mountainproject.com/route/106668148/kodah,3.3,-1,"Trad, Sport",5.9+,1,95,43.88452,-103.4634
Doorf,"Tunnel Wall > Shadowlands > Spearfish Canyon > South Dakota",https://www.mountainproject.com/route/106946197/doorf,2.6,-1,Sport,5.9+,1,35,44.28338,-103.89865
"Rest and Relaxation","Shark's Tail > South Seas > Mount Rushmore National Memorial > The Needles Of Rushmore > South Dakota",https://www.mountainproject.com/route/107645674/rest-and-relaxation,2.6,-1,Sport,5.9+,1,60,43.8864,-103.467
"Paradise Lost","Weather Watchers Wall > Raspberry Rocks > Iron Mountain > The Needles Of Rushmore > South Dakota",https://www.mountainproject.com/route/111060164/paradise-lost,3.8,-1,Trad,5.9+,1,80,43.83905,-103.40947
Uff-Da-Hedral,"Weather Watchers Wall > Raspberry Rocks > Iron Mountain > The Needles Of Rushmore > South Dakota",https://www.mountainproject.com/route/114333451/uff-da-hedral,3.7,-1,Trad,5.9+,2,185,43.83905,-103.40947
"The Awakening- AKA Woodpecker Protrusion Direct","Woodpecker Protrusion > WoodPecker Protrusion Boulders > Iron Mountain > The Needles Of Rushmore > South Dakota",https://www.mountainproject.com/route/111990431/the-awakening-aka-woodpecker-protrusion-direct,4.0,-1,Trad,5.9+,1,120,43.8731,-103.4317
"Spurred Slichter","Mt. Dallymore > The Chessmen > Horsethief Lake Area > The Needles Of Rushmore > South Dakota",https://www.mountainproject.com/route/108197935/spurred-slichter,4.0,-1,Trad,5.9+,1,120,43.87906,-103.4981
"Too Easy for Hard Men","Abominable Snowman > Monster North > Magna Carta > Mount Rushmore National Memorial > The Needles Of Rushmore > South Dakota",https://www.mountainproject.com/route/108369892/too-easy-for-hard-men,3.0,-1,Sport,5.9+,1,90,43.88417,-103.46289
"Walking On Sunshine","Attitude wall > Sunshine > Spearfish Canyon > South Dakota",https://www.mountainproject.com/route/108077664/walking-on-sunshine,3.1,-1,Sport,5.9+,1,80,44.29596,-103.89038
"Make Believe","Middle Marker Area > Marker > Magna Carta > Mount Rushmore National Memorial > The Needles Of Rushmore > South Dakota",https://www.mountainproject.com/route/106668111/make-believe,2.5,-1,Sport,5.9+,1,90,43.88242,-103.46227
"Captain Hook","Sharks Fin > South Seas > Mount Rushmore National Memorial > The Needles Of Rushmore > South Dakota",https://www.mountainproject.com/route/108935327/captain-hook,3.4,-1,"Trad, Sport","5.9+ PG13",1,80,43.88628,-103.4668
"Roadside Plum","Middle Marker Area > Marker > Magna Carta > Mount Rushmore National Memorial > The Needles Of Rushmore > South Dakota",https://www.mountainproject.com/route/106047237/roadside-plum,3.3,-1,Trad,"5.9+ PG13",1,165,43.88242,-103.46227
"North Corner","Obelisk > Cathedral Spires > Custer State Park > South Dakota",https://www.mountainproject.com/route/111805541/north-corner,3.5,-1,Trad,5.9+,2,250,43.8488,-103.53401
Thumbelina,"Lord Of The Flies Wall > Blue Sky > Spearfish Canyon > South Dakota",https://www.mountainproject.com/route/106476834/thumbelina,2.1,-1,Sport,5.9+,1,70,44.34697,-103.92053
"Ate One Today","Pine Tree Rock > Chopping Block > Mount Rushmore National Memorial > The Needles Of Rushmore > South Dakota",https://www.mountainproject.com/route/112102988/ate-one-today,3.3,-1,Sport,5.9+,1,140,43.88486,-103.46835
"French Lavender","High Point / Labor Day Weekend > Hidden Acres > The Playground > Horsethief Lake Area > The Needles Of Rushmore > South Dakota",https://www.mountainproject.com/route/114561830/french-lavender,3.5,-1,Trad,5.9+,1,75,43.8842,-103.48095
"Stay of Execution","Hall Of Truth Corridor > Breezy Point > Mount Rushmore National Memorial > The Needles Of Rushmore > South Dakota",https://www.mountainproject.com/route/112809221/stay-of-execution,3.1,-1,Sport,5.9+,1,50,43.89229,-103.47397
"Learning to Fly","West Buttress > Cathedral Spires > Custer State Park > South Dakota",https://www.mountainproject.com/route/117662505/learning-to-fly,3.1,-1,Trad,5.9+,1,115,43.84864,-103.53352
"Monster Within","Monster Gully > Monster North > Magna Carta > Mount Rushmore National Memorial > The Needles Of Rushmore > South Dakota",https://www.mountainproject.com/route/105714965/monster-within,3.1,-1,Sport,5.9+,1,80,43.88334,-103.46242
"Brads Boner","Brad's Boner > Sentinel Rock > Breezy Point > Mount Rushmore National Memorial > The Needles Of Rushmore > South Dakota",https://www.mountainproject.com/route/110856323/brads-boner,2.6,-1,Sport,5.9+,1,50,43.89135,-103.47544
"Slob the Knob","Robknob Spire > Outlets > Sylvan Lake > Custer State Park > South Dakota",https://www.mountainproject.com/route/108219750/slob-the-knob,3.2,-1,Trad,"5.9+ PG13",1,80,43.8488,-103.5688
"Fritz's Forehead","Old Baldy > Mount Baldy > Mount Rushmore National Memorial > The Needles Of Rushmore > South Dakota",https://www.mountainproject.com/route/105715739/fritzs-forehead,2.8,-1,"Trad, Sport",5.9+,1,200,43.8911,-103.4565
"Soiled Dove","Skeletal Remains > Spearfish Canyon > South Dakota",https://www.mountainproject.com/route/106475885/soiled-dove,2.4,-1,Sport,5.9+,1,35,44.4514,-103.864
"Political Division","White House Wall > Emancipation > Mount Rushmore National Memorial > The Needles Of Rushmore > South Dakota",https://www.mountainproject.com/route/106419364/political-division,2.7,-1,Trad,5.9+,3,400,43.8807,-103.4619
"Pieces of Eight","Dam - Back Side > Outlets > Sylvan Lake > Custer State Park > South Dakota",https://www.mountainproject.com/route/105715271/pieces-of-eight,2.0,-1,"Sport, TR",5.9+,1,,43.84753,-103.56572
Trophy,"Pronghorn > South Seas > Mount Rushmore National Memorial > The Needles Of Rushmore > South Dakota",https://www.mountainproject.com/route/107694364/trophy,2.4,-1,Sport,5.9+,1,50,43.88575,-103.46651
"Broken Beliefs","Veiny > Chopping Block > Mount Rushmore National Memorial > The Needles Of Rushmore > South Dakota",https://www.mountainproject.com/route/108126846/broken-beliefs,2.2,-1,Sport,5.9+,1,55,43.88644,-103.46927
"They Are Afraid Of Her","Sunday Gulch Rock > Sunday Gulch > Outlets > Sylvan Lake > Custer State Park > South Dakota",https://www.mountainproject.com/route/108195401/they-are-afraid-of-her,3.0,-1,Trad,"5.9+ R",1,150,43.8477,-103.5668
"Just don’t think about it Morty","Grotto > West World > Breezy Point > Mount Rushmore National Memorial > The Needles Of Rushmore > South Dakota",https://www.mountainproject.com/route/114472880/just-dont-think-about-it-morty,3.0,-1,"Trad, TR",5.9+,1,70,43.88909,-103.47771
"Split Personality","Sanitarium > Camp Judson Road > Mount Baldy > Mount Rushmore National Memorial > The Needles Of Rushmore > South Dakota",https://www.mountainproject.com/route/115125591/split-personality,3.0,-1,Trad,5.9+,1,80,43.88832,-103.46459
"The Son Of A Bitch","Chockstone Tower > Palisades State Park > East Side SD > South Dakota",https://www.mountainproject.com/route/106713522/the-son-of-a-bitch,2.5,-1,"Trad, TR",5.9+,1,65,43.68762,-96.52117
"The Best stuff","Sherpa Wall > Wrinkled Rock Campground > Mount Rushmore National Memorial > The Needles Of Rushmore > South Dakota",https://www.mountainproject.com/route/123007186/the-best-stuff,2.3,-1,"Sport, TR",5.9+,1,30,43.89061,-103.46748
"Route One","Dave's Dinghy > Tenpins/Switchbacks > Custer State Park > South Dakota",https://www.mountainproject.com/route/106237362/route-one,2.7,-1,Trad,"5.9+ PG13",1,90,43.83937,-103.53609
"Bloody Direct","Bloody Spire > Needles Eye Area > Custer State Park > South Dakota",https://www.mountainproject.com/route/107221750/bloody-direct,3.0,-1,Trad,5.9+,1,100,43.84157,-103.54527
"Tequila Sunset","Split creek cracks > Palisades State Park > East Side SD > South Dakota",https://www.mountainproject.com/route/108095236/tequila-sunset,3.0,-1,Trad,"5.9+ PG13",1,65,43.6901,-96.5147
"Rusty Pitons and Mud for Breakfast","Split creek cracks > Palisades State Park > East Side SD > South Dakota",https://www.mountainproject.com/route/106937391/rusty-pitons-and-mud-for-breakfast,3.0,-1,Trad,5.9+,1,32,43.6901,-96.5147
"Toprope Route","South Canyon Wall > Falling Rock > Rapid City Area > South Dakota",https://www.mountainproject.com/route/115430387/toprope-route,3.0,-1,"Trad, TR",5.9+,1,40,44.05307,-103.3627
"Alcove Left","Monster Gully > Monster North > Magna Carta > Mount Rushmore National Memorial > The Needles Of Rushmore > South Dakota",https://www.mountainproject.com/route/121412537/alcove-left,3.0,-1,Trad,5.9+,1,45,43.88334,-103.46242
Moon-Eyed,"Raspberry Sting > The Chessmen > Horsethief Lake Area > The Needles Of Rushmore > South Dakota",https://www.mountainproject.com/route/117663571/moon-eyed,3.0,-1,Trad,5.9+,2,170,43.87507,-103.50687
"Short and Sweet","Crocket Tor > Needles Eye Area > Custer State Park > South Dakota",https://www.mountainproject.com/route/116750585/short-and-sweet,3.0,-1,Trad,5.9+,1,55,43.84089,-103.5484
"Offwicth Blade","Boxelder Forks > Rapid City Area > South Dakota",https://www.mountainproject.com/route/110655728/offwicth-blade,3.0,-1,Trad,5.9+,1,90,44.20158,-103.53879
Steelin',"Inner Marker > Marker > Magna Carta > Mount Rushmore National Memorial > The Needles Of Rushmore > South Dakota",https://www.mountainproject.com/route/108378197/steelin,2.0,-1,Trad,5.9+,1,90,43.8821,-103.4621
"Lost Dog","Cell One Valley Climbing > Cell One Valley > Camp Judson Road > Mount Baldy > Mount Rushmore National Memorial > The Needles Of Rushmore > South Dakota",https://www.mountainproject.com/route/106358434/lost-dog,3.0,-1,Trad,5.9+,1,50,43.88832,-103.46459
"Just Get in the Swing","Photographer's Peak > Photographers' Peak Area > Sylvan Lake > Custer State Park > South Dakota",https://www.mountainproject.com/route/110778619/just-get-in-the-swing,2.7,-1,Trad,5.9+,1,90,43.84286,-103.55846
"Raspberry Blossoms","West Face > Raspberry Rocks > Iron Mountain > The Needles Of Rushmore > South Dakota",https://www.mountainproject.com/route/105715151/raspberry-blossoms,2.8,-1,Trad,"5.9+ R",1,100,43.85037,-103.39708
"Junta Crack","White House Wall > Emancipation > Mount Rushmore National Memorial > The Needles Of Rushmore > South Dakota",https://www.mountainproject.com/route/110301103/junta-crack,2.6,-1,Trad,5.9+,1,90,43.8807,-103.4619
"The Roof","Turtle Dome > Iron Mountain > The Needles Of Rushmore > South Dakota",https://www.mountainproject.com/route/106717102/the-roof,2.7,-1,Trad,5.9+,1,90,43.86252,-103.44379
"I Like These Plants","Lower Danks > The Danks > Spearfish Canyon > South Dakota",https://www.mountainproject.com/route/110259461/i-like-these-plants,2.3,-1,Sport,5.9+,1,70,44.27837,-103.90404
"Whose Line is it Anyway?","Rubiks Ridge > Iron Mountain > The Needles Of Rushmore > South Dakota",https://www.mountainproject.com/route/113333703/whose-line-is-it-anyway,2.7,-1,Sport,5.9+,1,45,43.86249,-103.44062
Equinox,"Middle Marker Area > Marker > Magna Carta > Mount Rushmore National Memorial > The Needles Of Rushmore > South Dakota",https://www.mountainproject.com/route/111770553/equinox,2.7,-1,Sport,5.9+,1,50,43.88242,-103.46227
"Ms. U. Marty","Hobgoblin's Hideout > Palisades State Park > East Side SD > South Dakota",https://www.mountainproject.com/route/107300264/ms-u-marty,2.7,-1,TR,5.9+,1,30,43.68762,-96.5197
"We're Just Passing Through","Hall Of Truth Corridor > Breezy Point > Mount Rushmore National Memorial > The Needles Of Rushmore > South Dakota",https://www.mountainproject.com/route/112106156/were-just-passing-through,2.5,-1,Sport,5.9+,1,55,43.89229,-103.47397
PDA,"The Green Mile > Shadowlands > Spearfish Canyon > South Dakota",https://www.mountainproject.com/route/108268175/pda,1.9,-1,Sport,5.9+,1,69,44.28338,-103.89865
"New Number 9","Reef  2 > South Seas > Mount Rushmore National Memorial > The Needles Of Rushmore > South Dakota",https://www.mountainproject.com/route/111041193/new-number-9,2.4,-1,Sport,5.9+,1,70,43.88685,-103.4666
"Black Betty","Black Betty Wall > Spearfish Canyon > South Dakota",https://www.mountainproject.com/route/106709530/black-betty,1.9,-1,Sport,5.9+,1,45,44.42385,-103.88148
"My Girl","RattleSnake > Palisades State Park > East Side SD > South Dakota",https://www.mountainproject.com/route/106702782/my-girl,2.1,-1,"Trad, TR",5.9+,1,,43.68782,-96.52257
Jesco,"Voltage Wall > Lightning Creek > Southern Black Hills > South Dakota",https://www.mountainproject.com/route/107581702/jesco,2.3,-1,Sport,5.9+,1,40,43.77517,-103.58973
"Beethoven's Fifth","Spire five > Cathedral Spires > Custer State Park > South Dakota",https://www.mountainproject.com/route/107131572/beethovens-fifth,2.3,-1,Trad,5.9+,1,170,43.84909,-103.5325
"Wounded Noggin","Wounded Noggin > Palisades State Park > East Side SD > South Dakota",https://www.mountainproject.com/route/106726961/wounded-noggin,2.2,-1,TR,5.9+,1,,43.6901,-96.5147
"San Francisco, CA","Euphamiah Beresford Memorial Wall a.k.a. ""The Butt Rocks Wall"" > Sunshine > Spearfish Canyon > South Dakota",https://www.mountainproject.com/route/106478657/san-francisco-ca,1.9,-1,Sport,5.9+,1,69,44.29475,-103.89213
"Charlotte's Web","Stinger > Chopping Block > Mount Rushmore National Memorial > The Needles Of Rushmore > South Dakota",https://www.mountainproject.com/route/112135395/charlottes-web,2.2,-1,Trad,5.9+,1,45,43.8863,-103.46902
"A Lady, a Gentlemen, and BK","Sledgehammer > Iron Mountain > The Needles Of Rushmore > South Dakota",https://www.mountainproject.com/route/112778686/a-lady-a-gentlemen-and-bk,2.3,-1,Sport,5.9+,1,50,43.86277,-103.44302
"Cherry Light","Sunday Gulch Rock > Sunday Gulch > Outlets > Sylvan Lake > Custer State Park > South Dakota",https://www.mountainproject.com/route/108192368/cherry-light,2.3,-1,Trad,5.9+,1,130,43.8477,-103.5668
"Big Dripper","Middle Marker Area > Marker > Magna Carta > Mount Rushmore National Memorial > The Needles Of Rushmore > South Dakota",https://www.mountainproject.com/route/108230843/big-dripper,2.0,-1,"Trad, Sport",5.9+,1,130,43.88242,-103.46227
"Wounded Pain","Wounded Noggin > Palisades State Park > East Side SD > South Dakota",https://www.mountainproject.com/route/106726957/wounded-pain,2.0,-1,TR,5.9+,1,,43.6901,-96.5147
"Lean Python","Lost Arrow Spire > Sentinel Rock > Breezy Point > Mount Rushmore National Memorial > The Needles Of Rushmore > South Dakota",https://www.mountainproject.com/route/108305133/lean-python,1.9,-1,Trad,5.9+,1,50,43.8913,-103.4755
"Epicurean Corner","Elysium Proper > Elysium > Iron Mountain > The Needles Of Rushmore > South Dakota",https://www.mountainproject.com/route/120847134/epicurean-corner,2.0,-1,Trad,5.9+,1,70,43.85885,-103.44525
"Pointed Ears Direct","Hobgoblin's Hideout > Palisades State Park > East Side SD > South Dakota",https://www.mountainproject.com/route/107297346/pointed-ears-direct,2.0,-1,TR,5.9+,1,35,43.68762,-96.5197
QuickFinish,"Harkor Tower > Palisades State Park > East Side SD > South Dakota",https://www.mountainproject.com/route/106777727/quickfinish,2.0,-1,TR,5.9+,1,,43.68758,-96.52074
"Crash Landing","Picnic Pinnacle > Breezy Point > Mount Rushmore National Memorial > The Needles Of Rushmore > South Dakota",https://www.mountainproject.com/route/121496618/crash-landing,2.0,-1,Sport,5.9+,1,50,43.89067,-103.47477
"The Conductor","1880 Wall East > Old Hill City Road > Mount Rushmore National Memorial > The Needles Of Rushmore > South Dakota",https://www.mountainproject.com/route/120570710/the-conductor,2.0,-1,Sport,5.9+,1,70,43.90755,-103.47745
"Pluto's Playground","Middle Marker Area > Marker > Magna Carta > Mount Rushmore National Memorial > The Needles Of Rushmore > South Dakota",https://www.mountainproject.com/route/117542970/plutos-playground,2.0,-1,Sport,"5.9+ R",1,65,43.88242,-103.46227
Breezy,"Breezy Point Main Wall Upper > Breezy Point > Mount Rushmore National Memorial > The Needles Of Rushmore > South Dakota",https://www.mountainproject.com/route/118752184/breezy,2.0,-1,Sport,5.9+,1,60,43.89113,-103.47493
"Elrod's Epic","Bartizan Wall > Cathedral Spires > Custer State Park > South Dakota",https://www.mountainproject.com/route/112203001/elrods-epic,2.5,-1,Trad,5.9+,3,280,43.8487,-103.5333
"For What It's Worth","Breezy Point Main Wall > Breezy Point > Mount Rushmore National Memorial > The Needles Of Rushmore > South Dakota",https://www.mountainproject.com/route/113301044/for-what-its-worth,2.0,-1,Trad,5.9+,1,80,43.89126,-103.47536
"Sitting on the couch eating cheetos","Redbird Canyon > Southern Black Hills > South Dakota",https://www.mountainproject.com/route/111144984/sitting-on-the-couch-eating-cheetos,2.0,-1,Sport,5.9+,1,40,43.83669,-103.98809
Cyanide,"Whaling Wall > Tenpins/Switchbacks > Custer State Park > South Dakota",https://www.mountainproject.com/route/107618153/cyanide,2.0,-1,Trad,5.9+,1,60,43.8394,-103.5358
"Richards Out For Harambe","Limp Richard > The Chessmen > Horsethief Lake Area > The Needles Of Rushmore > South Dakota",https://www.mountainproject.com/route/112106130/richards-out-for-harambe,2.0,-1,Trad,5.9+,1,80,43.88305,-103.49947
"Original Route","Sentinel Rock > Sentinel Rock > Breezy Point > Mount Rushmore National Memorial > The Needles Of Rushmore > South Dakota",https://www.mountainproject.com/route/122618481/original-route,2.5,-1,Sport,5.9+,1,45,43.8913,-103.47529
"High Right Dihedral","Boxelder Forks > Rapid City Area > South Dakota",https://www.mountainproject.com/route/110656230/high-right-dihedral,2.0,-1,Trad,5.9+,1,65,44.20158,-103.53879
"Chucko's Jugs/Charlie's Way","Swingset Cove > Palisades State Park > East Side SD > South Dakota",https://www.mountainproject.com/route/107328201/chuckos-jugscharlies-way,2.0,-1,TR,5.9+,1,,43.6875,-96.52345
"Welcome to the Neighborhood","Mt. Dallymore > The Chessmen > Horsethief Lake Area > The Needles Of Rushmore > South Dakota",https://www.mountainproject.com/route/108197921/welcome-to-the-neighborhood,2.0,-1,Trad,5.9+,1,75,43.87906,-103.4981
"Horning Route","Shiva > Isolated Spires > Sylvan Lake > Custer State Park > South Dakota",https://www.mountainproject.com/route/107794537/horning-route,2.0,-1,Trad,5.9+,1,,43.84554,-103.56351
"Out of Mind","Hobgoblin's Hideout > Palisades State Park > East Side SD > South Dakota",https://www.mountainproject.com/route/107308868/out-of-mind,2.0,-1,TR,5.9+,1,40,43.68762,-96.5197
"Pucker Up","Overlook North > Dells Of The Sioux River > East Side SD > South Dakota",https://www.mountainproject.com/route/123806156/pucker-up,2.0,-1,Sport,5.9+,1,35,43.81334,-96.71212
"Child protective services","Kindergarten Rock > Monster North > Magna Carta > Mount Rushmore National Memorial > The Needles Of Rushmore > South Dakota",https://www.mountainproject.com/route/124395124/child-protective-services,2.2,-1,Sport,5.9+,1,100,43.88346,-103.46297
