Route,Location,URL,"Avg Stars","Your Stars","Route Type",Rating,Pitches,Length,"Area Latitude","Area Longitude"
"Lightning Bolt Cracks","North Six Shooter Peak > Indian Creek > Southeast Utah > Utah",https://www.mountainproject.com/route/105717598/lightning-bolt-cracks,3.9,-1,Trad,5.11-,1,,38.13741,-109.66805
"North Face","Castleton Tower > Castle Valley > Southeast Utah > Utah",https://www.mountainproject.com/route/105717319/north-face,3.9,-1,Trad,5.11-,3,,38.651,-109.3678
Pente,"Reservoir Wall > Indian Creek > Southeast Utah > Utah",https://www.mountainproject.com/route/105717391/pente,3.9,-1,Trad,5.11-,1,140,38.08284,-109.56274
"Big Guy","Scarface > Indian Creek > Southeast Utah > Utah",https://www.mountainproject.com/route/105981715/big-guy,3.9,-1,Trad,5.11-,1,120,38.06928,-109.55004
"Enter the Dragon","Dragon Arch > Little Cottonwood Canyon > Central Wasatch > Wasatch Range > Utah",https://www.mountainproject.com/route/106613481/enter-the-dragon,3.8,-1,Trad,5.11-,3,300,40.57426,-111.76793
"4 x 4","4X4 > Indian Creek > Southeast Utah > Utah",https://www.mountainproject.com/route/105718387/4-x-4,3.8,-1,Trad,5.11-,1,80,38.0733,-109.5813
"M.C.'s Hammer","Cliffs of Insanity > Indian Creek > Southeast Utah > Utah",https://www.mountainproject.com/route/106590879/mcs-hammer,3.8,-1,Trad,5.11-,1,100,38.15145,-109.59834
"Enter The Dragon","Kung Fu Theater > Mount Carmel Tunnel > Zion National Park > Southwest Utah > Utah",https://www.mountainproject.com/route/107963789/enter-the-dragon,3.7,-1,Sport,5.11-,2,250,37.21267,-112.96644
"unnamed classic hand crack aka Gold Crown","Broken Tooth > Indian Creek > Southeast Utah > Utah",https://www.mountainproject.com/route/105718114/unnamed-classic-hand-crack-aka-gold-crown,3.7,-1,Trad,5.11-,1,120,38.10072,-109.56618
"Crack Attack","Battle of the Bulge Buttress > Indian Creek > Southeast Utah > Utah",https://www.mountainproject.com/route/105717334/crack-attack,3.7,-1,Trad,5.11-,1,,38.03837,-109.54917
"Ice Cream Parlor Crack","Ice Cream Parlor > Kane Springs Canyon > Southeast Utah > Utah",https://www.mountainproject.com/route/105718264/ice-cream-parlor-crack,3.6,-1,Trad,5.11-,1,70,38.5092,-109.5995
"Serrator Crack","Way Rambo > Indian Creek > Southeast Utah > Utah",https://www.mountainproject.com/route/105800700/serrator-crack,3.5,-1,Trad,5.11-,1,70,38.03679,-109.5774
"Static Cling","Wall Street > Potash Road > Southeast Utah > Utah",https://www.mountainproject.com/route/105939455/static-cling,3.5,-1,Trad,5.11-,1,70,38.54668,-109.59959
Anasazi,"Supercrack Buttress > Indian Creek > Southeast Utah > Utah",https://www.mountainproject.com/route/105717406/anasazi,3.5,-1,Trad,5.11-,1,120,38.03635,-109.54551
"Double Trouble","Fin Wall > Indian Creek > Southeast Utah > Utah",https://www.mountainproject.com/route/105718669/double-trouble,3.6,-1,Trad,5.11-,1,120,38.10031,-109.57313
"Soul Fire","The Optimator > Indian Creek > Southeast Utah > Utah",https://www.mountainproject.com/route/105718753/soul-fire,3.4,-1,Trad,5.11-,1,80,38.0758,-109.5948
"At Your Cervix","2nd Meat Wall > Indian Creek > Southeast Utah > Utah",https://www.mountainproject.com/route/105718813/at-your-cervix,3.3,-1,Trad,5.11-,1,120,38.1302,-109.5862
"Fat Cat","Cat Wall > Indian Creek > Southeast Utah > Utah",https://www.mountainproject.com/route/105717658/fat-cat,3.1,-1,Trad,5.11-,1,,38.09105,-109.56274
"Fatted Calf","Sacred Cow Wall > Indian Creek > Southeast Utah > Utah",https://www.mountainproject.com/route/105809843/fatted-calf,3.6,-1,Trad,5.11-,1,70,38.14011,-109.58944
"Sparkling Touch","Sparkling Touch > The Bridger Jacks > Indian Creek > Southeast Utah > Utah",https://www.mountainproject.com/route/105717508/sparkling-touch,3.0,-1,Trad,5.11-,3,,38.08824,-109.60041
"Nuclear Fingers","Sinbad Wall aka Nuclear Wall > Indian Creek > Southeast Utah > Utah",https://www.mountainproject.com/route/116134602/nuclear-fingers,3.1,-1,Trad,5.11-,1,45,38.04694,-109.55072
"Pop Quiz (aka Brown on Butter)","Scarface > Indian Creek > Southeast Utah > Utah",https://www.mountainproject.com/route/106035142/pop-quiz-aka-brown-on-butter,2.7,-1,Trad,5.11-,1,70,38.06928,-109.55004
"Lt. Uhuru","Scarface > Indian Creek > Southeast Utah > Utah",https://www.mountainproject.com/route/106417374/lt-uhuru,3.3,-1,Trad,5.11-,1,100,38.06928,-109.55004
"Wiggins I","Cliffs of Insanity > Indian Creek > Southeast Utah > Utah",https://www.mountainproject.com/route/106420649/wiggins-i,3.9,-1,Trad,5.11-,1,110,38.15145,-109.59834
Vienna,"Scarface > Indian Creek > Southeast Utah > Utah",https://www.mountainproject.com/route/106787270/vienna,2.6,-1,Trad,5.11-,1,60,38.06928,-109.55004
"Tokyo Drift","Selfish Wall > Indian Creek > Southeast Utah > Utah",https://www.mountainproject.com/route/107515574/tokyo-drift,3.5,-1,Trad,5.11-,1,,38.1173,-109.5757
"Cat Nap","Cat Wall > Indian Creek > Southeast Utah > Utah",https://www.mountainproject.com/route/106150359/cat-nap,2.5,-1,Trad,5.11-,1,70,38.09105,-109.56274
"Rim Shot","Bridger Jack Butte > The Bridger Jacks > Indian Creek > Southeast Utah > Utah",https://www.mountainproject.com/route/105718306/rim-shot,3.4,-1,Trad,5.11-,5,400,38.08825,-109.60042
"Free Window Route","Echo Pinnacle > Tusher Canyon > Southeast Utah > Utah",https://www.mountainproject.com/route/105717961/free-window-route,3.5,-1,Trad,5.11-,2,270,38.68334,-109.7511
"The Cobra","The Cobra > Fisher Towers > Southeast Utah > Utah",https://www.mountainproject.com/route/105717490/the-cobra,3.3,-1,Trad,"5.11- R",1,,38.724,-109.3083
"No Excuse","Reservoir Wall > Indian Creek > Southeast Utah > Utah",https://www.mountainproject.com/route/105717694/no-excuse,3.0,-1,Trad,5.11-,1,,38.08284,-109.56274
Grommet,"Watchtower Tiers > The Watchtower > Ferguson Canyon > Central Wasatch > Wasatch Range > Utah",https://www.mountainproject.com/route/106251192/grommet,2.2,-1,Sport,5.11-,1,50,40.61312,-111.7789
"Lap Dance","Cragmont > Mount Carmel Tunnel > Zion National Park > Southwest Utah > Utah",https://www.mountainproject.com/route/108855644/lap-dance,3.7,-1,Trad,5.11-,3,400,37.2107,-112.955
"Solo West","Selfish Wall > Indian Creek > Southeast Utah > Utah",https://www.mountainproject.com/route/107131418/solo-west,3.1,-1,Trad,5.11-,1,70,38.1173,-109.5757
"Planet Waves","Dylan Wall > Lower Buckhorn > Buckhorn Wash > San Rafael Swell - North > San Rafael Swell > South Central Utah > Utah",https://www.mountainproject.com/route/105718057/planet-waves,3.5,-1,Trad,5.11-,1,100,39.08166,-110.64081
"Kung Fu Fighter","Kung Fu Theater > Mount Carmel Tunnel > Zion National Park > Southwest Utah > Utah",https://www.mountainproject.com/route/107170417/kung-fu-fighter,3.6,-1,Trad,5.11-,4,450,37.21267,-112.96644
"Unknown on far left side of wall","Supercrack Buttress > Indian Creek > Southeast Utah > Utah",https://www.mountainproject.com/route/107133770/unknown-on-far-left-side-of-wall,2.8,-1,Trad,5.11-,1,80,38.03635,-109.54551
"The Host","Way Rambo > Indian Creek > Southeast Utah > Utah",https://www.mountainproject.com/route/106589900/the-host,3.4,-1,Trad,5.11-,1,100,38.03679,-109.5774
"Mini Skirts And Halter Tops","Shady Crag > Long Canyon > Potash Road > Southeast Utah > Utah",https://www.mountainproject.com/route/109663424/mini-skirts-and-halter-tops,3.8,-1,Trad,5.11-,2,200,38.54511,-109.65489
"Shere Khan","Lower Jungle > Jungle, on the Aquarius Plateau > South Central Utah > Utah",https://www.mountainproject.com/route/107310617/shere-khan,3.7,-1,"Trad, Sport, Alpine",5.11-,1,80,37.7503,-111.8708
"Karin's Corner","Sacred Cow Wall > Indian Creek > Southeast Utah > Utah",https://www.mountainproject.com/route/105809848/karins-corner,3.1,-1,Trad,5.11-,1,150,38.14011,-109.58944
"The Violator","Sinbad Wall aka Nuclear Wall > Indian Creek > Southeast Utah > Utah",https://www.mountainproject.com/route/107623103/the-violator,3.4,-1,Trad,5.11-,1,70,38.04694,-109.55072
"Go Drown in a Lake of Diet Coke, Fucker!","Public Service Wall > Indian Creek > Southeast Utah > Utah",https://www.mountainproject.com/route/108067161/go-drown-in-a-lake-of-diet-coke-fucker,3.7,-1,Trad,5.11-,1,130,38.10607,-109.57104
"Right Arm","Original Meat Wall > Indian Creek > Southeast Utah > Utah",https://www.mountainproject.com/route/105718849/right-arm,2.9,-1,Trad,5.11-,1,150,38.13809,-109.58571
"Long Bandito route - hands into wide corner","4X4 > Indian Creek > Southeast Utah > Utah",https://www.mountainproject.com/route/106568924/long-bandito-route-hands-into-wide-corner,3.3,-1,Trad,5.11-,1,150,38.0733,-109.5813
"Plumbers Crack","The Pipeline > Left Fork > Maple Canyon > Central Utah > Utah",https://www.mountainproject.com/route/107768669/plumbers-crack,2.1,-1,Sport,5.11-,1,30,39.5555,-111.687
"Powders of Persuasion","Bridger Jack Butte > The Bridger Jacks > Indian Creek > Southeast Utah > Utah",https://www.mountainproject.com/route/105718102/powders-of-persuasion,3.0,-1,Trad,5.11-,4,350,38.08825,-109.60042
"Last First Crack","Green Adjective Gully > Little Cottonwood Canyon > Central Wasatch > Wasatch Range > Utah",https://www.mountainproject.com/route/112287621/last-first-crack,3.1,-1,"Trad, TR",5.11-,1,40,40.5741,-111.7543
"The Bungle","Schoolroom Area > Gate Buttress > Little Cottonwood Canyon > Central Wasatch > Wasatch Range > Utah",https://www.mountainproject.com/route/106016534/the-bungle,3.0,-1,Trad,"5.11- PG13",1,100,40.5733,-111.754
"Turdus Interuptus","Selfish Wall > Indian Creek > Southeast Utah > Utah",https://www.mountainproject.com/route/107515507/turdus-interuptus,2.8,-1,Trad,5.11-,1,50,38.1173,-109.5757
"Tooth Fairy","Broken Tooth > Indian Creek > Southeast Utah > Utah",https://www.mountainproject.com/route/106703368/tooth-fairy,3.6,-1,Trad,5.11-,1,120,38.10072,-109.56618
"Unknown 5.11- (really long thin hands corner)","Reservoir Wall > Indian Creek > Southeast Utah > Utah",https://www.mountainproject.com/route/105718690/unknown-511-really-long-thin-hands-corner,3.3,-1,Trad,5.11-,2,200,38.08284,-109.56274
FF1,"Fin Wall > Indian Creek > Southeast Utah > Utah",https://www.mountainproject.com/route/105823013/ff1,3.6,-1,Trad,5.11-,1,130,38.10031,-109.57313
"Meat Machine","2nd Meat Wall > Indian Creek > Southeast Utah > Utah",https://www.mountainproject.com/route/105718531/meat-machine,2.5,-1,Trad,5.11-,1,50,38.1302,-109.5862
"The Megamahedral","The Minotaur > Zion National Park > Southwest Utah > Utah",https://www.mountainproject.com/route/105717856/the-megamahedral,3.4,-1,Trad,"5.11- PG13",7,900,37.27326,-112.94974
"Hole in the Wall","Battle of the Bulge Buttress > Indian Creek > Southeast Utah > Utah",https://www.mountainproject.com/route/105921773/hole-in-the-wall,3.5,-1,Trad,5.11-,1,130,38.03837,-109.54917
"Holy Roller","Mt. Spry > Zion National Park > Southwest Utah > Utah",https://www.mountainproject.com/route/106959875/holy-roller,3.6,-1,Trad,5.11-,5,440,37.22187,-112.96378
"Night Nurse","3D > Indian Creek > Southeast Utah > Utah",https://www.mountainproject.com/route/121675247/night-nurse,4.0,-1,Trad,5.11-,1,130,38.07155,-109.57902
"Sesh One Cooking","2nd Meat Wall > Indian Creek > Southeast Utah > Utah",https://www.mountainproject.com/route/106177028/sesh-one-cooking,2.8,-1,Trad,5.11-,1,120,38.1302,-109.5862
"Good Times","Way Rambo > Indian Creek > Southeast Utah > Utah",https://www.mountainproject.com/route/106022852/good-times,3.5,-1,Trad,5.11-,1,140,38.03679,-109.5774
"The Reaper Wears Pink","Original Meat Wall > Indian Creek > Southeast Utah > Utah",https://www.mountainproject.com/route/105718660/the-reaper-wears-pink,2.9,-1,Trad,5.11-,1,80,38.13809,-109.58571
"El Segundo","East Gate Buttress > Gate Buttress > Little Cottonwood Canyon > Central Wasatch > Wasatch Range > Utah",https://www.mountainproject.com/route/106966439/el-segundo,3.5,-1,Trad,5.11-,1,70,40.57387,-111.75163
"Shock Trauma","Intensive Care Slab > Little Cottonwood Canyon > Central Wasatch > Wasatch Range > Utah",https://www.mountainproject.com/route/105864529/shock-trauma,3.5,-1,Trad,"5.11- PG13",2,200,40.5747,-111.7613
"BBC from Cleveland (Big Bold Climbers)","Critic's Choice > Indian Creek > Southeast Utah > Utah",https://www.mountainproject.com/route/106600776/bbc-from-cleveland-big-bold-climbers,2.9,-1,Trad,5.11-,1,90,38.03075,-109.60173
"Old Peculier","The Egg > Little Cottonwood Canyon > Central Wasatch > Wasatch Range > Utah",https://www.mountainproject.com/route/106600242/old-peculier,3.0,-1,Trad,5.11-,1,60,40.57405,-111.76875
"Unnamed Left Facing Corner with the Stacked Blocks Start","Sinbad Wall aka Nuclear Wall > Indian Creek > Southeast Utah > Utah",https://www.mountainproject.com/route/109698704/unnamed-left-facing-corner-with-the-stacked-blocks-start,2.9,-1,Trad,5.11-,1,60,38.04694,-109.55072
"Big Lady","The Wall > Indian Creek > Southeast Utah > Utah",https://www.mountainproject.com/route/106599963/big-lady,4.0,-1,Trad,5.11-,1,110,38.17139,-109.59666
"Bernie Breakdown","Cerberus Gendarme > Zion National Park > Southwest Utah > Utah",https://www.mountainproject.com/route/114776106/bernie-breakdown,4.0,-1,Trad,"5.11- PG13",1,65,37.27435,-112.94437
"Sideways Sandworm","Disappearing Devil > Moab Rim Area > Southeast Utah > Utah",https://www.mountainproject.com/route/112215420/sideways-sandworm,4.0,-1,Trad,"5.11- PG13",3,150,38.5428,-109.5526
"Goby Dick","Shady Crag > Long Canyon > Potash Road > Southeast Utah > Utah",https://www.mountainproject.com/route/114462937/goby-dick,4.0,-1,Trad,5.11-,4,350,38.54511,-109.65489
"Flank Steak","2nd Meat Wall > Indian Creek > Southeast Utah > Utah",https://www.mountainproject.com/route/116983067/flank-steak,3.5,-1,Trad,5.11-,1,50,38.1302,-109.5862
"The Man Who Would Be King","Lower Jungle > Jungle, on the Aquarius Plateau > South Central Utah > Utah",https://www.mountainproject.com/route/121211005/the-man-who-would-be-king,4.0,-1,"Sport, Alpine",5.11-,1,50,37.7503,-111.8708
"Hottie with a Naughty Body","Dihedrals > North Fork > La Sal Mountains > Southeast Utah > Utah",https://www.mountainproject.com/route/107928018/hottie-with-a-naughty-body,4.0,-1,Trad,5.11-,1,125,38.5632,-109.542
"No Ka Oi","Slug Wall > Indian Creek > Southeast Utah > Utah",https://www.mountainproject.com/route/121498600/no-ka-oi,4.0,-1,Trad,"5.11- PG13",1,90,38.09271,-109.54931
"Frozen Meat Curtains","2nd Meat Wall > Indian Creek > Southeast Utah > Utah",https://www.mountainproject.com/route/123359984/frozen-meat-curtains,4.0,-1,Trad,5.11-,1,130,38.1302,-109.5862
Zoomerang,"Bottleneck Peak > San Rafael Swell - North > San Rafael Swell > South Central Utah > Utah",https://www.mountainproject.com/route/105718588/zoomerang,3.6,-1,Trad,5.11-,4,,39.06824,-110.68105
"Repo man","Public Service Wall > Indian Creek > Southeast Utah > Utah",https://www.mountainproject.com/route/107855117/repo-man,3.1,-1,Trad,5.11-,1,80,38.10607,-109.57104
"Cowch Potato","Sacred Cow Wall > Indian Creek > Southeast Utah > Utah",https://www.mountainproject.com/route/105809867/cowch-potato,2.4,-1,Trad,5.11-,1,70,38.14011,-109.58944
"Have a Cow","Sacred Cow Wall > Indian Creek > Southeast Utah > Utah",https://www.mountainproject.com/route/110261851/have-a-cow,3.6,-1,Trad,5.11-,1,140,38.14011,-109.58944
"The Moon Also Rises (Finger Lickin' Good var.)","Battle of the Bulge Buttress > Indian Creek > Southeast Utah > Utah",https://www.mountainproject.com/route/106338053/the-moon-also-rises-finger-lickin-good-var,2.9,-1,Trad,5.11-,1,110,38.03837,-109.54917
"Mean High Tide","Cerberus Gendarme > Zion National Park > Southwest Utah > Utah",https://www.mountainproject.com/route/106484063/mean-high-tide,3.1,-1,Trad,5.11-,5,600,37.27435,-112.94437
Unknown,"Sparks Wall > Indian Creek > Southeast Utah > Utah",https://www.mountainproject.com/route/108726887/unknown,3.0,-1,Trad,5.11-,1,65,38.04022,-109.59149
"Banditos !","Scarface > Indian Creek > Southeast Utah > Utah",https://www.mountainproject.com/route/108026519/banditos,3.4,-1,Trad,5.11-,2,240,38.06928,-109.55004
"Sweat n' Sour","Public Service Wall > Indian Creek > Southeast Utah > Utah",https://www.mountainproject.com/route/109429122/sweat-n-sour,2.5,-1,Trad,5.11-,1,45,38.10607,-109.57104
"Da Black and Gold","South Summit Wall > Lone Peak Cirque > Central Wasatch > Wasatch Range > Utah",https://www.mountainproject.com/route/106254822/da-black-and-gold,3.3,-1,"Trad, Alpine",5.11-,1,150,40.52551,-111.7558
"Half Pipe","Wall Street > Potash Road > Southeast Utah > Utah",https://www.mountainproject.com/route/107120893/half-pipe,2.9,-1,Trad,5.11-,1,65,38.54668,-109.59959
"Happily Ever Shafter","Priapism Pillar > Day Canyon > Potash Road > Southeast Utah > Utah",https://www.mountainproject.com/route/112776241/happily-ever-shafter,3.5,-1,Sport,5.11-,1,100,38.56887,-109.67729
"Fingering the PV","Lewis Carroll Wall > Pine Valley > Saint George > Southwest Utah > Utah",https://www.mountainproject.com/route/110579981/fingering-the-pv,3.7,-1,Trad,5.11-,1,,37.4095,-113.5373
"Adrenaline Circus","Podunk Mesa Tower > River Road > Southeast Utah > Utah",https://www.mountainproject.com/route/105888584/adrenaline-circus,2.8,-1,Trad,"5.11- PG13",4,300,38.6276,-109.4966
"Sparkling Schnitzel","Sparks Wall > Indian Creek > Southeast Utah > Utah",https://www.mountainproject.com/route/105888973/sparkling-schnitzel,2.8,-1,Trad,5.11-,1,70,38.04022,-109.59149
"Shades of Grey - Left","Black and Tan > Woodbury Road Crags > Utah Hills > Saint George > Southwest Utah > Utah",https://www.mountainproject.com/route/112511513/shades-of-grey-left,2.2,-1,Sport,5.11-,1,45,37.0175,-113.8518
Grindhouse,"Way Rambo > Indian Creek > Southeast Utah > Utah",https://www.mountainproject.com/route/106030855/grindhouse,2.9,-1,Trad,5.11-,1,50,38.03679,-109.5774
"Hayutake [direct start]","The Optimator > Indian Creek > Southeast Utah > Utah",https://www.mountainproject.com/route/122370152/hayutake-direct-start,3.3,-1,Trad,5.11-,1,110,38.0758,-109.5948
"Unnamed 5.11- just L of Last Battle (P2 12+, 90')","Battle of the Bulge Buttress > Indian Creek > Southeast Utah > Utah",https://www.mountainproject.com/route/106132232/unnamed-511-just-l-of-last-battle-p2-12-90,2.5,-1,Trad,5.11-,1,60,38.03837,-109.54917
"Rock Out with Your Glock Out","Pistol Whipped > Indian Creek > Southeast Utah > Utah",https://www.mountainproject.com/route/107940254/rock-out-with-your-glock-out,3.2,-1,Trad,5.11-,1,85,38.00828,-109.58715
Murut,"Shangri La > Jungle, on the Aquarius Plateau > South Central Utah > Utah",https://www.mountainproject.com/route/115964722/murut,3.4,-1,"Trad, Alpine",5.11-,1,70,37.77957,-111.90183
"Chota Boy","Election Wall > Indian Creek > Southeast Utah > Utah",https://www.mountainproject.com/route/109773338/chota-boy,2.9,-1,Trad,5.11-,1,60,38.16733,-109.58846
Lynx,"Cat Wall > Indian Creek > Southeast Utah > Utah",https://www.mountainproject.com/route/105887376/lynx,2.9,-1,Trad,5.11-,1,140,38.09105,-109.56274
"West Face","Castleton Tower > Castle Valley > Southeast Utah > Utah",https://www.mountainproject.com/route/105717826/west-face,3.0,-1,Trad,5.11-,4,350,38.651,-109.3678
"Bloody Dick Art","Left Rambo > Indian Creek > Southeast Utah > Utah",https://www.mountainproject.com/route/110714330/bloody-dick-art,3.5,-1,Trad,5.11-,1,70,38.04082,-109.57749
"JARNI ZVRAT-KY","Donnelly Canyon > Indian Creek > Southeast Utah > Utah",https://www.mountainproject.com/route/108029965/jarni-zvrat-ky,2.8,-1,Trad,5.11-,1,110,38.0398,-109.5436
Cocked,"Pistol Whipped > Indian Creek > Southeast Utah > Utah",https://www.mountainproject.com/route/108203505/cocked,2.8,-1,Trad,5.11-,1,80,38.00828,-109.58715
"Think Again","Battle of the Bulge Buttress > Indian Creek > Southeast Utah > Utah",https://www.mountainproject.com/route/116101331/think-again,3.3,-1,Trad,5.11-,1,70,38.03837,-109.54917
"Pins and Needles","Wall of Illness > Right Hand Fork > Logan Canyon > Cache Valley > Northern Wasatch > Wasatch Range > Utah",https://www.mountainproject.com/route/113087224/pins-and-needles,2.9,-1,"Sport, TR",5.11-,1,50,41.78082,-111.63598
Echoes,"Echoes Wall > Indian Creek > Southeast Utah > Utah",https://www.mountainproject.com/route/120339530/echoes,3.2,-1,Trad,5.11-,1,90,38.17915,-109.60007
"Tectonic Plates","Pangaea > Jungle, on the Aquarius Plateau > South Central Utah > Utah",https://www.mountainproject.com/route/109286735/tectonic-plates,3.3,-1,"Trad, Alpine",5.11-,1,90,37.76031,-111.87101
"AKA Inset Pillar","The Gash > Indian Creek > Southeast Utah > Utah",https://www.mountainproject.com/route/116624861/aka-inset-pillar,3.3,-1,Trad,5.11-,1,105,38.0521,-109.5961
Jaws,"Buttress Two (Bond Buttress) > Triple Buttress Area > Long Canyon > Potash Road > Southeast Utah > Utah",https://www.mountainproject.com/route/110881945/jaws,3.0,-1,Trad,5.11-,1,55,38.54503,-109.65515
"Unknown  2","Maverick Buttress > Long Canyon > Potash Road > Southeast Utah > Utah",https://www.mountainproject.com/route/112192649/unknown-2,2.9,-1,Trad,5.11-,1,40,38.54492,-109.69654
"And Son","Minions of Chaos Area > Tanners Gulch > Little Cottonwood Canyon > Central Wasatch > Wasatch Range > Utah",https://www.mountainproject.com/route/106274315/and-son,3.0,-1,Trad,5.11-,1,80,40.57993,-111.70289
"Wolf's Ear","Pistol Whipped > Indian Creek > Southeast Utah > Utah",https://www.mountainproject.com/route/106443052/wolfs-ear,2.6,-1,Trad,5.11-,1,80,38.00828,-109.58715
"Free Lemmingwinks","Aqueduct Area, The > Big Cottonwood Canyon > Central Wasatch > Wasatch Range > Utah",https://www.mountainproject.com/route/105973742/free-lemmingwinks,2.5,-1,Sport,5.11-,1,70,40.6232,-111.77
Minima,"Eye of the World > Right Fork > Maple Canyon > Central Utah > Utah",https://www.mountainproject.com/route/108321161/minima,3.0,-1,Sport,5.11-,1,65,39.56177,-111.68797
Fallout,"Graveside Pillar > Graveside Matter Wall > Cedar Canyon > Cedar City > Southwest Utah > Utah",https://www.mountainproject.com/route/106488203/fallout,2.9,-1,Sport,5.11-,1,60,37.61602,-112.93205
"Pussy Galore","Cat Wall > Indian Creek > Southeast Utah > Utah",https://www.mountainproject.com/route/107475199/pussy-galore,3.0,-1,Trad,5.11-,1,95,38.09105,-109.56274
"Trust it","Reservoir Wall > Indian Creek > Southeast Utah > Utah",https://www.mountainproject.com/route/107806626/trust-it,3.0,-1,Trad,5.11-,1,110,38.08284,-109.56274
Unknown,"Maverick Buttress > Long Canyon > Potash Road > Southeast Utah > Utah",https://www.mountainproject.com/route/108784339/unknown,2.8,-1,Trad,5.11-,2,115,38.54492,-109.69654
"The Block Party","Great White Icicle Area > Little Cottonwood Canyon > Central Wasatch > Wasatch Range > Utah",https://www.mountainproject.com/route/106248975/the-block-party,2.7,-1,Trad,5.11-,3,300,40.56883,-111.74168
Strangeways,"Eagle Buttress and Environs > Little Cottonwood Canyon > Central Wasatch > Wasatch Range > Utah",https://www.mountainproject.com/route/107900457/strangeways,2.9,-1,Trad,5.11-,1,80,40.5751,-111.76719
"Memories of Seth","Cliffs of Insanity > Indian Creek > Southeast Utah > Utah",https://www.mountainproject.com/route/119779157/memories-of-seth,3.0,-1,Trad,5.11-,1,100,38.15145,-109.59834
"Tom's Thumb","Critic's Choice > Indian Creek > Southeast Utah > Utah",https://www.mountainproject.com/route/116675524/toms-thumb,2.8,-1,Trad,5.11-,1,50,38.03075,-109.60173
"Offwidth Your Head","Cliffs of Insanity > Indian Creek > Southeast Utah > Utah",https://www.mountainproject.com/route/107837463/offwidth-your-head,3.0,-1,Trad,5.11-,1,120,38.15145,-109.59834
"Andre The Giant","Cliffs of Insanity > Indian Creek > Southeast Utah > Utah",https://www.mountainproject.com/route/115361104/andre-the-giant,2.6,-1,Trad,5.11-,1,30,38.15145,-109.59834
Emmanator,"Election Wall > Indian Creek > Southeast Utah > Utah",https://www.mountainproject.com/route/106614287/emmanator,2.8,-1,Trad,5.11-,1,80,38.16733,-109.58846
Techni-Construction,"Technicolor Wall > Indian Creek > Southeast Utah > Utah",https://www.mountainproject.com/route/117969313/techni-construction,3.0,-1,Trad,5.11-,1,130,38.05715,-109.58647
Unknown,"S-Curve - The Pile > S-Curves > Big Cottonwood Canyon > Central Wasatch > Wasatch Range > Utah",https://www.mountainproject.com/route/113621638/unknown,2.1,-1,Sport,5.11-,1,,40.63494,-111.72419
"Sunset Skydive","Sunshine Wall Routes > Sunshine Wall > Southeast Utah > Utah",https://www.mountainproject.com/route/106949788/sunset-skydive,3.0,-1,Sport,5.11-,1,90,38.8607,-109.7425
"Trolls at the Gate","Hidden Fortress > Big Cottonwood Canyon > Central Wasatch > Wasatch Range > Utah",https://www.mountainproject.com/route/121173108/trolls-at-the-gate,2.8,-1,Sport,5.11-,2,140,40.6181,-111.74409
Fingerling,"Critic's Choice > Indian Creek > Southeast Utah > Utah",https://www.mountainproject.com/route/122341854/fingerling,2.8,-1,Trad,5.11-,1,70,38.03075,-109.60173
"Whoa Nelly!","Kung Fu Theater > Mount Carmel Tunnel > Zion National Park > Southwest Utah > Utah",https://www.mountainproject.com/route/120388940/whoa-nelly,3.0,-1,Trad,5.11-,1,60,37.21267,-112.96644
"Mayday On Monday","The Air Strip > Jungle, on the Aquarius Plateau > South Central Utah > Utah",https://www.mountainproject.com/route/117652070/mayday-on-monday,3.0,-1,"Sport, Alpine",5.11-,1,50,37.77727,-111.8992
"Reach Around","Technicolor Wall > Indian Creek > Southeast Utah > Utah",https://www.mountainproject.com/route/116731791/reach-around,3.0,-1,Trad,5.11-,1,110,38.05715,-109.58647
"Honest Aussie","Supercrack Buttress > Indian Creek > Southeast Utah > Utah",https://www.mountainproject.com/route/106850348/honest-aussie,3.0,-1,Trad,5.11-,1,160,38.03635,-109.54551
"Good Boy","Disappointment Cliffs > Indian Creek > Southeast Utah > Utah",https://www.mountainproject.com/route/113688239/good-boy,2.5,-1,Trad,5.11-,1,85,38.11634,-109.59215
"Siouxsie Sioux","Banshee Wall > Jungle, on the Aquarius Plateau > South Central Utah > Utah",https://www.mountainproject.com/route/110902534/siouxsie-sioux,3.3,-1,"Sport, Alpine",5.11-,1,70,37.76645,-111.88602
"No More Tears","Reptilian Wall > Long Canyon > Potash Road > Southeast Utah > Utah",https://www.mountainproject.com/route/106612259/no-more-tears,3.0,-1,Trad,5.11-,1,150,38.54912,-109.69864
"Delirium Tremens","Guano Wall > Ferguson Canyon > Central Wasatch > Wasatch Range > Utah",https://www.mountainproject.com/route/106523832/delirium-tremens,3.0,-1,Trad,5.11-,2,140,40.61407,-111.78203
"Kelley Route 28","Reservoir Wall > Indian Creek > Southeast Utah > Utah",https://www.mountainproject.com/route/108942561/kelley-route-28,2.8,-1,Trad,5.11-,1,110,38.08284,-109.56274
"Wishbone Suspension","Way Rambo > Indian Creek > Southeast Utah > Utah",https://www.mountainproject.com/route/106058052/wishbone-suspension,2.5,-1,Trad,5.11-,1,70,38.03679,-109.5774
"Kelley Route 12","The Beach > Indian Creek > Southeast Utah > Utah",https://www.mountainproject.com/route/116677400/kelley-route-12,2.9,-1,Trad,5.11-,1,75,38.16148,-109.58228
"The Clean Spaniard","Cliffs of Insanity > Indian Creek > Southeast Utah > Utah",https://www.mountainproject.com/route/120370509/the-clean-spaniard,3.0,-1,Trad,5.11-,1,110,38.15145,-109.59834
Scorpion,"Shangri La > Jungle, on the Aquarius Plateau > South Central Utah > Utah",https://www.mountainproject.com/route/121005484/scorpion,3.0,-1,"Sport, Alpine",5.11-,1,50,37.77957,-111.90183
"Jungle Fever","The Research Station > Jungle, on the Aquarius Plateau > South Central Utah > Utah",https://www.mountainproject.com/route/114527269/jungle-fever,3.0,-1,"Trad, Alpine",5.11-,1,55,37.77515,-111.8943
Biomass,"Bioturbation Wall > Indian Creek > Southeast Utah > Utah",https://www.mountainproject.com/route/108206163/biomass,3.0,-1,Trad,5.11-,1,85,38.03398,-109.57738
"Split Personality","Scorched Earth Crag > Kane Springs Canyon > Southeast Utah > Utah",https://www.mountainproject.com/route/107086593/split-personality,3.0,-1,Trad,5.11-,1,100,38.5232,-109.6024
"Shaped Wall","Chris Castle Mountain > Three Peaks > Cedar City > Southwest Utah > Utah",https://www.mountainproject.com/route/106982031/shaped-wall,3.0,-1,Boulder,"5.11- V2-3",1,20,37.75563,-113.17632
"Entrenched Meanderers","Roundhouse Canyon > Bluff > 191 South > Southeast Utah > Utah",https://www.mountainproject.com/route/109346702/entrenched-meanderers,3.0,-1,Trad,5.11-,1,105,37.28716,-109.5475
"Step Inside My Hyundai","Habitado > Indian Creek > Southeast Utah > Utah",https://www.mountainproject.com/route/123175055/step-inside-my-hyundai,3.0,-1,Trad,5.11-,1,80,38.04004,-109.53368
"Unknown OW (bombay flare left of wiggins routes)","Cliffs of Insanity > Indian Creek > Southeast Utah > Utah",https://www.mountainproject.com/route/106622326/unknown-ow-bombay-flare-left-of-wiggins-routes,2.7,-1,Trad,5.11-,1,60,38.15145,-109.59834
"Get a Grip","S-Curve - Upper Wall > S-Curves > Big Cottonwood Canyon > Central Wasatch > Wasatch Range > Utah",https://www.mountainproject.com/route/107699143/get-a-grip,2.2,-1,Sport,5.11-,1,40,40.63471,-111.72262
"Negative Ghostrider","The Watchman > Zion National Park > Southwest Utah > Utah",https://www.mountainproject.com/route/108104838/negative-ghostrider,2.8,-1,Trad,5.11-,9,1000,37.18464,-112.97954
"2 Bad Bitches On A Jetplane","Bitchin' Buttress > Indian Creek > Southeast Utah > Utah",https://www.mountainproject.com/route/120616481/2-bad-bitches-on-a-jetplane,3.0,-1,Trad,5.11-,1,60,38.07099,-109.53881
"Beef Basin Social Club","Over the Hill > Indian Creek > Southeast Utah > Utah",https://www.mountainproject.com/route/119869760/beef-basin-social-club,3.0,-1,Trad,5.11-,1,115,38.05401,-109.59877
"Brown Eye of Sauron","Priapism Pillar > Day Canyon > Potash Road > Southeast Utah > Utah",https://www.mountainproject.com/route/119857103/brown-eye-of-sauron,3.0,-1,Trad,5.11-,4,400,38.56887,-109.67729
"Huntsman Tower","Eardley Canyon > San Rafael Swell - South > San Rafael Swell > South Central Utah > Utah",https://www.mountainproject.com/route/122729686/huntsman-tower,3.0,-1,"Trad, Alpine",5.11-,3,240,38.78568,-110.4966
"The Snail","Pritchett Canyon > Kane Springs Canyon > Southeast Utah > Utah",https://www.mountainproject.com/route/120893401/the-snail,3.0,-1,Trad,"5.11- X",1,50,38.53539,-109.59909
"3D Center","3D > Indian Creek > Southeast Utah > Utah",https://www.mountainproject.com/route/120584555/3d-center,3.0,-1,Trad,5.11-,1,140,38.07155,-109.57902
"Juggernotch Arete","Top Notch Buttress > Notch Mountain > Uinta Mountains > Northeast Utah > Utah",https://www.mountainproject.com/route/122931170/juggernotch-arete,3.0,-1,"Trad, Alpine",5.11-,3,350,40.70928,-110.9408
"Rope Around Yer Ankle    AKA (Noose Up)","Sinbad Wall aka Nuclear Wall > Indian Creek > Southeast Utah > Utah",https://www.mountainproject.com/route/112785535/rope-around-yer-ankle-aka-noose-up,3.0,-1,Trad,"5.11- PG13",1,115,38.04694,-109.55072
"No Take On The Flake","Cat Wall > Indian Creek > Southeast Utah > Utah",https://www.mountainproject.com/route/112918581/no-take-on-the-flake,3.0,-1,Trad,5.11-,1,80,38.09105,-109.56274
Grendel,"Selfish Wall > Indian Creek > Southeast Utah > Utah",https://www.mountainproject.com/route/118066401/grendel,3.0,-1,Trad,5.11-,1,60,38.1173,-109.5757
"Unknown 11-","Cultural Respect wall > Indian Creek > Southeast Utah > Utah",https://www.mountainproject.com/route/115682252/unknown-11,3.0,-1,Trad,5.11-,1,150,38.04553,-109.59153
"5.11- route","Queens Pyramid > Capitol Reef > South Central Utah > Utah",https://www.mountainproject.com/route/122871879/511-route,3.0,-1,Trad,5.11-,1,,38.21555,-111.18331
"Holidays in the Sun","Shangri La > Jungle, on the Aquarius Plateau > South Central Utah > Utah",https://www.mountainproject.com/route/119864081/holidays-in-the-sun,3.0,-1,"Sport, Alpine",5.11-,1,80,37.77957,-111.90183
"Unnamed 11-","Pods Wall > Indian Creek > Southeast Utah > Utah",https://www.mountainproject.com/route/116635194/unnamed-11,3.0,-1,Trad,5.11-,1,95,38.07772,-109.55477
"Two Dogs and Their Cowboys","Big Sky Country > Indian Creek > Southeast Utah > Utah",https://www.mountainproject.com/route/113795346/two-dogs-and-their-cowboys,3.0,-1,Trad,5.11-,1,65,37.99617,-109.58563
"Sad Saddam","Shock and Awe > Indian Creek > Southeast Utah > Utah",https://www.mountainproject.com/route/116111164/sad-saddam,3.0,-1,Trad,5.11-,1,55,38.11369,-109.5622
"Nowhere Girl","The Dark Continent Area > Jungle, on the Aquarius Plateau > South Central Utah > Utah",https://www.mountainproject.com/route/121210776/nowhere-girl,3.0,-1,"Trad, Alpine",5.11-,1,50,37.7634,-111.87064
"Pray for Giveness","Disappointment Cliffs > Indian Creek > Southeast Utah > Utah",https://www.mountainproject.com/route/113687945/pray-for-giveness,3.0,-1,Trad,5.11-,1,90,38.11634,-109.59215
"Naked Lap","Public Service Wall > Indian Creek > Southeast Utah > Utah",https://www.mountainproject.com/route/112833083/naked-lap,3.0,-1,Trad,5.11-,1,37,38.10607,-109.57104
"Whaleing Watch","Eye of the Whale > Arches National Park > Southeast Utah > Utah",https://www.mountainproject.com/route/112777902/whaleing-watch,3.0,-1,Trad,5.11-,1,70,38.70998,-109.61322
"Dyslexic Swell Stone","Eardley Canyon > San Rafael Swell - South > San Rafael Swell > South Central Utah > Utah",https://www.mountainproject.com/route/122734981/dyslexic-swell-stone,3.0,-1,"Trad, Alpine",5.11-,1,80,38.78568,-110.4966
"A Bit Wide","Twighlight Canyon > Dangling Rope Area > Lake Powell > Glen Canyon > South Central Utah > Utah",https://www.mountainproject.com/route/106382428/a-bit-wide,3.0,-1,Trad,5.11-,1,80,37.13172,-110.96045
Whizisky,"Lower San Juan > San Juan Arm > Lake Powell > Glen Canyon > South Central Utah > Utah",https://www.mountainproject.com/route/106382391/whizisky,3.0,-1,Trad,5.11-,1,60,37.17389,-110.80618
Ki'yami,"Yathamo Wall > Redmond Rocks > Central Utah > Utah",https://www.mountainproject.com/route/114478115/kiyami,3.0,-1,TR,5.11-,1,42,39.02681,-111.7796
"Big Fat Friend","Suburbia > Indian Creek > Southeast Utah > Utah",https://www.mountainproject.com/route/107517049/big-fat-friend,3.0,-1,Trad,5.11-,1,90,38.18816,-109.61034
"U Name It","Alcove Right > Little Valley > Southeast Utah > Utah",https://www.mountainproject.com/route/112568973/u-name-it,2.5,-1,Trad,5.11-,1,120,38.62754,-109.6732
"Virgin Hanger","Sentinel > Zion National Park > Southwest Utah > Utah",https://www.mountainproject.com/route/106409118/virgin-hanger,3.0,-1,Trad,5.11-,1,65,37.23131,-112.98085
"Three Decades Down","The Putterman Residence > Valley of the Gods > Southeast Utah > Utah",https://www.mountainproject.com/route/110118108/three-decades-down,3.0,-1,Trad,5.11-,2,180,37.29881,-109.8554
"Palm Sunday","Kane Springs Campground > Kane Springs Canyon > Southeast Utah > Utah",https://www.mountainproject.com/route/110271158/palm-sunday,3.0,-1,Trad,5.11-,1,95,38.52014,-109.60264
"Song of the Canyon Wren","Dry Fork of Bull Canyon > Little Valley > Southeast Utah > Utah",https://www.mountainproject.com/route/107910109/song-of-the-canyon-wren,3.0,-1,Trad,5.11-,2,110,38.61827,-109.67517
"Free Range","The Hen House > Valley of the Gods > Southeast Utah > Utah",https://www.mountainproject.com/route/110133766/free-range,3.0,-1,Trad,5.11-,2,190,37.30232,-109.82959
Sacrilicious,"Church Rock > Indian Creek > Southeast Utah > Utah",https://www.mountainproject.com/route/106052506/sacrilicious,3.0,-1,Trad,5.11-,1,130,38.0736,-109.3454
Succubus,"Mile Marker 5 > River Road > Southeast Utah > Utah",https://www.mountainproject.com/route/106342982/succubus,3.0,-1,"Trad, Aid","5.11- C1",3,350,38.6268,-109.5058
"Sun Dawg","Vitamin D Wall > Indian Creek > Southeast Utah > Utah",https://www.mountainproject.com/route/107766941/sun-dawg,3.0,-1,Trad,5.11-,1,100,37.9897,-109.6245
"Team 500","O Crags (Three Finger Canyon) > Eastern Reef Area.. AKA The Sandstone Alps > San Rafael Swell - South > San Rafael Swell > South Central Utah > Utah",https://www.mountainproject.com/route/106897429/team-500,3.0,-1,Trad,5.11-,3,300,38.85834,-110.46595
444,"New Sub-Area 1 > Friction Slab > Entrance Corridor > Indian Creek > Southeast Utah > Utah",https://www.mountainproject.com/route/123276342/444,3.0,-1,Trad,5.11-,1,80,38.0258,-109.54
Turbinado,"Bioturbation Wall > Indian Creek > Southeast Utah > Utah",https://www.mountainproject.com/route/123514366/turbinado,3.0,-1,Trad,5.11-,1,70,38.03398,-109.57738
"As you wish","Cliffs of Insanity > Indian Creek > Southeast Utah > Utah",https://www.mountainproject.com/route/106849964/as-you-wish,2.3,-1,Trad,5.11-,1,50,38.15145,-109.59834
Mezzanine,"The Keel > Little Cottonwood Canyon > Central Wasatch > Wasatch Range > Utah",https://www.mountainproject.com/route/106459933/mezzanine,2.4,-1,Sport,5.11-,1,100,40.57377,-111.77007
"Stardust Cowboy","Castleton Tower > Castle Valley > Southeast Utah > Utah",https://www.mountainproject.com/route/106403449/stardust-cowboy,2.6,-1,Trad,5.11-,3,400,38.651,-109.3678
"Unknown Finger Crack","Trick or Treat Wall > Indian Creek > Southeast Utah > Utah",https://www.mountainproject.com/route/121530716/unknown-finger-crack,2.8,-1,Trad,5.11-,1,30,38.05109,-109.56195
Novacaine,"Broken Tooth > Indian Creek > Southeast Utah > Utah",https://www.mountainproject.com/route/110419542/novacaine,2.8,-1,Trad,5.11-,1,70,38.10072,-109.56618
Mono,"Technicolor Wall > Indian Creek > Southeast Utah > Utah",https://www.mountainproject.com/route/106789820/mono,2.1,-1,Trad,5.11-,1,50,38.05715,-109.58647
"Butcher's Dog","2nd Meat Wall > Indian Creek > Southeast Utah > Utah",https://www.mountainproject.com/route/112314126/butchers-dog,2.8,-1,Trad,5.11-,1,150,38.1302,-109.5862
"Weapons Grade","Little Valley Routes > Little Valley > Southeast Utah > Utah",https://www.mountainproject.com/route/106068301/weapons-grade,2.8,-1,Trad,5.11-,1,65,38.61827,-109.67517
"Fairy Dust","Cliffs of Insanity > Indian Creek > Southeast Utah > Utah",https://www.mountainproject.com/route/107619457/fairy-dust,2.6,-1,Trad,5.11-,1,70,38.15145,-109.59834
"Workin' Man","Sabbatical Wall > Indian Creek > Southeast Utah > Utah",https://www.mountainproject.com/route/111882762/workin-man,2.5,-1,Trad,5.11-,1,85,38.02086,-109.58064
"Fallout Zone","Sinbad Wall aka Nuclear Wall > Indian Creek > Southeast Utah > Utah",https://www.mountainproject.com/route/122145876/fallout-zone,2.8,-1,Trad,5.11-,1,50,38.04694,-109.55072
"Stumpy Hornet","Petrified Hornet Wall > Indian Creek > Southeast Utah > Utah",https://www.mountainproject.com/route/106917380/stumpy-hornet,2.4,-1,Trad,5.11-,1,40,38.07259,-109.59057
"Say Your Name!","Disappointment Cliffs > Indian Creek > Southeast Utah > Utah",https://www.mountainproject.com/route/114224440/say-your-name,2.7,-1,Trad,5.11-,1,80,38.11634,-109.59215
Shizznit,"Coal Pit Buttress > Little Cottonwood Canyon > Central Wasatch > Wasatch Range > Utah",https://www.mountainproject.com/route/105741836/shizznit,2.3,-1,Trad,5.11-,1,70,40.5685,-111.73617
C.P.O.D.,"Coffin Buttress > Little Cottonwood Canyon > Central Wasatch > Wasatch Range > Utah",https://www.mountainproject.com/route/106554559/cpod,2.3,-1,Trad,5.11-,1,50,40.57418,-111.77065
"Trouser Snake","The Gash > Indian Creek > Southeast Utah > Utah",https://www.mountainproject.com/route/108255841/trouser-snake,2.7,-1,"Sport, Aid","5.11- C0",1,25,38.0521,-109.5961
"Sleeve of Wizard","Donnelly Canyon > Indian Creek > Southeast Utah > Utah",https://www.mountainproject.com/route/107940402/sleeve-of-wizard,2.4,-1,Trad,5.11-,1,105,38.0398,-109.5436
"Unnamed 5.11-","Blue Gramma Cliff > Indian Creek > Southeast Utah > Utah",https://www.mountainproject.com/route/116094523/unnamed-511,2.4,-1,"Trad, TR","5.11- PG13",1,80,38.02641,-109.5388
"Chalking Up Rails","Bioturbation Wall > Indian Creek > Southeast Utah > Utah",https://www.mountainproject.com/route/108206179/chalking-up-rails,2.4,-1,Trad,5.11-,1,50,38.03398,-109.57738
Quarantine,"Pandemic Wall > Upper Buckhorn > Buckhorn Wash > San Rafael Swell - North > San Rafael Swell > South Central Utah > Utah",https://www.mountainproject.com/route/119908652/quarantine,2.5,-1,Sport,5.11-,1,45,39.15007,-110.71576
"Borrowed Time","Altered States Gully > Little Cottonwood Canyon > Central Wasatch > Wasatch Range > Utah",https://www.mountainproject.com/route/121493071/borrowed-time,2.5,-1,Trad,"5.11- R",2,150,40.57388,-111.75938
"Jan Has Plastic Boobs","Ibantik Lake > Uinta Mountains > Northeast Utah > Utah",https://www.mountainproject.com/route/117561466/jan-has-plastic-boobs,2.5,-1,"Trad, Alpine",5.11-,5,800,40.70975,-110.94969
"Cat Lips Kiss","Cat Wall > Indian Creek > Southeast Utah > Utah",https://www.mountainproject.com/route/121818124/cat-lips-kiss,2.5,-1,Trad,5.11-,1,100,38.09105,-109.56274
"Black Mamba","Peeler Face > Black Peeler Buttress > Little Cottonwood Canyon > Central Wasatch > Wasatch Range > Utah",https://www.mountainproject.com/route/113596373/black-mamba,2.5,-1,Trad,"5.11- PG13",3,250,40.5741,-111.7479
Rawhide,"Reservoir Wall > Indian Creek > Southeast Utah > Utah",https://www.mountainproject.com/route/121649329/rawhide,2.0,-1,Trad,5.11-,1,105,38.08284,-109.56274
"The Lowe Route","Mammoth Wall > Dry Canyon > Southern Wasatch > Wasatch Range > Utah",https://www.mountainproject.com/route/117807086/the-lowe-route,2.5,-1,Sport,5.11-,1,90,40.34579,-111.6723
"Midnight Intruder","Upper Muddy Creek > San Rafael Swell - South > San Rafael Swell > South Central Utah > Utah",https://www.mountainproject.com/route/118803026/midnight-intruder,2.5,-1,Trad,5.11-,2,200,38.68727,-111.00132
"Propeller Blades","The Air Strip > Jungle, on the Aquarius Plateau > South Central Utah > Utah",https://www.mountainproject.com/route/117654454/propeller-blades,2.5,-1,"Sport, Alpine",5.11-,1,50,37.77727,-111.8992
"Terra Incognita","Lower Jungle > Jungle, on the Aquarius Plateau > South Central Utah > Utah",https://www.mountainproject.com/route/121198774/terra-incognita,2.5,-1,"Sport, Alpine",5.11-,1,40,37.7503,-111.8708
"Basket Case","Bridger Jack Butte > The Bridger Jacks > Indian Creek > Southeast Utah > Utah",https://www.mountainproject.com/route/112864438/basket-case,2.5,-1,Trad,"5.11- PG13",3,400,38.08825,-109.60042
"Unnamed Wide Crack","Buttress Two (Bond Buttress) > Triple Buttress Area > Long Canyon > Potash Road > Southeast Utah > Utah",https://www.mountainproject.com/route/117962078/unnamed-wide-crack,2.5,-1,Trad,5.11-,1,,38.54503,-109.65515
Silverback,"Upper Jungle > Jungle, on the Aquarius Plateau > South Central Utah > Utah",https://www.mountainproject.com/route/108341477/silverback,2.5,-1,"Trad, Alpine",5.11-,1,80,37.7499,-111.8726
"Which One's Pink?","The Wall > Indian Creek > Southeast Utah > Utah",https://www.mountainproject.com/route/106177502/which-ones-pink,2.5,-1,Trad,5.11-,1,100,38.17139,-109.59666
"Whore House","The Convent > Castle Valley > Southeast Utah > Utah",https://www.mountainproject.com/route/111965060/whore-house,2.3,-1,Trad,5.11-,5,450,38.68393,-109.3866
"Bad Bolt","Campsite East > Hermit Canyon > Marjum Canyon > House Range > West Desert > Utah",https://www.mountainproject.com/route/112938654/bad-bolt,2.2,-1,Sport,5.11-,1,50,39.24622,-113.40313
"Carlito's Way","Scarface > Indian Creek > Southeast Utah > Utah",https://www.mountainproject.com/route/108671651/carlitos-way,2.3,-1,Trad,5.11-,1,120,38.06928,-109.55004
"EZE aka EZ as your mother","Slug Wall > Indian Creek > Southeast Utah > Utah",https://www.mountainproject.com/route/117994076/eze-aka-ez-as-your-mother,2.2,-1,Trad,5.11-,1,140,38.09271,-109.54931
"Keg Stand","Keg Spring Canyon > Labyrinth Canyon > Southeast Utah > Utah",https://www.mountainproject.com/route/119477545/keg-stand,2.3,-1,Trad,5.11-,1,60,38.64505,-110.05927
69th,"Shangri La > Jungle, on the Aquarius Plateau > South Central Utah > Utah",https://www.mountainproject.com/route/116656552/69th,2.3,-1,"Trad, Alpine",5.11-,1,40,37.77957,-111.90183
"The Emperor's March","The Penguin > Big Cottonwood Canyon > Central Wasatch > Wasatch Range > Utah",https://www.mountainproject.com/route/109471709/the-emperors-march,2.2,-1,Sport,5.11-,1,70,40.63608,-111.7316
"Doggie Go","Cat Wall > Indian Creek > Southeast Utah > Utah",https://www.mountainproject.com/route/106801968/doggie-go,2.3,-1,Trad,5.11-,1,70,38.09105,-109.56274
"Done and Dusted","Great White Icicle Area > Little Cottonwood Canyon > Central Wasatch > Wasatch Range > Utah",https://www.mountainproject.com/route/107814030/done-and-dusted,2.2,-1,Trad,5.11-,1,100,40.56883,-111.74168
"The Migraine","Headache Area > Mount Carmel Tunnel > Zion National Park > Southwest Utah > Utah",https://www.mountainproject.com/route/106711052/the-migraine,1.9,-1,Trad,5.11-,1,80,37.21139,-112.95855
Whiskers,"Cat Wall > Indian Creek > Southeast Utah > Utah",https://www.mountainproject.com/route/117971691/whiskers,2.0,-1,Trad,5.11-,1,80,38.09105,-109.56274
Patience,"Public Service Wall > Indian Creek > Southeast Utah > Utah",https://www.mountainproject.com/route/111051933/patience,2.0,-1,Trad,5.11-,1,60,38.10607,-109.57104
"The Line King","Cat Wall > Indian Creek > Southeast Utah > Utah",https://www.mountainproject.com/route/105887368/the-line-king,2.0,-1,Trad,5.11-,1,90,38.09105,-109.56274
"Bella's Neck Bite","Trick or Treat Wall > Indian Creek > Southeast Utah > Utah",https://www.mountainproject.com/route/120436692/bellas-neck-bite,2.0,-1,Trad,5.11-,1,60,38.05109,-109.56195
Uncut,"Critic's Choice > Indian Creek > Southeast Utah > Utah",https://www.mountainproject.com/route/113924783/uncut,2.0,-1,Trad,5.11-,1,,38.03075,-109.60173
"Happy House","Banshee Wall > Jungle, on the Aquarius Plateau > South Central Utah > Utah",https://www.mountainproject.com/route/110985456/happy-house,2.0,-1,"Sport, Alpine",5.11-,1,30,37.76645,-111.88602
Scimitar,"Easy Wind Buttress > Lower Buckhorn > Buckhorn Wash > San Rafael Swell - North > San Rafael Swell > South Central Utah > Utah",https://www.mountainproject.com/route/119774656/scimitar,2.0,-1,Trad,5.11-,1,50,39.11881,-110.68775
"Casual n' Kind","Memorial Day Buttress > Little Cottonwood Canyon > Central Wasatch > Wasatch Range > Utah",https://www.mountainproject.com/route/112102368/casual-n-kind,2.0,-1,Trad,5.11-,4,450,40.5757,-111.7713
"Edge of Night","Twilight Buttress > Big Willow Canyon > Central Wasatch > Wasatch Range > Utah",https://www.mountainproject.com/route/114588098/edge-of-night,2.0,-1,"Trad, TR",5.11-,1,80,40.53601,-111.80204
MCL,"Shady Crag > Long Canyon > Potash Road > Southeast Utah > Utah",https://www.mountainproject.com/route/116762850/mcl,2.0,-1,Trad,5.11-,2,160,38.54511,-109.65489
"Git You Some","3. Hammer Wall > Buckskin Gulch > Grand Staircase > South Central Utah > Utah",https://www.mountainproject.com/route/116820816/git-you-some,2.0,-1,"Sport, TR",5.11-,1,60,37.07653,-112.00362
"Mogul Emperor","Attila's Thumb > Lockhart Basin > Southeast Utah > Utah",https://www.mountainproject.com/route/106596236/mogul-emperor,2.0,-1,Trad,"5.11- PG13",3,330,38.39574,-109.71081
"Terminal Fistula","Broken Tooth > Indian Creek > Southeast Utah > Utah",https://www.mountainproject.com/route/107908788/terminal-fistula,2.0,-1,Trad,5.11-,1,100,38.10072,-109.56618
Sting,"The Stitches Wall > Millcreek Canyon > Central Wasatch > Wasatch Range > Utah",https://www.mountainproject.com/route/111604606/sting,2.0,-1,Sport,5.11-,1,35,40.6934,-111.75798
"Southwest Face Left","Southwest Face > Notch Peak > House Range > West Desert > Utah",https://www.mountainproject.com/route/114393078/southwest-face-left,2.0,-1,Trad,"5.11- R",8,1350,39.14329,-113.40998
"Kent's Finger Crack","Kent's Hand Crack > Lower Buckhorn > Buckhorn Wash > San Rafael Swell - North > San Rafael Swell > South Central Utah > Utah",https://www.mountainproject.com/route/122222800/kents-finger-crack,2.0,-1,Trad,5.11-,2,220,39.09553,-110.66597
"OW Dude","Broken Tooth > Indian Creek > Southeast Utah > Utah",https://www.mountainproject.com/route/120006643/ow-dude,2.0,-1,Trad,5.11-,1,110,38.10072,-109.56618
"Big Neon Splitter","Fruita Environs > Fruita Area > Capitol Reef > South Central Utah > Utah",https://www.mountainproject.com/route/117625588/big-neon-splitter,2.0,-1,Trad,5.11-,1,70,38.28878,-111.23736
"Send in the Uruk-Hai","Hidden Fortress > Big Cottonwood Canyon > Central Wasatch > Wasatch Range > Utah",https://www.mountainproject.com/route/121177782/send-in-the-uruk-hai,2.0,-1,Trad,5.11-,2,135,40.6181,-111.74409
"Kiwi Corner","Buxxcrack Buttress > Lower Buckhorn > Buckhorn Wash > San Rafael Swell - North > San Rafael Swell > South Central Utah > Utah",https://www.mountainproject.com/route/122190364/kiwi-corner,2.0,-1,Trad,5.11-,1,100,39.10536,-110.67013
"Beaked Whale","Green Adjective Gully > Little Cottonwood Canyon > Central Wasatch > Wasatch Range > Utah",https://www.mountainproject.com/route/106596346/beaked-whale,2.0,-1,Trad,5.11-,4,225,40.5741,-111.7543
"Insane in the Membrane","Cliffs of Insanity > Indian Creek > Southeast Utah > Utah",https://www.mountainproject.com/route/117961104/insane-in-the-membrane,2.0,-1,Trad,5.11-,1,50,38.15145,-109.59834
"Desert Techno","Ibextopia > Ibex > West Desert > Utah",https://www.mountainproject.com/route/118161863/desert-techno,2.0,-1,Sport,5.11-,1,,38.97469,-113.38981
Tetni,"Ibextopia > Ibex > West Desert > Utah",https://www.mountainproject.com/route/118161888/tetni,2.0,-1,Sport,5.11-,1,,38.97469,-113.38981
Horsefly,"Petrified Hornet Wall > Indian Creek > Southeast Utah > Utah",https://www.mountainproject.com/route/114392360/horsefly,2.0,-1,Trad,5.11-,1,100,38.07259,-109.59057
"Pass It Over Here","Hideout Wall > La Sal Mountains > Southeast Utah > Utah",https://www.mountainproject.com/route/118164866/pass-it-over-here,2.0,-1,Trad,5.11-,1,65,38.68715,-109.18336
"Grandma, Pick Up the Phone!","The Rest Home > Cedar Canyon > Cedar City > Southwest Utah > Utah",https://www.mountainproject.com/route/115368396/grandma-pick-up-the-phone,2.0,-1,Sport,5.11-,1,60,37.6245,-112.93198
"Fools Paradise","April Fools Wall > Lower Buckhorn > Buckhorn Wash > San Rafael Swell - North > San Rafael Swell > South Central Utah > Utah",https://www.mountainproject.com/route/107501879/fools-paradise,2.0,-1,"Trad, Aid","5.11- C1",4,,39.0951,-110.66093
"Thin Slice","1st Meat Wall > Indian Creek > Southeast Utah > Utah",https://www.mountainproject.com/route/113855363/thin-slice,2.0,-1,Trad,5.11-,1,50,38.12499,-109.5956
"Dick Cheese Ball Cheney","Devil's Castle > Albion Basin > Little Cottonwood Canyon > Central Wasatch > Wasatch Range > Utah",https://www.mountainproject.com/route/106023996/dick-cheese-ball-cheney,2.0,-1,"Sport, Alpine",5.11-,1,55,40.56562,-111.61357
"Jumping Shark","Disappointment Cliffs > Indian Creek > Southeast Utah > Utah",https://www.mountainproject.com/route/113855340/jumping-shark,2.0,-1,Trad,5.11-,1,70,38.11634,-109.59215
"Risky Business","North Side > Aerial Wall > Garth Rocks > Saint George > Southwest Utah > Utah",https://www.mountainproject.com/route/113940334/risky-business,2.0,-1,"Sport, TR","5.11- PG13",1,40,37.04746,-113.51275
"Lord Mandrake","Freezer Buttress > Freeze Creek > Emigration Canyon > Central Wasatch > Wasatch Range > Utah",https://www.mountainproject.com/route/111602803/lord-mandrake,2.0,-1,Sport,5.11-,1,40,40.79668,-111.74287
"Dust Lung","Sabbatical Wall > Indian Creek > Southeast Utah > Utah",https://www.mountainproject.com/route/109346087/dust-lung,2.0,-1,Trad,5.11-,1,130,38.02086,-109.58064
"Navajo Route","Anasazi Buttress > River Road > Southeast Utah > Utah",https://www.mountainproject.com/route/106361266/navajo-route,2.0,-1,Trad,5.11-,2,300,38.60855,-109.53608
"Tom Thumb","Sparks Wall > Indian Creek > Southeast Utah > Utah",https://www.mountainproject.com/route/106614244/tom-thumb,2.0,-1,Trad,5.11-,1,50,38.04022,-109.59149
"Beauty and the Beast","Moon Lake > Vernal Area > Northeast Utah > Utah",https://www.mountainproject.com/route/110773531/beauty-and-the-beast,2.0,-1,Trad,5.11-,1,80,40.58797,-110.51612
"Demise of the Roaring Twenties","The Putterman Residence > Valley of the Gods > Southeast Utah > Utah",https://www.mountainproject.com/route/110115251/demise-of-the-roaring-twenties,2.0,-1,Trad,5.11-,2,140,37.29881,-109.8554
Trenchfoot,"East Face > Quartermoon Tower > Ibex > West Desert > Utah",https://www.mountainproject.com/route/106764234/trenchfoot,2.0,-1,Trad,5.11-,1,50,38.9906,-113.3896
"The Drop Zone","Taylor's Corner Area > The Schoolroom > Ogden > Northern Wasatch > Wasatch Range > Utah",https://www.mountainproject.com/route/106989388/the-drop-zone,2.0,-1,Trad,"5.11- R",2,120,41.2217,-111.9236
"The $70 Commitment","Team Serious Wall > Little Cottonwood Canyon > Central Wasatch > Wasatch Range > Utah",https://www.mountainproject.com/route/106252914/the-70-commitment,2.0,-1,Trad,5.11-,1,60,40.5727,-111.777
"Space Walker","Mars > Potash Road > Southeast Utah > Utah",https://www.mountainproject.com/route/123305321/space-walker,2.0,-1,Sport,5.11-,1,80,38.5714,-109.5815
Schism,"The Wall > Indian Creek > Southeast Utah > Utah",https://www.mountainproject.com/route/123410345/schism,2.0,-1,Trad,5.11-,1,70,38.17139,-109.59666
"Be True!","The Theater > Take-Out Beach > River Road > Southeast Utah > Utah",https://www.mountainproject.com/route/120424723/be-true,2.2,-1,Sport,5.11-,1,60,38.66113,-109.4994
"Caca de Fuego","Habitado > Indian Creek > Southeast Utah > Utah",https://www.mountainproject.com/route/120388881/caca-de-fuego,2.0,-1,Trad,5.11-,1,45,38.04004,-109.53368
"Victim Mentality","Hey Joe Canyon > Labyrinth Canyon > Southeast Utah > Utah",https://www.mountainproject.com/route/123691518/victim-mentality,4.0,-1,Trad,5.11-,1,60,38.6401,-110.04313
"Dust Devil","Bluff Street Cracks > Saint George > Southwest Utah > Utah",https://www.mountainproject.com/route/123787628/dust-devil,3.5,-1,Trad,"5.11- R",1,55,37.1215,-113.5932
"Heartbeat City","Scarface > Indian Creek > Southeast Utah > Utah",https://www.mountainproject.com/route/124018358/heartbeat-city,3.0,-1,Trad,5.11-,1,120,38.06928,-109.55004
Binx,"Trick or Treat Wall > Indian Creek > Southeast Utah > Utah",https://www.mountainproject.com/route/124122883/binx,2.7,-1,Trad,5.11-,1,30,38.05109,-109.56195
"Double Vision","The Membrane > American Fork Canyon > Southern Wasatch > Wasatch Range > Utah",https://www.mountainproject.com/route/124282294/double-vision,2.5,-1,Sport,5.11-,1,35,40.44666,-111.68668
Unknown,"Prickly Pear > Indian Creek > Southeast Utah > Utah",https://www.mountainproject.com/route/124370625/unknown,2.0,-1,Trad,5.11-,1,35,38.02633,-109.54492
73,"Shattered Sea > Jungle, on the Aquarius Plateau > South Central Utah > Utah",https://www.mountainproject.com/route/124427779/73,3.0,-1,"Sport, Alpine",5.11-,1,60,37.7613,-111.89991
Kiloton,"Shattered Sea > Jungle, on the Aquarius Plateau > South Central Utah > Utah",https://www.mountainproject.com/route/124435750/kiloton,4.0,-1,"Sport, Alpine",5.11-,1,40,37.7613,-111.89991
"mystery achievement","Shattered Sea > Jungle, on the Aquarius Plateau > South Central Utah > Utah",https://www.mountainproject.com/route/124436121/mystery-achievement,3.0,-1,"Sport, Alpine",5.11-,1,40,37.7613,-111.89991
"Paradise Circus","Shattered Sea > Jungle, on the Aquarius Plateau > South Central Utah > Utah",https://www.mountainproject.com/route/124493570/paradise-circus,3.0,-1,"Sport, Alpine",5.11-,1,50,37.7613,-111.89991
"Bidness Man","Unemployment wall > Pine Valley > Saint George > Southwest Utah > Utah",https://www.mountainproject.com/route/124768883/bidness-man,3.0,-1,Trad,5.11-,1,50,37.40653,-113.53788
"Unnamed 5.11- Right of Horse Crack","Trick or Treat Wall > Indian Creek > Southeast Utah > Utah",https://www.mountainproject.com/route/125121152/unnamed-511-right-of-horse-crack,2.5,-1,Trad,5.11-,1,30,38.05109,-109.56195
"Flying Spaghetti Monster","Spaghetti Western Wall > Mexican Mountain Road Area > San Rafael Swell - North > San Rafael Swell > South Central Utah > Utah",https://www.mountainproject.com/route/125217858/flying-spaghetti-monster,3.0,-1,Trad,5.11-,1,75,39.06265,-110.60002
