Route,Location,URL,"Avg Stars","Your Stars","Route Type",Rating,Pitches,Length,"Area Latitude","Area Longitude"
"Brinton's Crack","07: Brinton's Buttress > East Bluff 04 - East Rampart > Devil's Lake > Baraboo Range > Wisconsin",https://www.mountainproject.com/route/105730484/brintons-crack,3.7,-1,Trad,5.6,1,80,43.41359,-89.71303
Air,"04. Air Spire > Necedah (Petenwell Rock) > Central > Wisconsin",https://www.mountainproject.com/route/105993472/air,3.6,-1,Trad,5.6,1,95,44.04467,-90.01972
"Lost Face","05: Lost Face Area > 1: Prospect Point Rampart > West Bluff 05 - West Rampart > Devil's Lake > Baraboo Range > Wisconsin",https://www.mountainproject.com/route/105730553/lost-face,3.5,-1,"Trad, TR",5.6,1,100,43.42052,-89.73831
"Pine Tree Step-Across","7.1.1 - Railroad Amphitheater > East Bluff 07 - Railroad Tracks > Devil's Lake > Baraboo Range > Wisconsin",https://www.mountainproject.com/route/105730229/pine-tree-step-across,3.4,-1,"Trad, TR","5.6 R",1,,43.41812,-89.72723
"Coatimundi Crack","11: Bill's Buttress > East Bluff 04 - East Rampart > Devil's Lake > Baraboo Range > Wisconsin",https://www.mountainproject.com/route/105730682/coatimundi-crack,3.1,-1,"Trad, TR",5.6,1,125,43.41366,-89.71414
"King's Throne","The Cleo Amphitheater > West Bluff 03 - Cleo Amphitheater > Devil's Lake > Baraboo Range > Wisconsin",https://www.mountainproject.com/route/105730331/kings-throne,3.1,-1,"Trad, TR",5.6,1,,43.41738,-89.73856
Berkeley,"07: Brinton's Buttress > East Bluff 04 - East Rampart > Devil's Lake > Baraboo Range > Wisconsin",https://www.mountainproject.com/route/105898019/berkeley,3.0,-1,"Trad, TR",5.6,1,60,43.41359,-89.71303
"Full Stop","08: Two Pines Buttress > East Bluff 04 - East Rampart > Devil's Lake > Baraboo Range > Wisconsin",https://www.mountainproject.com/route/105730802/full-stop,2.8,-1,"Trad, TR",5.6,1,70,43.41367,-89.7134
"PushMi, Pull-Yu","11: Bill's Buttress > East Bluff 04 - East Rampart > Devil's Lake > Baraboo Range > Wisconsin",https://www.mountainproject.com/route/105730538/pushmi-pull-yu,2.7,-1,"Trad, TR",5.6,1,100,43.41366,-89.71414
"Cracking Up","15: Pseudo Hawk's Nest > East Bluff 04 - East Rampart > Devil's Lake > Baraboo Range > Wisconsin",https://www.mountainproject.com/route/105730883/cracking-up,2.7,-1,"Trad, TR",5.6,1,70,43.41353,-89.71515
"Phallus in Wonderland","04. Air Spire > Necedah (Petenwell Rock) > Central > Wisconsin",https://www.mountainproject.com/route/106452194/phallus-in-wonderland,3.2,-1,Trad,5.6,2,100,44.04467,-90.01972
"Angel's Crack","Upper Major Mass & Jungle Gym Tower > 5.3 - Doorway Rocks - Major Mass > East Bluff 05 - Potholes Area > Devil's Lake > Baraboo Range > Wisconsin",https://www.mountainproject.com/route/105730250/angels-crack,3.2,-1,"Trad, TR",5.6,1,,43.41403,-89.71997
"The Great Crack","Great Tower > West Bluff 04 - Great Tower Area > Devil's Lake > Baraboo Range > Wisconsin",https://www.mountainproject.com/route/105730751/the-great-crack,3.3,-1,"Trad, TR",5.6,1,,43.41896,-89.73749
"Bucket Brigade","17: Hawk's Nest > East Bluff 04 - East Rampart > Devil's Lake > Baraboo Range > Wisconsin",https://www.mountainproject.com/route/105731153/bucket-brigade,2.9,-1,Trad,5.6,1,100,43.41353,-89.7158
"Jacob's Ladder","6. Porkchop Buttress > West Bluff 02 - Misery Rocks & The Pantry > Devil's Lake > Baraboo Range > Wisconsin",https://www.mountainproject.com/route/105730565/jacobs-ladder,2.5,-1,"Trad, TR",5.6,1,50,43.41671,-89.73827
"The Pretzel","15: Pseudo Hawk's Nest > East Bluff 04 - East Rampart > Devil's Lake > Baraboo Range > Wisconsin",https://www.mountainproject.com/route/105730874/the-pretzel,2.4,-1,"Trad, TR",5.6,1,50,43.41353,-89.71515
"Mr Canoehead","03. 303 Spire (aka Canoehead Spire) > Necedah (Petenwell Rock) > Central > Wisconsin",https://www.mountainproject.com/route/106794908/mr-canoehead,2.6,-1,Trad,5.6,1,45,44.0444,-90.01961
"Red Pulpit","2.  Balanced Rock Wall > East Bluff 06 - Balanced Rock > Devil's Lake > Baraboo Range > Wisconsin",https://www.mountainproject.com/route/105730247/red-pulpit,2.3,-1,"Trad, TR",5.6,1,50,43.41436,-89.72501
"Cleo's Needle Southwest Dihedral","Cleopatra's Needle > West Bluff 03 - Cleo Amphitheater > Devil's Lake > Baraboo Range > Wisconsin",https://www.mountainproject.com/route/106206353/cleos-needle-southwest-dihedral,3.0,-1,Trad,5.6,1,60,43.4173,-89.73846
"The Pillow","1. Misery Rocks > West Bluff 02 - Misery Rocks & The Pantry > Devil's Lake > Baraboo Range > Wisconsin",https://www.mountainproject.com/route/105730559/the-pillow,2.3,-1,"Trad, TR",5.6,1,,43.41643,-89.73902
"User Friendly (aka Foreplay)","01. Coyote Tower > Necedah (Petenwell Rock) > Central > Wisconsin",https://www.mountainproject.com/route/105987404/user-friendly-aka-foreplay,2.0,-1,Trad,5.6,1,55,44.04411,-90.01938
Schizophrenia,"08: Two Pines Buttress > East Bluff 04 - East Rampart > Devil's Lake > Baraboo Range > Wisconsin",https://www.mountainproject.com/route/106750750/schizophrenia,2.4,-1,"Trad, TR",5.6,1,65,43.41367,-89.7134
"The Pillar","7.1.1 - Railroad Amphitheater > East Bluff 07 - Railroad Tracks > Devil's Lake > Baraboo Range > Wisconsin",https://www.mountainproject.com/route/105730361/the-pillar,2.5,-1,"Trad, TR",5.6,1,,43.41812,-89.72723
"Lost Temple Corner","Lost Temple > East Bluff 03 - West of the Quarry > Devil's Lake > Baraboo Range > Wisconsin",https://www.mountainproject.com/route/106609365/lost-temple-corner,3.7,-1,"Trad, TR",5.6,1,50,43.4124,-89.7048
Zig-Zag,"04: D'Arcy's Buttress > East Bluff 04 - East Rampart > Devil's Lake > Baraboo Range > Wisconsin",https://www.mountainproject.com/route/106264906/zig-zag,2.1,-1,Trad,5.6,1,35,43.41361,-89.71224
"5.6 dihedral","Hillbilly Routes > Hillbilly Hollow > Central > Wisconsin",https://www.mountainproject.com/route/105863453/56-dihedral,2.4,-1,"Trad, TR",5.6,1,40,43.9763,-89.5005
"Lloyd's Lament","Wisconsin Strip > Interstate Park > Northwest > Wisconsin",https://www.mountainproject.com/route/105794833/lloyds-lament,2.1,-1,"Trad, TR",5.6,1,,45.39976,-92.64984
Escalation,"11: Bill's Buttress > East Bluff 04 - East Rampart > Devil's Lake > Baraboo Range > Wisconsin",https://www.mountainproject.com/route/105730685/escalation,2.4,-1,"Trad, TR",5.6,1,100,43.41366,-89.71414
"Sewing Machine","09: Many Pines Buttress > East Bluff 04 - East Rampart > Devil's Lake > Baraboo Range > Wisconsin",https://www.mountainproject.com/route/106818838/sewing-machine,2.7,-1,"Trad, TR",5.6,1,50,43.4137,-89.71365
Levitation,"02: The Guillotine > East Bluff 04 - East Rampart > Devil's Lake > Baraboo Range > Wisconsin",https://www.mountainproject.com/route/107151971/levitation,2.6,-1,Trad,5.6,1,40,43.41329,-89.71166
"Mrs Canoehead","03. 303 Spire (aka Canoehead Spire) > Necedah (Petenwell Rock) > Central > Wisconsin",https://www.mountainproject.com/route/106794913/mrs-canoehead,2.5,-1,Trad,5.6,1,40,44.0444,-90.01961
"Solo Crack (aka Pancake Crack)","10. Above Anthrax > Necedah (Petenwell Rock) > Central > Wisconsin",https://www.mountainproject.com/route/106741712/solo-crack-aka-pancake-crack,2.5,-1,"Trad, TR",5.6,1,35,44.046,-90.02047
"North Side","2: Reclining Tower > West Bluff 05 - West Rampart > Devil's Lake > Baraboo Range > Wisconsin",https://www.mountainproject.com/route/106006834/north-side,2.9,-1,"Trad, TR",5.6,1,60,43.42093,-89.73788
"Anarchist Crack","5. Anarchist (Guillotine) > 07. East of CCC (Guillotine Ridge) > East Bluff South Face > East Bluff > Devil's Lake Bouldering > Devil's Lake > Baraboo Range > Wisconsin",https://www.mountainproject.com/route/107566472/anarchist-crack,3.1,-1,"Trad, Boulder","5.6 V0",1,25,43.41325,-89.71177
"Pigeon Roof","5.4 - Doorway Rocks - Minor Mass > East Bluff 05 - Potholes Area > Devil's Lake > Baraboo Range > Wisconsin",https://www.mountainproject.com/route/105730286/pigeon-roof,3.1,-1,"Trad, TR",5.6,1,,43.41411,-89.71906
"Cedar Tree Wall","Upper Major Mass & Jungle Gym Tower > 5.3 - Doorway Rocks - Major Mass > East Bluff 05 - Potholes Area > Devil's Lake > Baraboo Range > Wisconsin",https://www.mountainproject.com/route/105730535/cedar-tree-wall,2.5,-1,"Trad, TR",5.6,1,,43.41403,-89.71997
"The Pentaverate","Full Park Link-Ups > Linkups, Contrivances, Oddities and Triflings > Devil's Lake > Baraboo Range > Wisconsin",https://www.mountainproject.com/route/113595599/the-pentaverate,3.3,-1,Trad,5.6,20,1200,43.41452,-89.73115
"Puff N' Grunt Chimney","07: Brinton's Buttress > East Bluff 04 - East Rampart > Devil's Lake > Baraboo Range > Wisconsin",https://www.mountainproject.com/route/107650102/puff-n-grunt-chimney,2.1,-1,Trad,5.6,1,65,43.41359,-89.71303
"Jam Crack","3. Box Canyon > East Bluff 06 - Balanced Rock > Devil's Lake > Baraboo Range > Wisconsin",https://www.mountainproject.com/route/108132465/jam-crack,2.1,-1,"Trad, TR",5.6,1,30,43.41433,-89.72492
"Chez's Chimney  variation","1. Old Sandstone > East Bluff 01 - Sandstone Area > Devil's Lake > Baraboo Range > Wisconsin",https://www.mountainproject.com/route/105991044/chezs-chimney-variation,2.4,-1,"Trad, TR",5.6,1,70,43.4137,-89.6863
"Chivalrous Arches","East Bluff Linkups > Linkups, Contrivances, Oddities and Triflings > Devil's Lake > Baraboo Range > Wisconsin",https://www.mountainproject.com/route/119938416/chivalrous-arches,3.0,-1,"Trad, TR",5.6,25,1600,43.41839,-89.73098
"Flake Fun","Hollywood and Vines > West Bluff 07 - North Woods > Devil's Lake > Baraboo Range > Wisconsin",https://www.mountainproject.com/route/113127159/flake-fun,3.0,-1,Trad,5.6,1,45,43.4269,-89.7367
"The Layback","02: The Guillotine > East Bluff 04 - East Rampart > Devil's Lake > Baraboo Range > Wisconsin",https://www.mountainproject.com/route/106346989/the-layback,2.5,-1,"Trad, TR",5.6,1,30,43.41329,-89.71166
"South Twin Ridge","Twin Ridge > West Bluff 06 - West Bluff Towers > Devil's Lake > Baraboo Range > Wisconsin",https://www.mountainproject.com/route/106902324/south-twin-ridge,3.0,-1,Trad,5.6,1,,43.42216,-89.73771
"Dirty 30 Tower","02: The Guillotine > East Bluff 04 - East Rampart > Devil's Lake > Baraboo Range > Wisconsin",https://www.mountainproject.com/route/116674599/dirty-30-tower,3.0,-1,Trad,5.6,1,35,43.41329,-89.71166
"Pitchfork Face","Pitchfork Tower > East Bluff 03 - West of the Quarry > Devil's Lake > Baraboo Range > Wisconsin",https://www.mountainproject.com/route/116247052/pitchfork-face,3.0,-1,"Trad, TR",5.6,1,20,43.4125,-89.7053
"Crows Nest","7.1.3 - The Turret > East Bluff 07 - Railroad Tracks > Devil's Lake > Baraboo Range > Wisconsin",https://www.mountainproject.com/route/112339869/crows-nest,3.0,-1,Trad,5.6,1,30,43.41803,-89.72679
"Annie's 8","Farewell To Arms Wall > East Bluff 03 - West of the Quarry > Devil's Lake > Baraboo Range > Wisconsin",https://www.mountainproject.com/route/112902047/annies-8,3.0,-1,"Trad, TR",5.6,1,40,43.41246,-89.70543
"That's it","Storm Wrack Wall > Steinke Basin > Devil's Lake Bouldering > Devil's Lake > Baraboo Range > Wisconsin",https://www.mountainproject.com/route/112358144/thats-it,3.0,-1,"Trad, TR",5.6,1,30,43.4294,-89.7228
"Northwest Crack/Arete","14: Leaning Tower > East Bluff 04 - East Rampart > Devil's Lake > Baraboo Range > Wisconsin",https://www.mountainproject.com/route/107239780/northwest-crackarete,2.2,-1,"Trad, TR",5.6,1,35,43.41368,-89.71486
"Creamy Caesar","01: Prospect Point Pinnacle > 1: Prospect Point Rampart > West Bluff 05 - West Rampart > Devil's Lake > Baraboo Range > Wisconsin",https://www.mountainproject.com/route/105730892/creamy-caesar,2.7,-1,"Trad, TR",5.6,1,70,43.41955,-89.73853
"Doodie Surprise","Pine Cliff (no climbing) > Cox Hollow > Governor Dodge State Park > South > Wisconsin",https://www.mountainproject.com/route/119154877/doodie-surprise,3.0,-1,TR,5.6,1,70,43.01005,-90.10726
"Parquet Quartz","Rickety Rib > 03. Near East > East Bluff 02 - East of the Quarry > Devil's Lake > Baraboo Range > Wisconsin",https://www.mountainproject.com/route/121817584/parquet-quartz,3.0,-1,"Trad, TR",5.6,1,55,43.41257,-89.69935
Quartzeriferous,"Rickety Rib > 03. Near East > East Bluff 02 - East of the Quarry > Devil's Lake > Baraboo Range > Wisconsin",https://www.mountainproject.com/route/121817462/quartzeriferous,3.0,-1,"Trad, TR",5.6,1,55,43.41257,-89.69935
"Vulture Committee","6. The Effie > East Bluff 06 - Balanced Rock > Devil's Lake > Baraboo Range > Wisconsin",https://www.mountainproject.com/route/113715792/vulture-committee,3.0,-1,Trad,5.6,1,35,43.4141,-89.7219
"Bloody Finger","5.2 - Devils Doorway > East Bluff 05 - Potholes Area > Devil's Lake > Baraboo Range > Wisconsin",https://www.mountainproject.com/route/106945620/bloody-finger,2.1,-1,Trad,5.6,1,25,43.41413,-89.7201
"Stettner's Overhang","Hammer Wall & The Keyhole > 5.3 - Doorway Rocks - Major Mass > East Bluff 05 - Potholes Area > Devil's Lake > Baraboo Range > Wisconsin",https://www.mountainproject.com/route/106507952/stettners-overhang,2.5,-1,"Trad, TR",5.6,1,40,43.41388,-89.71952
"Moss Man","04. Air Spire > Necedah (Petenwell Rock) > Central > Wisconsin",https://www.mountainproject.com/route/117356059/moss-man,2.3,-1,Trad,5.6,2,90,44.04467,-90.01972
"Special K","4. The Pantry > West Bluff 02 - Misery Rocks & The Pantry > Devil's Lake > Baraboo Range > Wisconsin",https://www.mountainproject.com/route/105730775/special-k,2.4,-1,"Trad, TR",5.6,1,70,43.41624,-89.73871
Jamboree,"09: Many Pines Buttress > East Bluff 04 - East Rampart > Devil's Lake > Baraboo Range > Wisconsin",https://www.mountainproject.com/route/106819162/jamboree,2.2,-1,"Trad, TR",5.6,1,50,43.4137,-89.71365
"The Ramp (a.k.a. ""The Slab"")","17: Hawk's Nest > East Bluff 04 - East Rampart > Devil's Lake > Baraboo Range > Wisconsin",https://www.mountainproject.com/route/106260429/the-ramp-aka-the-slab,2.1,-1,"Trad, TR",5.6,1,,43.41353,-89.7158
"Quarry Master","Quarry wall > Grandad Bluff > Central > Wisconsin",https://www.mountainproject.com/route/119813744/quarry-master,2.4,-1,Sport,5.6,1,50,43.81071,-91.20569
Sidewinder,"Kutcher's Bluff > Rattlesnake Mound > Central Sandstone > Central > Wisconsin",https://www.mountainproject.com/route/111125795/sidewinder,2.7,-1,"Trad, TR","5.6 PG13",1,35,43.87451,-89.83898
Budget,"U Haul Overhangs > 03. Near East > East Bluff 02 - East of the Quarry > Devil's Lake > Baraboo Range > Wisconsin",https://www.mountainproject.com/route/106914159/budget,2.5,-1,"Trad, TR",5.6,1,30,43.41254,-89.69703
Catalepsy,"13: Four Brothers > East Bluff 04 - East Rampart > Devil's Lake > Baraboo Range > Wisconsin",https://www.mountainproject.com/route/106010977/catalepsy,2.3,-1,"Trad, TR",5.6,1,45,43.41329,-89.71485
"Hammer Crack Variation","Hammer Wall & The Keyhole > 5.3 - Doorway Rocks - Major Mass > East Bluff 05 - Potholes Area > Devil's Lake > Baraboo Range > Wisconsin",https://www.mountainproject.com/route/109230670/hammer-crack-variation,2.3,-1,Trad,5.6,1,40,43.41388,-89.71952
"Belly Flop","Turk's Head > West Bluff 03 - Cleo Amphitheater > Devil's Lake > Baraboo Range > Wisconsin",https://www.mountainproject.com/route/107504975/belly-flop,2.3,-1,Trad,5.6,1,75,43.4176,-89.73802
"Little guy","02. Y-Crack Wall > Necedah (Petenwell Rock) > Central > Wisconsin",https://www.mountainproject.com/route/122625650/little-guy,2.8,-1,Trad,5.6,1,40,44.0442,-90.01954
"Rock Dove a.k.a. Picnic Crack Left","Picnic Area > Interstate Park > Northwest > Wisconsin",https://www.mountainproject.com/route/106171640/rock-dove-aka-picnic-crack-left,1.9,-1,Trad,5.6,1,40,45.39665,-92.65575
"Mr. Neutron","2.  Balanced Rock Wall > East Bluff 06 - Balanced Rock > Devil's Lake > Baraboo Range > Wisconsin",https://www.mountainproject.com/route/105730259/mr-neutron,2.0,-1,TR,5.6,1,,43.41436,-89.72501
"North Country Corner","North Slope > West Bluff 07 - North Woods > Devil's Lake > Baraboo Range > Wisconsin",https://www.mountainproject.com/route/113335862/north-country-corner,2.3,-1,"Trad, TR",5.6,1,60,43.4286,-89.7365
"Heavenly Mist","Pearly Gate > West Bluff 06 - West Bluff Towers > Devil's Lake > Baraboo Range > Wisconsin",https://www.mountainproject.com/route/113215729/heavenly-mist,2.3,-1,"Trad, TR",5.6,1,40,43.42501,-89.73733
"Close Call","09. Prayer Wall > East Bluff 02 - East of the Quarry > Devil's Lake > Baraboo Range > Wisconsin",https://www.mountainproject.com/route/107361878/close-call,2.3,-1,"Trad, TR","5.6 PG13",1,35,43.4131,-89.69329
Deception,"Poison Ivy Wall > East Bluff 03 - West of the Quarry > Devil's Lake > Baraboo Range > Wisconsin",https://www.mountainproject.com/route/112846775/deception,2.3,-1,"Trad, TR",5.6,1,40,43.4125,-89.7069
"West Siam","10. Siamese Buttress > East Bluff 02 - East of the Quarry > Devil's Lake > Baraboo Range > Wisconsin",https://www.mountainproject.com/route/106914043/west-siam,2.2,-1,"Trad, TR",5.6,1,60,43.41291,-89.69258
"Horner's Corner","7.2.1 - Birthday Rocks > East Bluff 07 - Railroad Tracks > Devil's Lake > Baraboo Range > Wisconsin",https://www.mountainproject.com/route/108261585/horners-corner,1.8,-1,"Trad, TR","5.6 PG13",1,,43.41722,-89.72695
Basket,"Picnic Wall > West Bluff 04 - Great Tower Area > Devil's Lake > Baraboo Range > Wisconsin",https://www.mountainproject.com/route/107789307/basket,2.0,-1,"Trad, TR",5.6,1,30,43.41906,-89.73772
"Clout Buster","05: Lost Face Area > 1: Prospect Point Rampart > West Bluff 05 - West Rampart > Devil's Lake > Baraboo Range > Wisconsin",https://www.mountainproject.com/route/105730526/clout-buster,1.9,-1,"Trad, TR",5.6,1,,43.42052,-89.73831
"Pseudo Ridge","East Bluff Linkups > Linkups, Contrivances, Oddities and Triflings > Devil's Lake > Baraboo Range > Wisconsin",https://www.mountainproject.com/route/111357184/pseudo-ridge,2.0,-1,Trad,5.6,4,200,43.41839,-89.73098
"Get Jacked","04: Great Chimney Area > 1: Prospect Point Rampart > West Bluff 05 - West Rampart > Devil's Lake > Baraboo Range > Wisconsin",https://www.mountainproject.com/route/106903011/get-jacked,2.0,-1,"Trad, TR","5.6 PG13",1,50,43.4203,-89.73836
"King's Corner","Lower Major Mass > 5.3 - Doorway Rocks - Major Mass > East Bluff 05 - Potholes Area > Devil's Lake > Baraboo Range > Wisconsin",https://www.mountainproject.com/route/107166483/kings-corner,2.0,-1,"Trad, TR",5.6,1,65,43.41382,-89.71997
"Arm Overture","07. The Bandshell > East Bluff 02 - East of the Quarry > Devil's Lake > Baraboo Range > Wisconsin",https://www.mountainproject.com/route/107361923/arm-overture,2.0,-1,"Trad, TR",5.6,1,20,43.4129,-89.6946
"A Cheval","5.4 - Doorway Rocks - Minor Mass > East Bluff 05 - Potholes Area > Devil's Lake > Baraboo Range > Wisconsin",https://www.mountainproject.com/route/106957466/a-cheval,2.0,-1,"Trad, TR",5.6,1,85,43.41411,-89.71906
"Special Delivery","7.2.1 - Birthday Rocks > East Bluff 07 - Railroad Tracks > Devil's Lake > Baraboo Range > Wisconsin",https://www.mountainproject.com/route/118638516/special-delivery,2.0,-1,"Trad, TR",5.6,1,45,43.41722,-89.72695
"Sunken Slab","Hammer Wall & The Keyhole > 5.3 - Doorway Rocks - Major Mass > East Bluff 05 - Potholes Area > Devil's Lake > Baraboo Range > Wisconsin",https://www.mountainproject.com/route/105730454/sunken-slab,1.9,-1,TR,5.6,1,,43.41388,-89.71952
"South Face","The Stairway Tower > 4. The Stairs and Tower Areas > 2. West Side > High Cliff State Park > Niagara Escarpment & Kettle Moraine > Wisconsin",https://www.mountainproject.com/route/106147604/south-face,2.4,-1,TR,5.6,1,30,44.15109,-88.30022
"Simon Says","Mt. Simon > Central > Wisconsin",https://www.mountainproject.com/route/113892453/simon-says,2.0,-1,TR,5.6,1,20,44.83306,-91.50696
"Arm Symphony","07. The Bandshell > East Bluff 02 - East of the Quarry > Devil's Lake > Baraboo Range > Wisconsin",https://www.mountainproject.com/route/113006113/arm-symphony,2.0,-1,"Trad, TR",5.6,1,30,43.4129,-89.6946
"Two Overhangs","Whitney's Formation > West Bluff 03 - Cleo Amphitheater > Devil's Lake > Baraboo Range > Wisconsin",https://www.mountainproject.com/route/107248196/two-overhangs,2.0,-1,"Trad, TR",5.6,1,30,43.41712,-89.73848
"Seventh Buttress  4","Lower Major Mass > 5.3 - Doorway Rocks - Major Mass > East Bluff 05 - Potholes Area > Devil's Lake > Baraboo Range > Wisconsin",https://www.mountainproject.com/route/105730661/seventh-buttress-4,2.0,-1,"Trad, TR",5.6,1,,43.41382,-89.71997
"Lego Spaceship","The Penokean Wall > Blue Hills > Northwest > Wisconsin",https://www.mountainproject.com/route/116608657/lego-spaceship,2.0,-1,TR,5.6,1,20,45.4744,-91.50176
"Weeping Quartz Right","Poison Ivy Wall > East Bluff 03 - West of the Quarry > Devil's Lake > Baraboo Range > Wisconsin",https://www.mountainproject.com/route/122215793/weeping-quartz-right,2.0,-1,"Trad, TR",5.6,1,35,43.4125,-89.7069
"Hangman Towers Offwidth","2. Hangman Tower > West Bluff 06 - West Bluff Towers > Devil's Lake > Baraboo Range > Wisconsin",https://www.mountainproject.com/route/111745528/hangman-towers-offwidth,2.0,-1,Trad,"5.6 R",1,45,43.42206,-89.7371
"Mountain Goat","Mt. Simon > Central > Wisconsin",https://www.mountainproject.com/route/113892433/mountain-goat,2.0,-1,TR,"5.6 PG13",1,20,44.83306,-91.50696
Squirm,"Juniper Wall > East Bluff 03 - West of the Quarry > Devil's Lake > Baraboo Range > Wisconsin",https://www.mountainproject.com/route/114466493/squirm,2.0,-1,"Trad, TR",5.6,1,25,43.41214,-89.70583
"The Joker","05. Condor Corner > East Bluff 02 - East of the Quarry > Devil's Lake > Baraboo Range > Wisconsin",https://www.mountainproject.com/route/107146709/the-joker,2.0,-1,Trad,5.6,1,30,43.41307,-89.69568
"Coffee Break","By Gully > West Bluff 07 - North Woods > Devil's Lake > Baraboo Range > Wisconsin",https://www.mountainproject.com/route/107101184/coffee-break,2.0,-1,"Trad, TR",5.6,1,35,43.42572,-89.73697
"The Clamshell","1. Cave Rocks Rampart > West Bluff 06 - West Bluff Towers > Devil's Lake > Baraboo Range > Wisconsin",https://www.mountainproject.com/route/106879775/the-clamshell,2.0,-1,"Trad, TR",5.6,1,65,43.42156,-89.73743
"Drink to Remember","Hillbilly Routes > Hillbilly Hollow > Central > Wisconsin",https://www.mountainproject.com/route/119501908/drink-to-remember,2.0,-1,"Trad, TR",5.6,1,30,43.9763,-89.5005
"Earl of Dukes","Bob's Rock > Northwest > Wisconsin",https://www.mountainproject.com/route/121452828/earl-of-dukes,2.0,-1,Trad,5.6,1,70,46.29544,-90.99503
"Abby Normal","Vulture Lookout > East Bluff 03 - West of the Quarry > Devil's Lake > Baraboo Range > Wisconsin",https://www.mountainproject.com/route/122186899/abby-normal,2.4,-1,"Trad, TR",5.6,1,40,43.4132,-89.704
"Jr. Mechanic","Rickety Rib > 03. Near East > East Bluff 02 - East of the Quarry > Devil's Lake > Baraboo Range > Wisconsin",https://www.mountainproject.com/route/121817523/jr-mechanic,2.0,-1,Trad,5.6,1,45,43.41257,-89.69935
"Cute Dihedral","Vulture Lookout > East Bluff 03 - West of the Quarry > Devil's Lake > Baraboo Range > Wisconsin",https://www.mountainproject.com/route/122187018/cute-dihedral,2.0,-1,"Trad, TR",5.6,1,20,43.4132,-89.704
"Illusion Chimney","03: Big Toe to Great Chimney > 1: Prospect Point Rampart > West Bluff 05 - West Rampart > Devil's Lake > Baraboo Range > Wisconsin",https://www.mountainproject.com/route/119424577/illusion-chimney,2.0,-1,"Trad, TR",5.6,1,40,43.42005,-89.7384
"6 foot, 7 foot, 8 foot, Ledge!","1. Rim North of Balanced Rock > East Bluff 06 - Balanced Rock > Devil's Lake > Baraboo Range > Wisconsin",https://www.mountainproject.com/route/114170228/6-foot-7-foot-8-foot-ledge,2.0,-1,"Trad, TR",5.6,1,55,43.41615,-89.72498
Starfire,"2.  Balanced Rock Wall > East Bluff 06 - Balanced Rock > Devil's Lake > Baraboo Range > Wisconsin",https://www.mountainproject.com/route/122713941/starfire,2.0,-1,"Trad, TR","5.6 PG13",1,40,43.41436,-89.72501
"Harder By The Climber","Vulture Lookout > East Bluff 03 - West of the Quarry > Devil's Lake > Baraboo Range > Wisconsin",https://www.mountainproject.com/route/122186974/harder-by-the-climber,2.0,-1,"Trad, TR",5.6,1,17,43.4132,-89.704
"Sun Spot","2. Dutchman Rampart > West Bluff 02 - Misery Rocks & The Pantry > Devil's Lake > Baraboo Range > Wisconsin",https://www.mountainproject.com/route/114559286/sun-spot,2.0,-1,Trad,5.6,1,25,43.41663,-89.7387
"Trojan man meets George Bailey","Main Face > Owens Rock > Central Sandstone > Central > Wisconsin",https://www.mountainproject.com/route/110439989/trojan-man-meets-george-bailey,2.0,-1,Trad,"5.6 PG13",1,60,44.2043,-89.6582
"Star-maker Chimney","Hollywood and Vines > West Bluff 07 - North Woods > Devil's Lake > Baraboo Range > Wisconsin",https://www.mountainproject.com/route/106823900/star-maker-chimney,2.0,-1,Trad,5.6,1,30,43.4269,-89.7367
"Third Step","7.2.3 - Lothar's Ledges > East Bluff 07 - Railroad Tracks > Devil's Lake > Baraboo Range > Wisconsin",https://www.mountainproject.com/route/107266011/third-step,2.0,-1,Trad,5.6,1,15,43.4166,-89.7265
"Unnamed Crack  in recess","02: Dark Wall > 1: Prospect Point Rampart > West Bluff 05 - West Rampart > Devil's Lake > Baraboo Range > Wisconsin",https://www.mountainproject.com/route/106721587/unnamed-crack-in-recess,2.0,-1,"Trad, TR",5.6,1,30,43.41957,-89.73809
"Surehand, Surehand","The Blade > West Bluff 04 - Great Tower Area > Devil's Lake > Baraboo Range > Wisconsin",https://www.mountainproject.com/route/105730988/surehand-surehand,2.0,-1,"Trad, TR",5.6,1,60,43.41853,-89.7378
"Frosted Flake","Bob's Rock > Northwest > Wisconsin",https://www.mountainproject.com/route/117583847/frosted-flake,2.3,-1,TR,5.6,1,65,46.29544,-90.99503
"Plate Tectonics","Rattle Snake North > Rattlesnake Mound > Central Sandstone > Central > Wisconsin",https://www.mountainproject.com/route/124019160/plate-tectonics,3.0,-1,TR,5.6,1,50,43.87585,-89.83601
"Snake Skin","08. Rattlesnake Ridge > East Bluff 02 - East of the Quarry > Devil's Lake > Baraboo Range > Wisconsin",https://www.mountainproject.com/route/124239023/snake-skin,2.0,-1,"Trad, TR",5.6,1,40,43.41299,-89.6936
