Route,Location,URL,"Avg Stars","Your Stars","Route Type",Rating,Pitches,Length,"Area Latitude","Area Longitude"
"Let Your Pimpness Shine","Adidas Wall > Grandad Bluff > Central > Wisconsin",https://www.mountainproject.com/route/105983652/let-your-pimpness-shine,3.2,-1,Sport,5.10b/c,1,45,43.81095,-91.20564
"Jabba Roof","06. Hell Wall (aka Quarry Wall) > Necedah (Petenwell Rock) > Central > Wisconsin",https://www.mountainproject.com/route/118849255/jabba-roof,3.0,-1,Sport,5.10b/c,1,60,44.04529,-90.02031
Tardis,"3: Dead Tree Wall > West Bluff 05 - West Rampart > Devil's Lake > Baraboo Range > Wisconsin",https://www.mountainproject.com/route/105828869/tardis,3.4,-1,"Trad, TR",5.10b/c,1,50,43.4215,-89.73841
"Sour Queen","11: Bill's Buttress > East Bluff 04 - East Rampart > Devil's Lake > Baraboo Range > Wisconsin",https://www.mountainproject.com/route/110941140/sour-queen,2.8,-1,TR,5.10b/c,1,90,43.41366,-89.71414
"Walpurgisnacht Direct","17: Hawk's Nest > East Bluff 04 - East Rampart > Devil's Lake > Baraboo Range > Wisconsin",https://www.mountainproject.com/route/106925725/walpurgisnacht-direct,2.3,-1,"Trad, TR","5.10b/c PG13",1,100,43.41353,-89.7158
