Route,Location,URL,"Avg Stars","Your Stars","Route Type",Rating,Pitches,Length,"Area Latitude","Area Longitude"
"Roger's Roof","7.3 - Horse Rampart > East Bluff 07 - Railroad Tracks > Devil's Lake > Baraboo Range > Wisconsin",https://www.mountainproject.com/route/105730391/rogers-roof,3.4,-1,"Trad, TR",5.8+,1,,43.41665,-89.72612
"Brinton's Direct","07: Brinton's Buttress > East Bluff 04 - East Rampart > Devil's Lake > Baraboo Range > Wisconsin",https://www.mountainproject.com/route/105730868/brintons-direct,3.5,-1,"Trad, TR",5.8+,1,90,43.41359,-89.71303
"Lost Ego","Sentinel Area > Interstate Park > Northwest > Wisconsin",https://www.mountainproject.com/route/105842662/lost-ego,3.4,-1,"Trad, TR",5.8+,1,50,45.39798,-92.65094
"Randalls One Trick Pony","Adidas Wall > Grandad Bluff > Central > Wisconsin",https://www.mountainproject.com/route/105983684/randalls-one-trick-pony,2.8,-1,Sport,5.8+,1,45,43.81095,-91.20564
"American Beauty Crack","1. Old Sandstone > East Bluff 01 - Sandstone Area > Devil's Lake > Baraboo Range > Wisconsin",https://www.mountainproject.com/route/105730244/american-beauty-crack,2.7,-1,"Trad, TR",5.8+,1,,43.4137,-89.6863
"Inside Corner","Wisconsin Strip > Interstate Park > Northwest > Wisconsin",https://www.mountainproject.com/route/105794836/inside-corner,2.5,-1,"Trad, TR",5.8+,1,,45.39976,-92.64984
"Heat Wave a.k.a. Layback Crack","Indian Head (Profile Buttress) > Interstate Park > Northwest > Wisconsin",https://www.mountainproject.com/route/105844597/heat-wave-aka-layback-crack,2.8,-1,"Trad, TR",5.8+,1,60,45.39679,-92.6535
"Wombat Combat","George's Point > Grandad Bluff > Central > Wisconsin",https://www.mountainproject.com/route/118268998/wombat-combat,2.8,-1,Sport,5.8+,1,40,43.8104,-91.2057
Locomotive,"2 - North Wall > Gibraltar Rock > South > Wisconsin",https://www.mountainproject.com/route/105968457/locomotive,3.8,-1,"Trad, Sport",5.8+,1,180,43.34288,-89.60041
"End of the Innocence variation","Hillbilly Routes > Hillbilly Hollow > Central > Wisconsin",https://www.mountainproject.com/route/106165164/end-of-the-innocence-variation,2.6,-1,"Sport, TR",5.8+,1,55,43.9763,-89.5005
"Mindless Dribble","Lower Major Mass > 5.3 - Doorway Rocks - Major Mass > East Bluff 05 - Potholes Area > Devil's Lake > Baraboo Range > Wisconsin",https://www.mountainproject.com/route/105730469/mindless-dribble,2.7,-1,TR,5.8+,1,,43.41382,-89.71997
"Der Glotzenlinks","2.  Balanced Rock Wall > East Bluff 06 - Balanced Rock > Devil's Lake > Baraboo Range > Wisconsin",https://www.mountainproject.com/route/113628736/der-glotzenlinks,3.1,-1,"Trad, TR",5.8+,1,50,43.41436,-89.72501
"Picnic Crack Right","Picnic Area > Interstate Park > Northwest > Wisconsin",https://www.mountainproject.com/route/106171674/picnic-crack-right,2.7,-1,"Trad, TR",5.8+,1,40,45.39665,-92.65575
Surprise,"5. Hole-In-The-Wall > East Bluff 06 - Balanced Rock > Devil's Lake > Baraboo Range > Wisconsin",https://www.mountainproject.com/route/107210526/surprise,2.9,-1,TR,5.8+,1,30,43.4142,-89.72368
"Enter Sandman","Mt. Simon > Central > Wisconsin",https://www.mountainproject.com/route/113892518/enter-sandman,3.0,-1,TR,"5.8+ PG13",1,30,44.83306,-91.50696
"Delicate Moves","05: Lost Face Area > 1: Prospect Point Rampart > West Bluff 05 - West Rampart > Devil's Lake > Baraboo Range > Wisconsin",https://www.mountainproject.com/route/106869139/delicate-moves,3.0,-1,TR,5.8+,1,40,43.42052,-89.73831
"Whitney's Rampage","Whitney's Formation > West Bluff 03 - Cleo Amphitheater > Devil's Lake > Baraboo Range > Wisconsin",https://www.mountainproject.com/route/107248175/whitneys-rampage,3.0,-1,"Trad, TR",5.8+,1,25,43.41712,-89.73848
"Happiness Lake","The Penokean Wall > Blue Hills > Northwest > Wisconsin",https://www.mountainproject.com/route/116608538/happiness-lake,2.8,-1,"Sport, TR",5.8+,1,25,45.4744,-91.50176
"Use Your Feet","By Gully > West Bluff 07 - North Woods > Devil's Lake > Baraboo Range > Wisconsin",https://www.mountainproject.com/route/107101175/use-your-feet,3.0,-1,"Trad, TR",5.8+,1,40,43.42572,-89.73697
"Breaking Away","Red Nose Wall > East Bluff 03 - West of the Quarry > Devil's Lake > Baraboo Range > Wisconsin",https://www.mountainproject.com/route/105821387/breaking-away,2.8,-1,"Trad, TR","5.8+ PG13",1,40,43.4129,-89.70505
"Invitation Direct","2.  Balanced Rock Wall > East Bluff 06 - Balanced Rock > Devil's Lake > Baraboo Range > Wisconsin",https://www.mountainproject.com/route/106542103/invitation-direct,2.4,-1,"Trad, TR","5.8+ PG13",1,25,43.41436,-89.72501
Catfished,"Adidas Wall > Grandad Bluff > Central > Wisconsin",https://www.mountainproject.com/route/120511734/catfished,2.1,-1,Sport,5.8+,1,40,43.81095,-91.20564
"Turn the Other Cheek","North Wall > The Fishin' Crag (Castle Rock South) > South > Wisconsin",https://www.mountainproject.com/route/109418349/turn-the-other-cheek,2.4,-1,"Trad, TR",5.8+,1,95,43.04482,-90.51986
"Electric Stove Couch","Picnic Area > Interstate Park > Northwest > Wisconsin",https://www.mountainproject.com/route/107807980/electric-stove-couch,2.1,-1,"Trad, TR",5.8+,1,50,45.39665,-92.65575
"Hole in the Wall","The Cleo Amphitheater > West Bluff 03 - Cleo Amphitheater > Devil's Lake > Baraboo Range > Wisconsin",https://www.mountainproject.com/route/120039888/hole-in-the-wall,2.5,-1,TR,"5.8+ R",1,35,43.41738,-89.73856
"First Make a Wish","Aladdin's Castle > 03. Near East > East Bluff 02 - East of the Quarry > Devil's Lake > Baraboo Range > Wisconsin",https://www.mountainproject.com/route/113748353/first-make-a-wish,2.5,-1,"Trad, TR",5.8+,1,45,43.41287,-89.69729
"Never Again","Hollywood and Vines > West Bluff 07 - North Woods > Devil's Lake > Baraboo Range > Wisconsin",https://www.mountainproject.com/route/107100649/never-again,2.3,-1,"Trad, TR",5.8+,1,35,43.4269,-89.7367
Granary,"Elephant Rocks > East Bluff 08 - North End > Devil's Lake > Baraboo Range > Wisconsin",https://www.mountainproject.com/route/109309865/granary,2.0,-1,TR,5.8+,1,25,43.42556,-89.72536
"Fall Out Boy","Mt. Simon > Central > Wisconsin",https://www.mountainproject.com/route/113892532/fall-out-boy,2.0,-1,TR,5.8+,1,30,44.83306,-91.50696
"Short Man's Anguish","7.2.3 - Lothar's Ledges > East Bluff 07 - Railroad Tracks > Devil's Lake > Baraboo Range > Wisconsin",https://www.mountainproject.com/route/107265565/short-mans-anguish,2.0,-1,TR,5.8+,1,30,43.4166,-89.7265
Bowsprit,"3. The Frigate > West Bluff 02 - Misery Rocks & The Pantry > Devil's Lake > Baraboo Range > Wisconsin",https://www.mountainproject.com/route/107154278/bowsprit,2.0,-1,"Trad, TR","5.8+ R",1,30,43.4166,-89.73862
