Route,Location,URL,"Avg Stars","Your Stars","Route Type",Rating,Pitches,Length,"Area Latitude","Area Longitude"
"Walt Bailey Memorial","South and East Faces > Devils Tower > Wyoming",https://www.mountainproject.com/route/105715550/walt-bailey-memorial,3.9,-1,Trad,5.9,1,180,44.58986,-104.71457
"Assembly Line","East and Northeast Buttress Approach > Devils Tower > Wyoming",https://www.mountainproject.com/route/105715028/assembly-line,3.7,-1,Trad,5.9,2,140,44.5911,-104.71442
Soler,"South and East Faces > Devils Tower > Wyoming",https://www.mountainproject.com/route/105714830/soler,3.6,-1,Trad,5.9,2,280,44.58986,-104.71457
"Minor Dihedral","Haystack Mountain > Deep Lake Area > Wind River Range > Wyoming",https://www.mountainproject.com/route/105827766/minor-dihedral,3.6,-1,"Trad, Alpine",5.9,10,1000,42.73004,-109.17068
"Middle Parallel Space","Nautilus > Vedauwoo > Laramie Area > Wyoming",https://www.mountainproject.com/route/105752155/middle-parallel-space,3.6,-1,Trad,5.9,2,,41.15478,-105.37467
Labyrinth,"Reynolds Hill > Vedauwoo > Laramie Area > Wyoming",https://www.mountainproject.com/route/105895689/labyrinth,3.5,-1,"Trad, TR",5.9,2,,41.17386,-105.35395
"More Funky Than Gunky","Camel Jockey > Sinks Canyon > Lander Area > Wyoming",https://www.mountainproject.com/route/105827721/more-funky-than-gunky,3.5,-1,Sport,5.9,1,70,42.74111,-108.83388
"Open Book","Disappointment Peak > Grand Teton National Park > Wyoming",https://www.mountainproject.com/route/105803655/open-book,3.5,-1,"Trad, Alpine",5.9,6,800,43.73345,-110.79302
"MRC Direct","Old Easy > Vedauwoo > Laramie Area > Wyoming",https://www.mountainproject.com/route/105751435/mrc-direct,3.4,-1,Trad,5.9,2,,41.1632,-105.37104
Finally,"Nautilus > Vedauwoo > Laramie Area > Wyoming",https://www.mountainproject.com/route/105751387/finally,3.2,-1,Trad,5.9,1,,41.15478,-105.37467
"Dihedral of Horrors","Omega  Buttress > Death Canyon > Grand Teton National Park > Wyoming",https://www.mountainproject.com/route/105813333/dihedral-of-horrors,3.4,-1,"Trad, Alpine",5.9,4,400,43.65911,-110.81351
Fallout,"Coke Bottle > Vedauwoo > Laramie Area > Wyoming",https://www.mountainproject.com/route/105763668/fallout,3.2,-1,Trad,5.9,1,90,41.16185,-105.37553
"Water into Wine","The Waterfall Walls > Old Road Crags > Ten Sleep Canyon > Wyoming",https://www.mountainproject.com/route/107743283/water-into-wine,3.0,-1,Sport,5.9,1,80,44.08824,-107.29241
"Duck Soup","Scud Wall > Sinks Canyon > Lander Area > Wyoming",https://www.mountainproject.com/route/105827358/duck-soup,3.0,-1,Sport,5.9,1,70,42.74191,-108.83072
"Baxter's Pinnacle - South Ridge","Cascade Canyon > Grand Teton National Park > Wyoming",https://www.mountainproject.com/route/106003201/baxters-pinnacle-south-ridge,2.9,-1,"Trad, Alpine",5.9,5,400,43.7628,-110.746
"North Face Center (Ecclesiastes)","Mitchell Peak > Cirque of the Towers > Wind River Range > Wyoming",https://www.mountainproject.com/route/105856203/north-face-center-ecclesiastes,3.4,-1,"Trad, Alpine",5.9,9,1000,42.76837,-109.1989
"Lucky Groove","Beehive Buttress > Vedauwoo > Laramie Area > Wyoming",https://www.mountainproject.com/route/106244272/lucky-groove,2.8,-1,Sport,5.9,1,,41.2285,-105.4085
"I Love the Big Top","Circus Wall > Ten Sleep Canyon > Wyoming",https://www.mountainproject.com/route/106242038/i-love-the-big-top,2.7,-1,Sport,5.9,1,,44.10072,-107.28884
"Annie Git Yer Drill","2. Claim Jumper > 2. Central (Blooming Rose, Claim Jumper, Saddle Tramp) > OK Corral > Wild Iris > Lander Area > Wyoming",https://www.mountainproject.com/route/105841378/annie-git-yer-drill,2.5,-1,Sport,5.9,1,55,42.57322,-108.71448
"Betty Tendon Blaster","Rodeo Wall > Jackson Hole > Wyoming",https://www.mountainproject.com/route/105835530/betty-tendon-blaster,2.5,-1,Sport,5.9,1,60,43.30207,-110.76243
"Ghost of Richard","The Ice Plant > Ten Sleep Canyon > Wyoming",https://www.mountainproject.com/route/109309965/ghost-of-richard,2.6,-1,Sport,5.9,1,90,44.10009,-107.28914
"Wind River Muzzle Loaders","4. Rodeo Drive > 3. Right Side (Diamonds, La Vaca, Pronghorn, Rodeo Drive) > OK Corral > Wild Iris > Lander Area > Wyoming",https://www.mountainproject.com/route/107365485/wind-river-muzzle-loaders,2.2,-1,Sport,5.9,1,35,42.57254,-108.71279
"Windy City","D. Hot Tamale Wall > The Main Wall > Wild Iris > Lander Area > Wyoming",https://www.mountainproject.com/route/106539040/windy-city,2.1,-1,Sport,5.9,1,50,42.58489,-108.73638
"Atta Boy, Girl","Scud Wall > Sinks Canyon > Lander Area > Wyoming",https://www.mountainproject.com/route/106445702/atta-boy-girl,2.3,-1,Sport,5.9,1,50,42.74191,-108.83072
"Britchen Strap","3. Pronghorn Pinnacle > 3. Right Side (Diamonds, La Vaca, Pronghorn, Rodeo Drive) > OK Corral > Wild Iris > Lander Area > Wyoming",https://www.mountainproject.com/route/107424675/britchen-strap,2.1,-1,Sport,5.9,1,45,42.57303,-108.7142
[Redacted],"4. Rodeo Drive > 3. Right Side (Diamonds, La Vaca, Pronghorn, Rodeo Drive) > OK Corral > Wild Iris > Lander Area > Wyoming",https://www.mountainproject.com/route/107780271/redacted,2.0,-1,Sport,5.9,1,50,42.57254,-108.71279
"Wine and Cheese","The Waterfall Walls > Old Road Crags > Ten Sleep Canyon > Wyoming",https://www.mountainproject.com/route/110798669/wine-and-cheese,2.5,-1,Sport,5.9,1,60,44.08824,-107.29241
"Doggin' Dude","Scud Wall > Sinks Canyon > Lander Area > Wyoming",https://www.mountainproject.com/route/106017060/doggin-dude,1.9,-1,Sport,5.9,1,50,42.74191,-108.83072
"Earth A.D.","The Wilds & Achin' For Booty > Sinks Canyon > Lander Area > Wyoming",https://www.mountainproject.com/route/106603893/earth-ad,2.9,-1,Sport,5.9,1,50,42.7403,-108.84254
"Saddle Up","3. Pronghorn Pinnacle > 3. Right Side (Diamonds, La Vaca, Pronghorn, Rodeo Drive) > OK Corral > Wild Iris > Lander Area > Wyoming",https://www.mountainproject.com/route/106517818/saddle-up,1.9,-1,Sport,5.9,1,45,42.57303,-108.7142
"Ice Breaker","Greenland > Old Road Crags > Ten Sleep Canyon > Wyoming",https://www.mountainproject.com/route/112163449/ice-breaker,3.1,-1,Sport,5.9,1,60,44.08764,-107.2945
"Boy Howdy","L. Superratic Pillar > Valhalla > Ten Sleep Canyon > Wyoming",https://www.mountainproject.com/route/106254350/boy-howdy,2.1,-1,Sport,5.9,1,50,44.14306,-107.25786
"Easy Day for a Lady","The Bridge > Fremont Canyon > Wyoming",https://www.mountainproject.com/route/106251354/easy-day-for-a-lady,3.2,-1,"Trad, TR",5.9,1,90,42.47099,-106.79643
"Kiss of the Spiderwoman","The Gauntlet > Fremont Canyon > Wyoming",https://www.mountainproject.com/route/107353417/kiss-of-the-spiderwoman,3.6,-1,Trad,5.9,1,90,42.46835,-106.80406
"5 O’Clock Thunder Jam","3. Saddle Tramp > 2. Central (Blooming Rose, Claim Jumper, Saddle Tramp) > OK Corral > Wild Iris > Lander Area > Wyoming",https://www.mountainproject.com/route/119315893/5-oclock-thunder-jam,2.7,-1,Sport,5.9,1,35,42.57363,-108.71527
"Central Corner","Haystack Mountain > Deep Lake Area > Wind River Range > Wyoming",https://www.mountainproject.com/route/106010871/central-corner,2.9,-1,"Trad, Alpine",5.9,5,,42.73004,-109.17068
"Afghan Hound","Hound Dog Crag > Ten Sleep Canyon > Wyoming",https://www.mountainproject.com/route/110537693/afghan-hound,2.5,-1,Sport,5.9,2,115,44.10033,-107.28463
Overload,"Poland Hill > Vedauwoo > Laramie Area > Wyoming",https://www.mountainproject.com/route/105762246/overload,2.9,-1,Trad,5.9,1,50,41.16696,-105.39746
"No Perches Necessary","Cascade Canyon > Grand Teton National Park > Wyoming",https://www.mountainproject.com/route/105804115/no-perches-necessary,2.9,-1,"Trad, Alpine",5.9,2,160,43.7628,-110.746
"Jim Jam","Nautilus > Vedauwoo > Laramie Area > Wyoming",https://www.mountainproject.com/route/105995847/jim-jam,2.4,-1,Trad,5.9,1,50,41.15478,-105.37467
"Direct South Buttress","Mount Moran > Grand Teton National Park > Wyoming",https://www.mountainproject.com/route/106204685/direct-south-buttress,3.6,-1,"Aid, Alpine","5.9 C1",11,1500,43.835,-110.776
B-25,"The Bridge > Fremont Canyon > Wyoming",https://www.mountainproject.com/route/105973381/b-25,3.1,-1,Trad,5.9,1,80,42.47099,-106.79643
"Mild Thing","The Tunnel Wall > The Island Area > Cody > Wyoming",https://www.mountainproject.com/route/110289345/mild-thing,3.0,-1,Sport,5.9,1,55,44.50819,-109.17754
"Northeast Face of Warrior I","Warrior 1 > Cirque of the Towers > Wind River Range > Wyoming",https://www.mountainproject.com/route/106007654/northeast-face-of-warrior-i,3.1,-1,"Trad, Alpine",5.9,7,1200,42.76293,-109.22514
"Edwards Crack","Big Bird Area > Tongue River Canyon > Eastern Big Horns > Wyoming",https://www.mountainproject.com/route/106075200/edwards-crack,3.9,-1,Trad,5.9,1,95,44.84732,-107.34031
"A Beautiful Life","Addiction > Sinks Canyon > Lander Area > Wyoming",https://www.mountainproject.com/route/105829088/a-beautiful-life,2.0,-1,Sport,5.9,1,40,42.74091,-108.83616
Stabyhound,"Hound Dog Crag > Ten Sleep Canyon > Wyoming",https://www.mountainproject.com/route/116089602/stabyhound,2.9,-1,Sport,5.9,1,,44.10033,-107.28463
"Did You Eat Disco Biscuits?","Full Charge Crag > Lake Point > Ten Sleep Canyon > Wyoming",https://www.mountainproject.com/route/110944740/did-you-eat-disco-biscuits,2.0,-1,Sport,5.9,1,,44.15558,-107.23337
"Southwest Face Right","Pingora > Cirque of the Towers > Wind River Range > Wyoming",https://www.mountainproject.com/route/106232307/southwest-face-right,3.2,-1,"Trad, Alpine",5.9,4,450,42.7789,-109.226
"Life Is A Tilt-A-Whirl","Tilt-A-Wall > Lake Point > Ten Sleep Canyon > Wyoming",https://www.mountainproject.com/route/110944546/life-is-a-tilt-a-whirl,2.0,-1,Sport,5.9,1,,44.1559,-107.2333
"Beyer East Face I","Grand Teton > Grand Teton National Park > Wyoming",https://www.mountainproject.com/route/105843454/beyer-east-face-i,3.6,-1,"Trad, Alpine",5.9,7,1000,43.74092,-110.80253
Heatseeker,"Scud Wall > Sinks Canyon > Lander Area > Wyoming",https://www.mountainproject.com/route/116358910/heatseeker,2.5,-1,Sport,5.9,1,60,42.74191,-108.83072
"Drill and Repetition","4. Far Right (Warmup Area) > Hoback Shield > Jackson Hole > Wyoming",https://www.mountainproject.com/route/106083618/drill-and-repetition,2.4,-1,Sport,5.9,1,65,43.28858,-110.53698
"Hook It","4. Far Right (Warmup Area) > Hoback Shield > Jackson Hole > Wyoming",https://www.mountainproject.com/route/106083614/hook-it,2.5,-1,Sport,5.9,1,,43.28858,-110.53698
Tumbleweed,"Lower Psychoactive > Leigh Creek > Old Road Crags > Ten Sleep Canyon > Wyoming",https://www.mountainproject.com/route/107200613/tumbleweed,2.0,-1,Sport,5.9,1,50,44.0812,-107.30582
"Pocket Full of Pigeons","The Rest of the East Bridge Bands > East Bridge Bands > Cody > Wyoming",https://www.mountainproject.com/route/107844143/pocket-full-of-pigeons,3.7,-1,Sport,5.9,1,65,44.51156,-109.15117
Dogtown,"Happy Wheel Wall > Sinks Canyon > Lander Area > Wyoming",https://www.mountainproject.com/route/106445725/dogtown,2.6,-1,Sport,5.9,1,45,42.73907,-108.83038
"Anarchy and an AK-47","2. Munitions Roof > Valhalla > Ten Sleep Canyon > Wyoming",https://www.mountainproject.com/route/106239765/anarchy-and-an-ak-47,1.9,-1,Sport,5.9,1,50,44.13583,-107.25767
"Big Bird","Big Bird Area > Tongue River Canyon > Eastern Big Horns > Wyoming",https://www.mountainproject.com/route/106363466/big-bird,3.9,-1,Trad,5.9,1,90,44.84732,-107.34031
"Cashew Corner","Wine and Roses > Fremont Canyon > Wyoming",https://www.mountainproject.com/route/108231603/cashew-corner,3.1,-1,"Trad, TR",5.9,1,100,42.46729,-106.80228
"Cut Finger Crack","Cutfinger Rock > Jenny Lake Bouldering > Grand Teton National Park > Wyoming",https://www.mountainproject.com/route/110524458/cut-finger-crack,2.7,-1,"TR, Boulder, Alpine","5.9 V1",1,,43.7559,-110.72097
"A Smile Through a Veil","Heavy Metal Rock Band > Shady Side > Sinks Canyon > Lander Area > Wyoming",https://www.mountainproject.com/route/117593062/a-smile-through-a-veil,2.9,-1,Sport,5.9,1,70,42.73506,-108.82392
"Biouvier des Flandres","Hound Dog Crag > Ten Sleep Canyon > Wyoming",https://www.mountainproject.com/route/108281834/biouvier-des-flandres,2.5,-1,Sport,5.9,1,100,44.10033,-107.28463
"First Gear","Worm Drive > 700L/Plumb Line Area > Vedauwoo > Laramie Area > Wyoming",https://www.mountainproject.com/route/119041733/first-gear,3.0,-1,Trad,5.9,1,50,41.15792,-105.33235
"Venus and Mars","Lankin Dome > Sweetwater Rocks > Wyoming",https://www.mountainproject.com/route/106385981/venus-and-mars,3.8,-1,Trad,5.9,4,600,42.53256,-107.56149
"Wrist Ranger","Spelunk Spire > Vedauwoo > Laramie Area > Wyoming",https://www.mountainproject.com/route/105764574/wrist-ranger,2.7,-1,Trad,5.9,1,70,41.17639,-105.34788
"Alberich's Alley","Enclosure > Grand Teton National Park > Wyoming",https://www.mountainproject.com/route/114568379/alberichs-alley,4.0,-1,"Trad, Ice, Alpine","5.9 AI4",1,,43.74139,-110.80585
"Bollinger West Face","Bollinger Peak > Cirque of the Towers > Wind River Range > Wyoming",https://www.mountainproject.com/route/118046188/bollinger-west-face,4.0,-1,"Trad, Alpine",5.9,8,1200,42.772,-109.223
"The Red Route","(b) Central Sector > Rock Springs Buttress > Jackson Hole > Wyoming",https://www.mountainproject.com/route/109979084/the-red-route,4.0,-1,"Trad, Mixed, Alpine","5.9 M7",5,400,43.58617,-110.86846
"West Buttress","Musembeah Peak > Baptiste Lake > Wind River Range > Wyoming",https://www.mountainproject.com/route/106459843/west-buttress,3.6,-1,"Trad, Alpine",5.9,10,,42.86573,-109.29769
"Tintin Does Doughnuts","Southwest Shoulder > Devils Tower > Wyoming",https://www.mountainproject.com/route/105819995/tintin-does-doughnuts,2.5,-1,Sport,5.9,1,60,44.58955,-104.7163
"Annals of Time","Omega  Buttress > Death Canyon > Grand Teton National Park > Wyoming",https://www.mountainproject.com/route/105809481/annals-of-time,2.8,-1,"Trad, Alpine",5.9,4,350,43.65911,-110.81351
"Direct Northeast","Northeast Shoulder > Sugar Loaf > Laramie Peak Wildlife Habitat Management Area > Laramie Range > Wyoming",https://www.mountainproject.com/route/110716769/direct-northeast,3.5,-1,Trad,5.9,3,300,41.96712,-105.39429
"Rub the Nub","The Tunnel Wall > The Island Area > Cody > Wyoming",https://www.mountainproject.com/route/106158062/rub-the-nub,2.3,-1,Sport,5.9,1,45,44.50819,-109.17754
"Pug Addicts","Trailside Wall > Piney Creek Canyon > Eastern Big Horns > Wyoming",https://www.mountainproject.com/route/108301605/pug-addicts,2.7,-1,Sport,5.9,1,35,44.55747,-106.93605
"Red Mite","The Curl > The Book Pages Mound > Southwest Ridge of Reese Mtn > Reese Mountain > Laramie Peak Wildlife Habitat Management Area > Laramie Range > Wyoming",https://www.mountainproject.com/route/107482059/red-mite,3.8,-1,Sport,5.9,1,100,42.0045,-105.3728
"Rangers Are People Too","Durrance Approach > Devils Tower > Wyoming",https://www.mountainproject.com/route/105715190/rangers-are-people-too,2.6,-1,Trad,5.9,1,130,44.58978,-104.71537
"Finger Grinder","Reynolds Hill > Vedauwoo > Laramie Area > Wyoming",https://www.mountainproject.com/route/105762456/finger-grinder,2.3,-1,Trad,5.9,1,90,41.17386,-105.35395
"Fun House","John's Tower > Upper Blair > Blair (overview) > Vedauwoo > Laramie Area > Wyoming",https://www.mountainproject.com/route/106859747/fun-house,2.9,-1,Trad,5.9,1,70,41.19678,-105.38694
"Heavens to Mergatroid","The Lunar Surface > Dry Wall > Ten Sleep Canyon > Wyoming",https://www.mountainproject.com/route/113456824/heavens-to-mergatroid,2.6,-1,Sport,5.9,1,85,44.0981,-107.2908
"(02) Saxifrage","North Side > Corbet's Couloir > Jackson Hole Mountain Resort > Jackson Hole > Wyoming",https://www.mountainproject.com/route/106860678/02-saxifrage,3.2,-1,"Sport, TR, Alpine",5.9,1,70,43.59628,-110.86839
"South Seas Tour","Mix and Match Wall > Lamburger Rock > Eastern Big Horns > Wyoming",https://www.mountainproject.com/route/107788760/south-seas-tour,3.6,-1,Trad,5.9,5,400,44.5751,-107.1641
"Cake and Ice Cream","Crazy Woman Cliff > Crazy Woman Crags > Eastern Big Horns > Wyoming",https://www.mountainproject.com/route/114614144/cake-and-ice-cream,2.7,-1,Sport,5.9,1,60,44.17185,-106.87118
"Lost in Love","The Lost Wall > Vedauwoo > Laramie Area > Wyoming",https://www.mountainproject.com/route/106985518/lost-in-love,3.7,-1,Trad,5.9,1,65,41.18484,-105.37826
"Star Jumper","Lankin Dome > Sweetwater Rocks > Wyoming",https://www.mountainproject.com/route/106478465/star-jumper,3.5,-1,Sport,"5.9 PG13",6,700,42.53256,-107.56149
"Paper Training","Spelunk Spire > Vedauwoo > Laramie Area > Wyoming",https://www.mountainproject.com/route/105827835/paper-training,2.5,-1,Trad,5.9,1,40,41.17639,-105.34788
"Afternoon Delight  (P1)","Grand Wall > Teton Canyon > Wyoming",https://www.mountainproject.com/route/106001272/afternoon-delight-p1,2.9,-1,Trad,5.9,1,60,43.75533,-110.91315
"Armed Robbery","Cloudveil Dome > Grand Teton National Park > Wyoming",https://www.mountainproject.com/route/106863909/armed-robbery,3.0,-1,"Trad, Alpine",5.9,6,1000,43.71893,-110.80757
"Coffee Grinder","Reynolds Hill > Vedauwoo > Laramie Area > Wyoming",https://www.mountainproject.com/route/105832415/coffee-grinder,2.7,-1,Trad,5.9,2,200,41.17386,-105.35395
"Boulder Exit 9","Walt's Wall > Vedauwoo > Laramie Area > Wyoming",https://www.mountainproject.com/route/107305475/boulder-exit-9,3.2,-1,Trad,5.9,1,,41.16186,-105.3763
"South Tower Summit","Shark's Nose > Cirque of the Towers > Wind River Range > Wyoming",https://www.mountainproject.com/route/112097446/south-tower-summit,3.0,-1,"Trad, Alpine",5.9,2,120,42.7768,-109.2374
"Silver Surfer","Holdout > Vedauwoo > Laramie Area > Wyoming",https://www.mountainproject.com/route/105760914/silver-surfer,2.1,-1,Trad,5.9,1,70,41.15735,-105.37372
"C'est Fini","The School > Shady Side > Sinks Canyon > Lander Area > Wyoming",https://www.mountainproject.com/route/112070649/cest-fini,2.0,-1,Sport,5.9,1,60,42.73954,-108.81978
"For the Commuter","Tree Rock > Vedauwoo > Laramie Area > Wyoming",https://www.mountainproject.com/route/109653739/for-the-commuter,3.3,-1,"TR, Boulder","5.9 V0",1,12,41.13092,-105.3447
"Jam or Slam","4. Far Right (Warmup Area) > Hoback Shield > Jackson Hole > Wyoming",https://www.mountainproject.com/route/106083610/jam-or-slam,2.1,-1,Sport,5.9,1,55,43.28858,-110.53698
"Northwest Arete","Mount Wister > Avalanche Canyon > Grand Teton National Park > Wyoming",https://www.mountainproject.com/route/109280696/northwest-arete,3.2,-1,"Trad, Alpine",5.9,10,1800,43.70199,-110.81674
"Highway Patrol","Soda Fountain Wall > East Bridge Bands > Cody > Wyoming",https://www.mountainproject.com/route/108002133/highway-patrol,3.2,-1,Sport,5.9,1,90,44.5114,-109.1506
"Short Circuit","Twin Towers Wall (aka Low Voltage Wall) > Fremont Canyon > Wyoming",https://www.mountainproject.com/route/105962938/short-circuit,2.6,-1,Sport,5.9,1,50,42.46531,-106.81791
"Too Cool for Lycra","Moderate Wall > Steamboat Point > Eastern Big Horns > Wyoming",https://www.mountainproject.com/route/106074886/too-cool-for-lycra,2.8,-1,Sport,5.9,2,120,44.80861,-107.36071
"Taminah Arete","Taminah Arete > Matternought Peak > Avalanche Canyon > Grand Teton National Park > Wyoming",https://www.mountainproject.com/route/107313056/taminah-arete,3.0,-1,"Trad, Alpine",5.9,8,1000,43.71199,-110.80674
"The Bees Knees","South side of Death Canyon > Death Canyon > Grand Teton National Park > Wyoming",https://www.mountainproject.com/route/120808248/the-bees-knees,2.9,-1,"Trad, Alpine",5.9,4,390,43.654,-110.809
"Direct Southwest Face","Shark's Nose > Cirque of the Towers > Wind River Range > Wyoming",https://www.mountainproject.com/route/107950213/direct-southwest-face,3.1,-1,"Trad, Alpine",5.9,7,1100,42.7768,-109.2374
"Electric Arch (Mulvado Edge)","2. Hoback Shield Right > Hoback Shield > Jackson Hole > Wyoming",https://www.mountainproject.com/route/106083513/electric-arch-mulvado-edge,2.0,-1,Sport,5.9,1,70,43.28812,-110.53931
"The Munge-kin","Trailside Wall > Piney Creek Canyon > Eastern Big Horns > Wyoming",https://www.mountainproject.com/route/106078459/the-munge-kin,2.3,-1,Sport,5.9,1,40,44.55747,-106.93605
"Landscape Architecture","Trailside Wall > Piney Creek Canyon > Eastern Big Horns > Wyoming",https://www.mountainproject.com/route/106078463/landscape-architecture,2.3,-1,Sport,5.9,1,45,44.55747,-106.93605
Painless,"Suicide Point > Lander Area > Wyoming",https://www.mountainproject.com/route/107787104/painless,3.0,-1,Sport,5.9,1,60,42.79979,-108.9392
"Sole Searching","Waterstreak Wall > Tongue River Canyon > Eastern Big Horns > Wyoming",https://www.mountainproject.com/route/111748435/sole-searching,3.0,-1,Sport,5.9,1,110,44.84735,-107.33654
"Flash Flood","Haystack Mountain > Deep Lake Area > Wind River Range > Wyoming",https://www.mountainproject.com/route/107810843/flash-flood,2.4,-1,"Trad, Alpine",5.9,5,640,42.73004,-109.17068
"Chouinard-Frost Chimney","Disappointment Peak > Grand Teton National Park > Wyoming",https://www.mountainproject.com/route/113329910/chouinard-frost-chimney,3.0,-1,"Trad, Alpine",5.9,9,1000,43.73345,-110.79302
"My Way or the Highway","China Wall > New Fork Park > Wind River Range > Wyoming",https://www.mountainproject.com/route/108298928/my-way-or-the-highway,3.0,-1,"Trad, Alpine",5.9,3,350,43.1443,-109.859
"Right Side of History","Politically Correct Wall > Sinks Canyon > Lander Area > Wyoming",https://www.mountainproject.com/route/113929487/right-side-of-history,3.0,-1,Sport,5.9,1,60,42.7421,-108.82902
Bushwacker,"The Bridge > Fremont Canyon > Wyoming",https://www.mountainproject.com/route/107067215/bushwacker,2.6,-1,Trad,"5.9 PG13",1,100,42.47099,-106.79643
Rebirth,"1. Diamonds in the Rain > 3. Right Side (Diamonds, La Vaca, Pronghorn, Rodeo Drive) > OK Corral > Wild Iris > Lander Area > Wyoming",https://www.mountainproject.com/route/119656406/rebirth,2.1,-1,Sport,5.9,1,60,42.57293,-108.7139
"Solstice Slab","Lower Blair I > Lower Blair I, II, III, and vicinity > Blair (overview) > Vedauwoo > Laramie Area > Wyoming",https://www.mountainproject.com/route/119195490/solstice-slab,3.0,-1,Sport,5.9,1,25,41.18963,-105.38811
"North Ridge","Mt Owen > Grand Teton National Park > Wyoming",https://www.mountainproject.com/route/119229392/north-ridge,3.0,-1,"Trad, Snow, Alpine","5.9 Mod. Snow",10,5000,43.74701,-110.7973
"HDC 205","Hound Dog Crag > Ten Sleep Canyon > Wyoming",https://www.mountainproject.com/route/108246719/hdc-205,2.2,-1,Sport,5.9,1,50,44.10033,-107.28463
"The Hunter","3. McFlatus Roof Area > Hoback Shield > Jackson Hole > Wyoming",https://www.mountainproject.com/route/117066704/the-hunter,2.8,-1,Sport,5.9,1,55,43.28819,-110.53946
"West Face","Shark's Nose > Cirque of the Towers > Wind River Range > Wyoming",https://www.mountainproject.com/route/107730638/west-face,3.0,-1,"Trad, Alpine",5.9,4,500,42.7768,-109.2374
"Slim Shady","Rawlins Uplift: Underworld > Rawlins Area > Wyoming",https://www.mountainproject.com/route/109053605/slim-shady,2.5,-1,"Sport, TR",5.9,1,40,41.82282,-107.26846
"West Face-Right","Mt. Sacagawea > Titcomb Basin Area > Wind River Range > Wyoming",https://www.mountainproject.com/route/105881107/west-face-right,2.8,-1,"Trad, Alpine",5.9,1,,43.1202,-109.638
"Cardiac Arêtes","Omega  Buttress > Death Canyon > Grand Teton National Park > Wyoming",https://www.mountainproject.com/route/114467421/cardiac-aretes,2.6,-1,"Trad, Alpine",5.9,1,,43.65911,-110.81351
"Picnic Lunch Crack","Burgess Picnic Area > Eastern Big Horns > Wyoming",https://www.mountainproject.com/route/112029307/picnic-lunch-crack,2.8,-1,Trad,5.9,1,40,44.78482,-107.52727
"What The Hale","4. The Hideout > Fossil Hill > Lander Area > Wyoming",https://www.mountainproject.com/route/119696156/what-the-hale,2.5,-1,Sport,5.9,1,35,42.71352,-108.84485
"The Revolutionists.","Northeast Shoulder > Sugar Loaf > Laramie Peak Wildlife Habitat Management Area > Laramie Range > Wyoming",https://www.mountainproject.com/route/121382967/the-revolutionists,3.0,-1,Trad,5.9,1,130,41.96712,-105.39429
"Clean Cut","Trail Lake Pinnacle > Far Northern Winds > Wind River Range > Wyoming",https://www.mountainproject.com/route/113856485/clean-cut,3.0,-1,"Trad, TR, Alpine",5.9,1,40,43.43962,-109.54461
"No Kiss for Dog Lips","North Face & Northwest Corner > Devils Tower > Wyoming",https://www.mountainproject.com/route/122938827/no-kiss-for-dog-lips,3.0,-1,Trad,5.9,1,200,44.59158,-104.71485
Quacks,"The Terrace > Cody > Wyoming",https://www.mountainproject.com/route/112807944/quacks,3.0,-1,Trad,5.9,1,95,44.50892,-109.17342
"Diagonal Crack","John's Tower > Upper Blair > Blair (overview) > Vedauwoo > Laramie Area > Wyoming",https://www.mountainproject.com/route/109241979/diagonal-crack,3.0,-1,Trad,5.9,2,40,41.19678,-105.38694
"Inside Straight","End of the Road Rock > Vedauwoo > Laramie Area > Wyoming",https://www.mountainproject.com/route/112198008/inside-straight,3.0,-1,Trad,5.9,1,40,41.18484,-105.37826
"No Difficulty Here","Cliffs Beyond Difficulty > Shirley Mountains > Wyoming",https://www.mountainproject.com/route/109452339/no-difficulty-here,3.0,-1,Sport,5.9,1,82,42.14445,-106.47762
"Grin and Barrett","Pirate's Cove > Douthitt Mountain > Laramie Peak Wildlife Habitat Management Area > Laramie Range > Wyoming",https://www.mountainproject.com/route/113111390/grin-and-barrett,3.0,-1,Sport,5.9,1,60,41.99005,-105.49301
"Matt's Crack","Zephyr Wall > Kennedy Ranch Rocks > Laramie Peak Wildlife Habitat Management Area > Laramie Range > Wyoming",https://www.mountainproject.com/route/112024838/matts-crack,3.0,-1,Sport,5.9,1,60,41.99246,-105.42792
"My Last Crack","Stuffed Valley > Douthitt Mountain > Laramie Peak Wildlife Habitat Management Area > Laramie Range > Wyoming",https://www.mountainproject.com/route/108951568/my-last-crack,3.0,-1,Trad,5.9,1,60,41.99093,-105.49622
"Crossfit  Vudoo Training","The Red Clove Wall > Area 5:  Red and White Grotto Walls > Guernsey State Park > Wyoming",https://www.mountainproject.com/route/107994921/crossfit-vudoo-training,3.0,-1,Sport,5.9,1,70,42.2909,-104.7565
"Gopher Baroque","Happy Trails > Tongue River Canyon > Eastern Big Horns > Wyoming",https://www.mountainproject.com/route/106363478/gopher-baroque,3.0,-1,Sport,5.9,1,80,44.85675,-107.3927
"Mr. Rockbiter","Coke Bottle > Vedauwoo > Laramie Area > Wyoming",https://www.mountainproject.com/route/105818097/mr-rockbiter,2.3,-1,Sport,5.9,1,60,41.16185,-105.37553
"Youth Culture Killed My Dog","4. Chainsaw Willy Area > 2. Fairfield Central > Fairfield Hill > Sinks Canyon > Lander Area > Wyoming",https://www.mountainproject.com/route/105827612/youth-culture-killed-my-dog,2.2,-1,Sport,5.9,1,65,42.73985,-108.84895
"Sherm's Crack","Omega  Buttress > Death Canyon > Grand Teton National Park > Wyoming",https://www.mountainproject.com/route/118914629/sherms-crack,3.0,-1,"Trad, Alpine",5.9,1,40,43.65911,-110.81351
"Like Father, Like Son","Moderate Wall > Steamboat Point > Eastern Big Horns > Wyoming",https://www.mountainproject.com/route/106074927/like-father-like-son,2.7,-1,Sport,5.9,2,120,44.80861,-107.36071
"Almost Overhanging","Disappointment Peak > Grand Teton National Park > Wyoming",https://www.mountainproject.com/route/122902245/almost-overhanging,2.5,-1,"Trad, Alpine",5.9,7,850,43.73345,-110.79302
"Center Route","Deep Lake Dome > Deep Lake Area > Wind River Range > Wyoming",https://www.mountainproject.com/route/120287755/center-route,3.0,-1,"Trad, Alpine",5.9,1,,42.71289,-109.17086
"Wide Roof","Tombstone > Louis Lake Loop Granite > Lander Area > Wyoming",https://www.mountainproject.com/route/121488768/wide-roof,3.0,-1,Trad,5.9,1,45,42.6932,-108.89009
"Right Side of the Mitten and The Boxer","Grade II Wall > The Sandstone > Sinks Canyon > Lander Area > Wyoming",https://www.mountainproject.com/route/113970277/right-side-of-the-mitten-and-the-boxer,3.0,-1,Trad,5.9,3,350,42.7536,-108.8003
"Re-Ration Crack","Dome Peak Area > Wind River Range > Wyoming",https://www.mountainproject.com/route/114966756/re-ration-crack,3.0,-1,"Trad, Alpine",5.9,3,300,43.16932,-109.85901
"Unknown 5.9 Dihedral","Roof Ranch > Vedauwoo > Laramie Area > Wyoming",https://www.mountainproject.com/route/109652920/unknown-59-dihedral,3.0,-1,Boulder,"5.9 V-easy",1,20,41.18484,-105.37826
"Any Which Way Will Go","Central > The Bridge Bands > Cody > Wyoming",https://www.mountainproject.com/route/121272652/any-which-way-will-go,3.0,-1,Sport,5.9,1,70,44.51309,-109.15686
Unknown,"Chinatown > Vedauwoo > Laramie Area > Wyoming",https://www.mountainproject.com/route/122638734/unknown,3.0,-1,Sport,5.9,1,45,41.16117,-105.37728
"Pistol Pete","The Shooting Gallery > Rogers Canyon > Laramie Area > Wyoming",https://www.mountainproject.com/route/123028488/pistol-pete,3.0,-1,Sport,5.9,1,30,41.38606,-105.47433
Eviction,"Thunder Dome > Elmer's Rock Road Areas > Laramie Peak Wildlife Habitat Management Area > Laramie Range > Wyoming",https://www.mountainproject.com/route/119792249/eviction,3.0,-1,Sport,5.9,1,55,41.95243,-105.40738
"Right of Revert to Pervert","the Meadow Mound > Kennedy Ranch Rocks > Laramie Peak Wildlife Habitat Management Area > Laramie Range > Wyoming",https://www.mountainproject.com/route/112094311/right-of-revert-to-pervert,3.0,-1,Sport,5.9,1,80,41.9922,-105.426
"Abe's Demon","Abraham Spire > Vedauwoo > Laramie Area > Wyoming",https://www.mountainproject.com/route/107211076/abes-demon,3.0,-1,Trad,"5.9 R",1,45,41.2368,-105.4363
"Leaving Stonerville","Switchbax  Power Tower Wall > Area 5:  Red and White Grotto Walls > Guernsey State Park > Wyoming",https://www.mountainproject.com/route/108800888/leaving-stonerville,2.8,-1,Sport,5.9,1,80,42.2881,-104.75803
"Jealous of Jentry","Little Seneca Lake > Wind River Range > Wyoming",https://www.mountainproject.com/route/108406984/jealous-of-jentry,3.0,-1,"Trad, Alpine",5.9,1,45,43.06679,-109.65198
"Frenzic Fang","Frenzic Fang > New Fork Park > Wind River Range > Wyoming",https://www.mountainproject.com/route/106530131/frenzic-fang,3.0,-1,"Trad, Alpine",5.9,1,500,43.14608,-109.85604
"Open Fire","The Shooting Gallery > Rogers Canyon > Laramie Area > Wyoming",https://www.mountainproject.com/route/123053816/open-fire,3.0,-1,Sport,5.9,1,30,41.38606,-105.47433
"Laird's Layer Cake","Rainbow River Wall > Rainbow Fish Camp Rocks > Laramie Peak Region > Laramie Range > Wyoming",https://www.mountainproject.com/route/108911209/lairds-layer-cake,3.0,-1,Sport,5.9,1,45,42.18926,-105.34359
"Summer Shade","The West Canyon (South Rim) > Fremont Canyon > Wyoming",https://www.mountainproject.com/route/106881673/summer-shade,3.0,-1,Trad,5.9,1,160,42.4648,-106.828
"The Route That Goes Diagonal Up & Left Then Strait Up At The Top","Campo Nuevo > Laramie Range > Wyoming",https://www.mountainproject.com/route/107023809/the-route-that-goes-diagonal-up-left-then-strait-up-at-the-top,3.0,-1,Trad,5.9,1,70,42.32795,-105.3585
Thunderbolt,"Nautilus > Vedauwoo > Laramie Area > Wyoming",https://www.mountainproject.com/route/108317238/thunderbolt,2.4,-1,Trad,5.9,1,,41.15478,-105.37467
"Ambush Plaisir","Ambush Peak > East Fork Valley > Wind River Range > Wyoming",https://www.mountainproject.com/route/105845569/ambush-plaisir,2.6,-1,"Trad, Alpine",5.9,10,1300,42.84068,-109.33262
"Blue Condition","2. Sex God Wall > 1. Fairfield East > Fairfield Hill > Sinks Canyon > Lander Area > Wyoming",https://www.mountainproject.com/route/118638096/blue-condition,2.3,-1,Sport,5.9,1,35,42.74076,-108.84466
"Jesse has homework","The Dark Side > Rogers Canyon > Laramie Area > Wyoming",https://www.mountainproject.com/route/106762389/jesse-has-homework,2.2,-1,Sport,5.9,1,31,41.38693,-105.47874
"Deer Thirty","Second Wind Wall > Piney Creek Canyon > Eastern Big Horns > Wyoming",https://www.mountainproject.com/route/106473908/deer-thirty,2.8,-1,"Trad, Sport",5.9,1,50,44.5576,-106.93717
"High Tea For Hookers","South Prong of the Horseshoe forming Plumb Line Crag > Plumb Line Crag > 700L/Plumb Line Area > Vedauwoo > Laramie Area > Wyoming",https://www.mountainproject.com/route/107164241/high-tea-for-hookers,2.6,-1,Trad,5.9,1,70,41.15694,-105.32613
Quinoa,"Lower Tier > Plumb Line Crag > 700L/Plumb Line Area > Vedauwoo > Laramie Area > Wyoming",https://www.mountainproject.com/route/106110493/quinoa,2.1,-1,Trad,5.9,1,60,41.15629,-105.32604
"Rez Ride","1. Beef Pudding Area > 2. Fairfield Central > Fairfield Hill > Sinks Canyon > Lander Area > Wyoming",https://www.mountainproject.com/route/116216158/rez-ride,2.5,-1,Sport,5.9,1,30,42.73985,-108.84892
"Gooseberry Jam","East and Northeast Buttress Approach > Devils Tower > Wyoming",https://www.mountainproject.com/route/105926957/gooseberry-jam,2.3,-1,Trad,5.9,4,400,44.5911,-104.71442
"Great Grey Book","Ambush Peak > East Fork Valley > Wind River Range > Wyoming",https://www.mountainproject.com/route/106876254/great-grey-book,2.6,-1,"Trad, Alpine",5.9,5,900,42.84068,-109.33262
"Chunky Monkey","The Love Shack > Fremont Canyon > Wyoming",https://www.mountainproject.com/route/105828314/chunky-monkey,2.1,-1,Sport,5.9,1,45,42.46632,-106.82856
"Gopher Baroque","Snag Wall > Tongue River Canyon > Eastern Big Horns > Wyoming",https://www.mountainproject.com/route/113644109/gopher-baroque,2.6,-1,Sport,5.9,1,70,44.84712,-107.33604
"East Face, Center","Sundance Pinnacle > Cirque of the Towers > Wind River Range > Wyoming",https://www.mountainproject.com/route/121172872/east-face-center,2.6,-1,"Trad, Alpine",5.9,3,300,42.75285,-109.21064
"Church Picnic","Granite Staircase > Vedauwoo > Laramie Area > Wyoming",https://www.mountainproject.com/route/121376059/church-picnic,2.8,-1,Trad,5.9,1,80,41.17497,-105.35526
"Willy Hates Mark","The College > Green River > Wyoming",https://www.mountainproject.com/route/113605802/willy-hates-mark,2.7,-1,"Sport, Boulder","5.9 V3-4",1,,41.49531,-109.46686
"Over Easy","The College > Green River > Wyoming",https://www.mountainproject.com/route/113700845/over-easy,2.7,-1,Sport,5.9,1,45,41.49531,-109.46686
Towhee,"Snag Wall > Tongue River Canyon > Eastern Big Horns > Wyoming",https://www.mountainproject.com/route/113644096/towhee,2.7,-1,Trad,5.9,1,40,44.84712,-107.33604
"The Silver Highway","Maroon Towers Wall > Area 5:  Red and White Grotto Walls > Guernsey State Park > Wyoming",https://www.mountainproject.com/route/108625576/the-silver-highway,2.7,-1,Sport,5.9,1,70,42.2896,-104.7559
"Call Evita 911","North Face & Northwest Corner > Devils Tower > Wyoming",https://www.mountainproject.com/route/106525492/call-evita-911,2.5,-1,Trad,5.9,1,155,44.59158,-104.71485
"Manifest Destiny","Durrance Approach > Devils Tower > Wyoming",https://www.mountainproject.com/route/105874495/manifest-destiny,2.5,-1,Trad,5.9,1,155,44.58978,-104.71537
"Missionary Man","Twin Towers Wall (aka Low Voltage Wall) > Fremont Canyon > Wyoming",https://www.mountainproject.com/route/108290880/missionary-man,2.4,-1,Sport,5.9,1,40,42.46531,-106.81791
"Confronting Anxiety","Switchbax  Power Tower Wall > Area 5:  Red and White Grotto Walls > Guernsey State Park > Wyoming",https://www.mountainproject.com/route/108885176/confronting-anxiety,2.4,-1,Sport,5.9,1,75,42.2881,-104.75803
"Little Creatures","Southwest Shoulder > Devils Tower > Wyoming",https://www.mountainproject.com/route/105820008/little-creatures,2.4,-1,Trad,5.9,1,170,44.58955,-104.7163
"Boulder Hopper","Poland Hill > Vedauwoo > Laramie Area > Wyoming",https://www.mountainproject.com/route/105757180/boulder-hopper,2.1,-1,Trad,5.9,1,30,41.16696,-105.39746
"Gollum's Got a Gun","700S Boulders > Vedauwoo Bouldering > Vedauwoo > Laramie Area > Wyoming",https://www.mountainproject.com/route/105956973/gollums-got-a-gun,2.5,-1,"Trad, Boulder","5.9 V-easy",1,15,41.17027,-105.33067
"The Shortest Night","Midsummer Wall > Vedauwoo > Laramie Area > Wyoming",https://www.mountainproject.com/route/106972876/the-shortest-night,2.5,-1,Trad,5.9,1,60,41.18484,-105.37826
Cave,"South and East Faces > Devils Tower > Wyoming",https://www.mountainproject.com/route/106397694/cave,2.4,-1,Trad,5.9,2,300,44.58986,-104.71457
"Rough Drafts","Second Wind Wall > Piney Creek Canyon > Eastern Big Horns > Wyoming",https://www.mountainproject.com/route/106752489/rough-drafts,2.4,-1,Sport,5.9,1,90,44.5576,-106.93717
"Movable Feast","2. Spooky Tooth Area > 3. Fairfield West > Fairfield Hill > Sinks Canyon > Lander Area > Wyoming",https://www.mountainproject.com/route/106786388/movable-feast,2.4,-1,Sport,5.9,1,35,42.73988,-108.85106
"False Start","The Mouth (of the Clark's Fork) > Cody > Wyoming",https://www.mountainproject.com/route/121276504/false-start,2.7,-1,Trad,"5.9 PG13",1,110,44.8541,-109.30205
"Forest Creatures","Cirque of the Moon > Wind River Range > Wyoming",https://www.mountainproject.com/route/119324897/forest-creatures,2.5,-1,"Trad, Alpine","5.9 PG13",6,900,42.75523,-109.13894
"Witchy Woman","Eagle Rock > Telephone Road > Vedauwoo > Laramie Area > Wyoming",https://www.mountainproject.com/route/122932440/witchy-woman,2.5,-1,Trad,5.9,1,40,41.3183,-105.3351
"South Chimney Finish of Southeast (Buckingham) Ridge of Middle Teton","Middle Teton > Grand Teton National Park > Wyoming",https://www.mountainproject.com/route/114109074/south-chimney-finish-of-southeast-buckingham-ridge-of-middle-teton,2.5,-1,"Trad, Alpine","5.9 PG13",3,300,43.72992,-110.81132
"Narrow Bushwhack","Holdout > Vedauwoo > Laramie Area > Wyoming",https://www.mountainproject.com/route/117580740/narrow-bushwhack,2.5,-1,Trad,5.9,1,30,41.15735,-105.37372
Unknown,"His and Hers Wall > Lake Point > Ten Sleep Canyon > Wyoming",https://www.mountainproject.com/route/119219018/unknown,2.5,-1,Sport,5.9,1,30,44.15692,-107.23337
Solstice,"Main Moonstone > The Moonstone > Sweetwater Rocks > Wyoming",https://www.mountainproject.com/route/112033036/solstice,2.5,-1,Sport,5.9,2,400,42.5294,-107.51336
"Douhitt Booty","Pirate's Cove > Douthitt Mountain > Laramie Peak Wildlife Habitat Management Area > Laramie Range > Wyoming",https://www.mountainproject.com/route/113111412/douhitt-booty,2.5,-1,Trad,5.9,1,60,41.99005,-105.49301
"Belgium Chocolate Waltz","South Face Base > Sugar Loaf > Laramie Peak Wildlife Habitat Management Area > Laramie Range > Wyoming",https://www.mountainproject.com/route/108918327/belgium-chocolate-waltz,2.5,-1,Sport,5.9,1,70,41.96592,-105.39656
"Lightning Bolt Crack","Main Wall > Stonehenge > Pinedale Area > Wyoming",https://www.mountainproject.com/route/106566962/lightning-bolt-crack,2.5,-1,Trad,5.9,1,35,42.78372,-109.64649
"The Lechuguilla Lizard","Rendezvous Buttress > HightowerSW > Southwest Ridge of Reese Mtn > Reese Mountain > Laramie Peak Wildlife Habitat Management Area > Laramie Range > Wyoming",https://www.mountainproject.com/route/107481197/the-lechuguilla-lizard,2.5,-1,Sport,5.9,1,90,42.0034,-105.3742
Unremembered,"Lower Blair III > Lower Blair I, II, III, and vicinity > Blair (overview) > Vedauwoo > Laramie Area > Wyoming",https://www.mountainproject.com/route/106114515/unremembered,2.5,-1,Trad,5.9,1,70,41.19063,-105.38913
"Not Long Enough","The Maze  (aka Amaze-ing) > Vedauwoo > Laramie Area > Wyoming",https://www.mountainproject.com/route/113177846/not-long-enough,2.3,-1,Trad,5.9,1,40,41.18017,-105.32848
"Ah Fair of the Heart","Heartbreak Hotel > Vedauwoo > Laramie Area > Wyoming",https://www.mountainproject.com/route/113092988/ah-fair-of-the-heart,2.4,-1,Trad,5.9,1,60,41.18484,-105.37826
"Original Route","Sugar Bowl Tower > Green River > Wyoming",https://www.mountainproject.com/route/114095362/original-route,2.3,-1,"Sport, Aid","5.9 C0",2,150,41.54254,-109.47333
"Sunrise Iron Girl","Hot Cinnamon Wall > Area 5:  Red and White Grotto Walls > Guernsey State Park > Wyoming",https://www.mountainproject.com/route/107994526/sunrise-iron-girl,2.3,-1,Sport,5.9,1,50,42.2918,-104.7585
"Unnamed TR","Rawlins Uplift: Underworld > Rawlins Area > Wyoming",https://www.mountainproject.com/route/109053801/unnamed-tr,2.3,-1,"Sport, TR",5.9,1,30,41.82282,-107.26846
"Feminine Intuition","4. Chainsaw Willy Area > 2. Fairfield Central > Fairfield Hill > Sinks Canyon > Lander Area > Wyoming",https://www.mountainproject.com/route/119993602/feminine-intuition,2.2,-1,Sport,5.9,1,40,42.73985,-108.84895
"Smells Like Chemo","Eagle Rock > Telephone Road > Vedauwoo > Laramie Area > Wyoming",https://www.mountainproject.com/route/117553316/smells-like-chemo,2.3,-1,Trad,5.9,1,70,41.3183,-105.3351
5.9,"The Toaster Wall > Laramie Peak Wildlife Habitat Management Area > Laramie Range > Wyoming",https://www.mountainproject.com/route/118932942/59,2.3,-1,Sport,5.9,1,70,41.96419,-105.3702
"Sarah Palin's Drill","Upper Devil's Playground > Vedauwoo > Laramie Area > Wyoming",https://www.mountainproject.com/route/107368233/sarah-palins-drill,2.2,-1,Trad,5.9,1,75,41.1683,-105.3429
"A Victory 4 Same Sex","Hidden Corral > Douthitt Mountain > Laramie Peak Wildlife Habitat Management Area > Laramie Range > Wyoming",https://www.mountainproject.com/route/108951297/a-victory-4-same-sex,2.3,-1,Sport,5.9,1,60,41.99085,-105.49328
"Apocalyptic Lapse Rate","Suicide Point > Lander Area > Wyoming",https://www.mountainproject.com/route/107787121/apocalyptic-lapse-rate,2.3,-1,Trad,5.9,1,95,42.79979,-108.9392
Clueless,"Main Area > Pathfinder Marina > Fremont Canyon > Wyoming",https://www.mountainproject.com/route/107067267/clueless,2.2,-1,Trad,5.9,1,70,42.46474,-106.82766
Shorty,"Second Wind Wall > Piney Creek Canyon > Eastern Big Horns > Wyoming",https://www.mountainproject.com/route/106738565/shorty,2.0,-1,Sport,5.9,1,25,44.5576,-106.93717
"Off Center","Twin Towers Wall (aka Low Voltage Wall) > Fremont Canyon > Wyoming",https://www.mountainproject.com/route/106508684/off-center,1.9,-1,Sport,5.9,1,40,42.46531,-106.81791
William,"Holdout > Vedauwoo > Laramie Area > Wyoming",https://www.mountainproject.com/route/107228272/william,2.0,-1,Trad,5.9,3,150,41.15735,-105.37372
Facade,"Power Tower Wall > Fremont Canyon > Wyoming",https://www.mountainproject.com/route/107782706/facade,2.6,-1,Trad,5.9,4,300,42.4648,-106.828
"And Crazy Hourse","Blue Corner > Lake Point > Ten Sleep Canyon > Wyoming",https://www.mountainproject.com/route/118992000/and-crazy-hourse,2.0,-1,Sport,5.9,1,50,44.15838,-107.23283
"Casper Kid","4. Rodeo Drive > 3. Right Side (Diamonds, La Vaca, Pronghorn, Rodeo Drive) > OK Corral > Wild Iris > Lander Area > Wyoming",https://www.mountainproject.com/route/123023972/casper-kid,2.6,-1,Sport,5.9,1,60,42.57254,-108.71279
"Last route 5.9","The College > Green River > Wyoming",https://www.mountainproject.com/route/113701045/last-route-59,2.0,-1,Sport,5.9,1,40,41.49531,-109.46686
"Auctioneer Barmaid","Switchbax  Power Tower Wall > Area 5:  Red and White Grotto Walls > Guernsey State Park > Wyoming",https://www.mountainproject.com/route/108951089/auctioneer-barmaid,2.0,-1,Sport,5.9,1,55,42.2881,-104.75803
"Unknown Funky Crack","Holdout > Vedauwoo > Laramie Area > Wyoming",https://www.mountainproject.com/route/121008423/unknown-funky-crack,2.0,-1,Trad,5.9,1,30,41.15735,-105.37372
"Only Pretty As You Feel","3. The Roof Area > 3. Fairfield West > Fairfield Hill > Sinks Canyon > Lander Area > Wyoming",https://www.mountainproject.com/route/118096601/only-pretty-as-you-feel,2.0,-1,Sport,5.9,1,50,42.73974,-108.85212
"Unknown  4","Home on the Range Rock (temporary name) > Coyote Rocks > Vedauwoo > Laramie Area > Wyoming",https://www.mountainproject.com/route/106194920/unknown-4,2.0,-1,Trad,5.9,2,100,41.18484,-105.37826
"Summer's Ready When You Are","Aspen Grade Wall > Shady Side > Sinks Canyon > Lander Area > Wyoming",https://www.mountainproject.com/route/119876134/summers-ready-when-you-are,2.0,-1,Sport,5.9,1,45,42.73173,-108.83147
"South Wide Hand Crack","Country Outcrop > Vedauwoo > Laramie Area > Wyoming",https://www.mountainproject.com/route/115380653/south-wide-hand-crack,2.0,-1,"Trad, TR",5.9,1,40,41.1458,-105.3433
"Nothing's Shocking","Granite Buttress West Flank > The Granite > Sinks Canyon > Lander Area > Wyoming",https://www.mountainproject.com/route/121117027/nothings-shocking,2.0,-1,Trad,5.9,1,,42.72548,-108.87138
"Direct Northwest buttress","Shark's Nose > Cirque of the Towers > Wind River Range > Wyoming",https://www.mountainproject.com/route/107950341/direct-northwest-buttress,2.0,-1,"Trad, Alpine",5.9,7,900,42.7768,-109.2374
"10 Men With Regular Jobs","Sugar Cube > Sugar Loaf > Laramie Peak Wildlife Habitat Management Area > Laramie Range > Wyoming",https://www.mountainproject.com/route/119522837/10-men-with-regular-jobs,2.0,-1,Trad,5.9,1,100,41.96668,-105.39361
"Little Monkey","Gorilla Rock > Vedauwoo > Laramie Area > Wyoming",https://www.mountainproject.com/route/109594471/little-monkey,2.0,-1,Trad,5.9,1,30,41.14073,-105.30252
"Lead Wall","Granite Buttress > The Granite > Sinks Canyon > Lander Area > Wyoming",https://www.mountainproject.com/route/108126272/lead-wall,2.0,-1,Trad,5.9,1,,42.72575,-108.86977
"Cory's Diagonal","Lower Blair I > Lower Blair I, II, III, and vicinity > Blair (overview) > Vedauwoo > Laramie Area > Wyoming",https://www.mountainproject.com/route/107780741/corys-diagonal,2.0,-1,Trad,5.9,1,65,41.18963,-105.38811
"Sunday Morning Sunshine","Hidden Corral > Douthitt Mountain > Laramie Peak Wildlife Habitat Management Area > Laramie Range > Wyoming",https://www.mountainproject.com/route/108951499/sunday-morning-sunshine,2.0,-1,Sport,5.9,1,50,41.99085,-105.49328
"Mark's Pepper Seed N-fection","Stuffed Valley > Douthitt Mountain > Laramie Peak Wildlife Habitat Management Area > Laramie Range > Wyoming",https://www.mountainproject.com/route/108951705/marks-pepper-seed-n-fection,2.0,-1,Sport,5.9,1,35,41.99093,-105.49622
"Daylight Hibernator","Gneiss Canyon > Laramie River Canyon Rocks > Laramie Peak Wildlife Habitat Management Area > Laramie Range > Wyoming",https://www.mountainproject.com/route/108708403/daylight-hibernator,2.0,-1,Sport,5.9,1,55,41.93555,-105.40571
"Baby Bear","The Just Right Wall > HightowerSW > Southwest Ridge of Reese Mtn > Reese Mountain > Laramie Peak Wildlife Habitat Management Area > Laramie Range > Wyoming",https://www.mountainproject.com/route/107481701/baby-bear,2.0,-1,Sport,5.9,1,50,42.0045,-105.3733
"Right Slab","Party Dome > Vedauwoo > Laramie Area > Wyoming",https://www.mountainproject.com/route/105989477/right-slab,2.0,-1,Boulder,"5.9 V-easy",1,10,41.18484,-105.37826
"Left Slab","Party Dome > Vedauwoo > Laramie Area > Wyoming",https://www.mountainproject.com/route/105989462/left-slab,2.0,-1,Boulder,"5.9 V0-",1,15,41.18484,-105.37826
Betwixt,"Mount Hooker > Baptiste Lake > Wind River Range > Wyoming",https://www.mountainproject.com/route/120349251/betwixt,2.0,-1,"Trad, Alpine",5.9,6,1200,42.85573,-109.30769
"High Route","Enclosure > Grand Teton National Park > Wyoming",https://www.mountainproject.com/route/114185830/high-route,2.0,-1,"Trad, Ice, Snow, Alpine","5.9 AI2 Mod. Snow",10,,43.74139,-110.80585
"Horror Show","Reynolds Hill > Vedauwoo > Laramie Area > Wyoming",https://www.mountainproject.com/route/121376239/horror-show,2.0,-1,Trad,5.9,2,250,41.17386,-105.35395
"Sulphur Peak - North Face","Peak Lake > Wind River Range > Wyoming",https://www.mountainproject.com/route/114185748/sulphur-peak-north-face,2.0,-1,"Trad, Ice, Snow, Alpine","5.9 AI3 Easy Snow",12,1200,43.15388,-109.70483
"Turtle Rock Summit Route","Land of the Rising Moon > Vedauwoo > Laramie Area > Wyoming",https://www.mountainproject.com/route/115165960/turtle-rock-summit-route,2.0,-1,Trad,5.9,1,25,41.16616,-105.37581
"Southwest Buttress","Musembeah Peak > Baptiste Lake > Wind River Range > Wyoming",https://www.mountainproject.com/route/119171434/southwest-buttress,2.0,-1,"Trad, Alpine","5.9 PG13",6,,42.86573,-109.29769
"Canada Regional Air","Omega  Buttress > Death Canyon > Grand Teton National Park > Wyoming",https://www.mountainproject.com/route/113868131/canada-regional-air,2.0,-1,"Trad, Mixed, Ice, Snow, Alpine","5.9 WI5- M4- Easy Snow",3,300,43.65911,-110.81351
"Exploding Boy","Wine and Roses > Fremont Canyon > Wyoming",https://www.mountainproject.com/route/120876740/exploding-boy,2.0,-1,"Trad, TR",5.9,1,60,42.46729,-106.80228
"Miracle aka Missionary Position","East Corner > Upper Blair > Blair (overview) > Vedauwoo > Laramie Area > Wyoming",https://www.mountainproject.com/route/117666245/miracle-aka-missionary-position,2.0,-1,Sport,5.9,1,80,41.19426,-105.38411
"Vacillation Exit","Reynolds Hill > Vedauwoo > Laramie Area > Wyoming",https://www.mountainproject.com/route/121165162/vacillation-exit,2.0,-1,Trad,5.9,1,50,41.17386,-105.35395
"Unknown Crack to Arete","Roof Ranch > Vedauwoo > Laramie Area > Wyoming",https://www.mountainproject.com/route/109652933/unknown-crack-to-arete,2.0,-1,Boulder,"5.9 V0 R",1,35,41.18484,-105.37826
"Vigilante Justice","The Maze  (aka Amaze-ing) > Vedauwoo > Laramie Area > Wyoming",https://www.mountainproject.com/route/113177477/vigilante-justice,2.5,-1,Trad,5.9,1,40,41.18017,-105.32848
"Owl Corner","Cranner Rock South Aspect > Cranner Rock > Sweetwater Rocks > Wyoming",https://www.mountainproject.com/route/118734935/owl-corner,2.0,-1,Trad,5.9,1,50,42.56179,-107.67949
"Crack of Lightning","North Aspect > North Table Mountain > Rock Springs > Wyoming",https://www.mountainproject.com/route/119117885/crack-of-lightning,2.0,-1,Trad,5.9,1,50,41.92014,-109.02058
"West Prow","Pulpit Rock > Green River > Wyoming",https://www.mountainproject.com/route/119566634/west-prow,2.0,-1,"Trad, Aid","5.9 C3 R",1,130,41.51444,-109.40823
"Fallen Bison","Steamboat Mountain > Red Desert > Rock Springs > Wyoming",https://www.mountainproject.com/route/119780706/fallen-bison,2.0,-1,"Trad, Alpine",5.9,1,40,41.97468,-108.93952
"Coyote Pretty","Home on the Range Rock (temporary name) > Coyote Rocks > Vedauwoo > Laramie Area > Wyoming",https://www.mountainproject.com/route/110832818/coyote-pretty,2.0,-1,Sport,5.9,1,75,41.18484,-105.37826
"Old Faithful","North Aspect > North Table Mountain > Rock Springs > Wyoming",https://www.mountainproject.com/route/119129946/old-faithful,2.0,-1,Trad,5.9,1,35,41.92014,-109.02058
Ranger,"Side-by-Side > Green River > Wyoming",https://www.mountainproject.com/route/119413896/ranger,2.0,-1,Trad,5.9,1,80,41.50984,-109.40024
Arrowhead,"North Aspect > North Table Mountain > Rock Springs > Wyoming",https://www.mountainproject.com/route/119846086/arrowhead,2.0,-1,Trad,5.9,1,50,41.92014,-109.02058
"Cajun Buttress Left, Mountaineers Route","Rendezvous Mountain North Face > Jackson Hole Mountain Resort > Jackson Hole > Wyoming",https://www.mountainproject.com/route/109474506/cajun-buttress-left-mountaineers-route,2.0,-1,"Trad, Alpine",5.9,3,400,43.59684,-110.86758
"Easter Island Man Pinnacle","The Blob Buttress and Smith's Rock > Sweetwater Rocks > Wyoming",https://www.mountainproject.com/route/112320861/easter-island-man-pinnacle,2.0,-1,Trad,5.9,1,60,42.47732,-107.52236
"Host With The Most","South Fork Campground > Highway 16 granite > Eastern Big Horns > Wyoming",https://www.mountainproject.com/route/112173256/host-with-the-most,2.0,-1,"TR, Alpine",5.9,1,35,44.2781,-106.94739
"Northeast Face of Spider Peak","Spider Peak > Ross Lakes Area > Wind River Range > Wyoming",https://www.mountainproject.com/route/105955649/northeast-face-of-spider-peak,2.0,-1,"Trad, Alpine",5.9,8,1000,43.26265,-109.6546
"The Last Resort","Cirque of the Moon > Wind River Range > Wyoming",https://www.mountainproject.com/route/107419673/the-last-resort,2.0,-1,"Trad, Alpine","5.9 PG13",5,600,42.75523,-109.13894
"The Gargoyle","Upper Devil's Playground > Vedauwoo > Laramie Area > Wyoming",https://www.mountainproject.com/route/111124552/the-gargoyle,2.0,-1,Trad,5.9,1,25,41.1683,-105.3429
"Greased Lightning","The Gauntlet > Fremont Canyon > Wyoming",https://www.mountainproject.com/route/122772833/greased-lightning,2.0,-1,Trad,5.9,1,45,42.46835,-106.80406
"Pricker Buttress","Little Sandy Buttress (aka Point 11,427) > Little Sandy Valley > Wind River Range > Wyoming",https://www.mountainproject.com/route/109258233/pricker-buttress,2.0,-1,"Trad, Alpine","5.9 R",7,1500,42.7551,-109.204
"Not Worth a Continental","Area 3:  The Revolutionary Climbing Wall of Dead Man's Gulch > Guernsey State Park > Wyoming",https://www.mountainproject.com/route/107501990/not-worth-a-continental,2.0,-1,Sport,5.9,1,45,42.3228,-104.7684
"Pulling the Trust Plug","Switchbax  Power Tower Wall > Area 5:  Red and White Grotto Walls > Guernsey State Park > Wyoming",https://www.mountainproject.com/route/108840154/pulling-the-trust-plug,2.0,-1,Sport,5.9,1,85,42.2881,-104.75803
"Staged Access","Gneiss Canyon > Laramie River Canyon Rocks > Laramie Peak Wildlife Habitat Management Area > Laramie Range > Wyoming",https://www.mountainproject.com/route/108708255/staged-access,2.0,-1,Sport,5.9,1,60,41.93555,-105.40571
"route 2","Look Out Point Area > Casper Mountain > Wyoming",https://www.mountainproject.com/route/106419321/route-2,2.0,-1,"Trad, TR",5.9,1,40,42.762,-106.3299
"The Monkey Wrench Gang","Book Pages Wall > The Book Pages Mound > Southwest Ridge of Reese Mtn > Reese Mountain > Laramie Peak Wildlife Habitat Management Area > Laramie Range > Wyoming",https://www.mountainproject.com/route/108368210/the-monkey-wrench-gang,2.0,-1,Sport,5.9,1,80,42.0066,-105.3695
"The Republican Way","Krumbling Towers > Rainbow Fish Camp Rocks > Laramie Peak Region > Laramie Range > Wyoming",https://www.mountainproject.com/route/108910900/the-republican-way,2.0,-1,Sport,"5.9 R",1,200,42.1919,-105.34443
"Art & Science","Roaring Fork Rocks > Laramie Peak Region > Laramie Range > Wyoming",https://www.mountainproject.com/route/108709587/art-science,2.0,-1,Trad,5.9,1,120,42.27165,-105.49671
"Gaspee Affair","Area 3:  The Revolutionary Climbing Wall of Dead Man's Gulch > Guernsey State Park > Wyoming",https://www.mountainproject.com/route/107501946/gaspee-affair,2.0,-1,Sport,5.9,1,50,42.3228,-104.7684
"Two Skinny J's","Lower Blair I > Lower Blair I, II, III, and vicinity > Blair (overview) > Vedauwoo > Laramie Area > Wyoming",https://www.mountainproject.com/route/106800651/two-skinny-js,2.0,-1,Trad,5.9,1,75,41.18963,-105.38811
"Crack of the Dudac Direct","Lower Blair I > Lower Blair I, II, III, and vicinity > Blair (overview) > Vedauwoo > Laramie Area > Wyoming",https://www.mountainproject.com/route/106800697/crack-of-the-dudac-direct,2.0,-1,Trad,5.9,1,85,41.18963,-105.38811
Scavenger,"The Vulture > Lower Blair I, II, III, and vicinity > Blair (overview) > Vedauwoo > Laramie Area > Wyoming",https://www.mountainproject.com/route/107232840/scavenger,2.0,-1,Trad,5.9,1,50,41.19115,-105.38574
"B & E Bluff","End of the Road Rock > Vedauwoo > Laramie Area > Wyoming",https://www.mountainproject.com/route/107234396/b-e-bluff,2.0,-1,Trad,5.9,1,40,41.18484,-105.37826
"*Fool's Gold","Hightower > HightowerSW > Southwest Ridge of Reese Mtn > Reese Mountain > Laramie Peak Wildlife Habitat Management Area > Laramie Range > Wyoming",https://www.mountainproject.com/route/107481143/fools-gold,2.0,-1,Sport,5.9,1,130,42.0039,-105.3745
Temptation,"The West Canyon (South Rim) > Fremont Canyon > Wyoming",https://www.mountainproject.com/route/106881743/temptation,2.0,-1,Trad,5.9,1,40,42.4648,-106.828
Aristeia,"North Continental Tower > Continental Towers > Little Sandy Valley > Wind River Range > Wyoming",https://www.mountainproject.com/route/106074148/aristeia,2.0,-1,"Trad, Alpine","5.9 R",6,500,42.7551,-109.204
"Miter Cuts","Rendezvous Buttress > HightowerSW > Southwest Ridge of Reese Mtn > Reese Mountain > Laramie Peak Wildlife Habitat Management Area > Laramie Range > Wyoming",https://www.mountainproject.com/route/107481351/miter-cuts,2.0,-1,Sport,5.9,1,75,42.0034,-105.3742
"President's Ride","Rendezvous Buttress > HightowerSW > Southwest Ridge of Reese Mtn > Reese Mountain > Laramie Peak Wildlife Habitat Management Area > Laramie Range > Wyoming",https://www.mountainproject.com/route/107481368/presidents-ride,2.0,-1,Sport,5.9,1,75,42.0034,-105.3742
"Top rope 2","Hidden Heights > Moosehead Bay > Pinedale Area > Wyoming",https://www.mountainproject.com/route/106568579/top-rope-2,2.0,-1,TR,5.9,1,35,43.0022,-109.7857
"North Face","Shell Canyon Spire > Beef Trail Towers > Shell Canyon > Wyoming",https://www.mountainproject.com/route/106155692/north-face,2.0,-1,"Trad, Aid","5.9 C1",1,55,43.0046,-107.842
"Tall 5.9 BP","Upper Blair Boulder Problems > Upper Blair > Blair (overview) > Vedauwoo > Laramie Area > Wyoming",https://www.mountainproject.com/route/105831433/tall-59-bp,2.0,-1,Boulder,"5.9 V0-",1,,41.20411,-105.37424
"These Colors Don’t Run","Haystack > Sweetwater Rocks > Wyoming",https://www.mountainproject.com/route/123854850/these-colors-dont-run,3.0,-1,Sport,5.9,1,110,42.48246,-107.58403
"Lego Less","The Silver Dollar (A-WOL) > The Spires > Cody > Wyoming",https://www.mountainproject.com/route/123876473/lego-less,2.0,-1,Sport,5.9,1,90,44.51538,-109.17269
Wokwaipin,"The Mud Puppy > The Spires > Cody > Wyoming",https://www.mountainproject.com/route/123876693/wokwaipin,4.0,-1,Sport,5.9,1,60,44.51523,-109.17059
"The Gobie Hole","The Gobie Hole > The Spires > Cody > Wyoming",https://www.mountainproject.com/route/123876863/the-gobie-hole,2.0,-1,Trad,5.9,1,60,44.51493,-109.16985
"5.9 crack","The Mud Puppy > The Spires > Cody > Wyoming",https://www.mountainproject.com/route/123881026/59-crack,2.0,-1,Trad,5.9,1,115,44.51523,-109.17059
"Monolith, North Face, Gran Route","Monolith Cirque > Wind River Range > Wyoming",https://www.mountainproject.com/route/124269371/monolith-north-face-gran-route,3.7,-1,"Trad, Alpine",5.9,14,1800,42.76334,-109.18024
"Pulseless Stoners","The Joint > The Granite > Sinks Canyon > Lander Area > Wyoming",https://www.mountainproject.com/route/124326131/pulseless-stoners,2.0,-1,Trad,5.9,1,110,42.72912,-108.86395
"Southern Gentleman","Crazy Woman Cliff > Crazy Woman Crags > Eastern Big Horns > Wyoming",https://www.mountainproject.com/route/124353877/southern-gentleman,2.2,-1,Sport,5.9,1,50,44.17185,-106.87118
"Man O' War (Ship's Prow Pillar)","Omega  Buttress > Death Canyon > Grand Teton National Park > Wyoming",https://www.mountainproject.com/route/124364367/man-o-war-ships-prow-pillar,2.0,-1,"Trad, Alpine","5.9 PG13",6,400,43.65911,-110.81351
"Hot Dogs","Cascade Canyon > Grand Teton National Park > Wyoming",https://www.mountainproject.com/route/124432009/hot-dogs,3.0,-1,"Trad, Alpine",5.9,1,130,43.7628,-110.746
"Hassler's Right","Hassler's Hatbox > Vedauwoo > Laramie Area > Wyoming",https://www.mountainproject.com/route/124476517/hasslers-right,2.5,-1,Trad,5.9,1,80,41.16232,-105.3772
"Honey Bear","Four Bear Towers > North Fork of the Shoshone > Cody > Wyoming",https://www.mountainproject.com/route/124506937/honey-bear,3.0,-1,Sport,5.9,1,100,44.49506,-109.38532
"Jus My Magination","Aspen Grade Wall > Shady Side > Sinks Canyon > Lander Area > Wyoming",https://www.mountainproject.com/route/124514804/jus-my-magination,2.7,-1,Sport,5.9,1,90,42.73173,-108.83147
"Scare Bear","Four Bear Towers > North Fork of the Shoshone > Cody > Wyoming",https://www.mountainproject.com/route/124518585/scare-bear,3.0,-1,Sport,5.9,1,50,44.49506,-109.38532
"Crack and Field","Cracktice Rock > North Fork of the Shoshone > Cody > Wyoming",https://www.mountainproject.com/route/124533227/crack-and-field,3.0,-1,Trad,5.9,1,120,44.4589,-109.55483
Ptarmageddon,"Ptarmigan Tower > North Fork of the Shoshone > Cody > Wyoming",https://www.mountainproject.com/route/124577923/ptarmageddon,2.0,-1,Sport,5.9,1,35,44.46245,-109.5517
"Executive Officer of the Week","Excalibur > Wild Iris > Lander Area > Wyoming",https://www.mountainproject.com/route/124601347/executive-officer-of-the-week,2.5,-1,Sport,5.9,1,50,42.59789,-108.75183
"Hunger Games","Trundle Wall > Wilson Canyon > Jackson Hole > Wyoming",https://www.mountainproject.com/route/124622761/hunger-games,2.0,-1,Sport,5.9,1,65,43.43094,-110.75494
"Cups First","4. Far Right (Warmup Area) > Hoback Shield > Jackson Hole > Wyoming",https://www.mountainproject.com/route/124636846/cups-first,3.0,-1,Trad,5.9,3,200,43.28858,-110.53698
"Ghetto on a Good Day","The Bird Wall > Wilson Canyon > Jackson Hole > Wyoming",https://www.mountainproject.com/route/124690226/ghetto-on-a-good-day,2.0,-1,Sport,5.9,1,45,43.43132,-110.75484
"Pika Hunter","Index > Five Fingers > Cloud Peak Wilderness Area > Wyoming",https://www.mountainproject.com/route/124811375/pika-hunter,3.0,-1,"Trad, Alpine",5.9,7,500,44.4102,-107.20001
"The Widowmaker","Cathedral Buttress > Death Canyon > Grand Teton National Park > Wyoming",https://www.mountainproject.com/route/124825694/the-widowmaker,3.0,-1,"Trad, Alpine","5.9 R",6,,43.66063,-110.82348
"1346 AD:  the four horseman riding - hard and strong","Quarantine Wall > Wilson Canyon > Jackson Hole > Wyoming",https://www.mountainproject.com/route/124887282/1346-ad-the-four-horseman-riding-hard-and-strong,2.0,-1,Sport,5.9,1,35,43.42471,-110.7551
"Spider flake","The Hoodoos > Yellowstone National Park > Wyoming",https://www.mountainproject.com/route/124904772/spider-flake,4.0,-1,TR,5.9,1,100,44.94419,-110.71749
"Queen’s Gambit","Queen’s Gambit > North Fork > Swift Creek Canyon > Jackson Hole > Wyoming",https://www.mountainproject.com/route/124948255/queens-gambit,4.0,-1,Sport,5.9,1,55,42.75412,-110.87572
"Northeast Face","West Sheep Mountain > North Fork of the Shoshone > Cody > Wyoming",https://www.mountainproject.com/route/125009371/northeast-face,2.0,-1,Trad,"5.9 R",4,200,44.43837,-109.34362
"Mixed Breed","Tash's Lookout > Vedauwoo > Laramie Area > Wyoming",https://www.mountainproject.com/route/125120219/mixed-breed,2.0,-1,Trad,5.9,1,30,41.22151,-105.32275
"That Route","South Branch Crow Creek > Vedauwoo > Laramie Area > Wyoming",https://www.mountainproject.com/route/125120843/that-route,3.0,-1,"Trad, TR",5.9,1,30,41.21021,-105.35665
"East Buttress Route","Haystack Mountain > Deep Lake Area > Wind River Range > Wyoming",https://www.mountainproject.com/route/125123737/east-buttress-route,4.0,-1,"Trad, Alpine",5.9,7,900,42.73004,-109.17068
