Route,Location,URL,"Avg Stars","Your Stars","Route Type",Rating,Pitches,Length,"Area Latitude","Area Longitude"
Vesper,"The Grail > Lime Kiln Canyon > The Arizona Strip > Northern Arizona > Arizona",https://www.mountainproject.com/route/108781068/vesper,3.9,-1,Sport,5.12b,2,160,36.65703,-114.00822
[Redacted],"West Side > Winslow Wall > East Clear Creek > Winslow- Hwy’s 87 & 99 Corridors > Northern Arizona > Arizona",https://www.mountainproject.com/route/106186632/redacted,3.9,-1,Sport,5.12b,1,90,34.94209,-110.6632
"Hard Day at The Orifice","Orifice Wall > The Fortress > 8 - Summit Crags > Mount Lemmon (Catalina Highway) > Mount Lemmon (Santa Catalina Mountains) > Southern Arizona > Arizona",https://www.mountainproject.com/route/105794908/hard-day-at-the-orifice,3.8,-1,Sport,5.12b,1,60,32.43251,-110.79804
Mentor,"Mentor Cave > Virgin River Gorge > The Arizona Strip > Northern Arizona > Arizona",https://www.mountainproject.com/route/105832283/mentor,3.9,-1,Sport,5.12b,1,60,36.92085,-113.85714
"Sentenced To Hang","Jailhouse Rock > Prison Camp (Gordon Hirabayashi) Area > 1 -  Lower Highway > Mount Lemmon (Catalina Highway) > Mount Lemmon (Santa Catalina Mountains) > Southern Arizona > Arizona",https://www.mountainproject.com/route/105738740/sentenced-to-hang,3.1,-1,Sport,5.12b,1,50,32.33325,-110.72501
"Total Depravity","The Grail > Lime Kiln Canyon > The Arizona Strip > Northern Arizona > Arizona",https://www.mountainproject.com/route/111402828/total-depravity,3.6,-1,Sport,5.12b,2,165,36.65703,-114.00822
"Bored Of Inquiry","Swiss Wall > Jacks Canyon > Winslow- Hwy’s 87 & 99 Corridors > Northern Arizona > Arizona",https://www.mountainproject.com/route/106028113/bored-of-inquiry,3.0,-1,Sport,5.12b,1,70,34.75327,-111.06506
"God Walks Among Us","(I) Way Gone Wall > The Pit (aka Le Petit Verdon) > Flagstaff Area > Northern Arizona > Arizona",https://www.mountainproject.com/route/105817360/god-walks-among-us,2.8,-1,Sport,5.12b,1,45,35.12936,-111.59719
"Burning Point","South End > Peaks Crag > Peaks Crag > San Francisco Peaks > Flagstaff Area > Northern Arizona > Arizona",https://www.mountainproject.com/route/110519771/burning-point,3.8,-1,Sport,5.12b,1,80,35.30643,-111.70566
"Kindest Cut","Main Wall > Jacks Canyon > Winslow- Hwy’s 87 & 99 Corridors > Northern Arizona > Arizona",https://www.mountainproject.com/route/106200773/kindest-cut,3.4,-1,Sport,5.12b,1,65,34.75487,-111.06333
"War Of The Worlds","Middle Earth > 5 - Windy Ridge > Mount Lemmon (Catalina Highway) > Mount Lemmon (Santa Catalina Mountains) > Southern Arizona > Arizona",https://www.mountainproject.com/route/107628570/war-of-the-worlds,3.8,-1,Sport,5.12b,2,180,32.3804,-110.70245
"Alternative Fact Checking","The Expansion Pack. > Crags Against Humanity > 1 -  Lower Highway > Mount Lemmon (Catalina Highway) > Mount Lemmon (Santa Catalina Mountains) > Southern Arizona > Arizona",https://www.mountainproject.com/route/112781233/alternative-fact-checking,3.2,-1,Sport,5.12b,1,90,32.32426,-110.70679
"Metro Line","North End > Peaks Crag > Peaks Crag > San Francisco Peaks > Flagstaff Area > Northern Arizona > Arizona",https://www.mountainproject.com/route/110519768/metro-line,3.0,-1,Sport,5.12b,1,60,35.30713,-111.70502
"The Way of the Peaceful Warrior","The Grail > Lime Kiln Canyon > The Arizona Strip > Northern Arizona > Arizona",https://www.mountainproject.com/route/113867270/the-way-of-the-peaceful-warrior,3.3,-1,Sport,5.12b,1,100,36.65703,-114.00822
"""Southern Revival"" South Face of Oak Creek Spire","Oak Creek Spire > Oak Creek Spire Area > Village of Oak Creek > Sedona Area > Northern Arizona > Arizona",https://www.mountainproject.com/route/108792090/southern-revival-south-face-of-oak-creek-spire,4.0,-1,Trad,5.12b,6,560,34.80292,-111.72643
"Black Sunshine","Tufa City > The Homestead > Central Arizona > Arizona",https://www.mountainproject.com/route/106596994/black-sunshine,3.3,-1,Sport,5.12b,1,75,33.17567,-110.78048
"Air Monsters","North Fin > 4 - Windy Point West > Mount Lemmon (Catalina Highway) > Mount Lemmon (Santa Catalina Mountains) > Southern Arizona > Arizona",https://www.mountainproject.com/route/105832446/air-monsters,3.1,-1,Sport,5.12b,1,50,32.36755,-110.71953
"Way 'Stead","Tufa City > The Homestead > Central Arizona > Arizona",https://www.mountainproject.com/route/107342323/way-stead,3.3,-1,Sport,5.12b,1,,33.17567,-110.78048
"Tainted Love","3. The Right Wall > The Waterfall > Oak Creek Canyon > Northern Arizona > Arizona",https://www.mountainproject.com/route/106462104/tainted-love,3.3,-1,Trad,5.12b,1,100,34.93143,-111.73278
"Critics Choice","Pinhead Wall > Hairpin Turn Area > 1 -  Lower Highway > Mount Lemmon (Catalina Highway) > Mount Lemmon (Santa Catalina Mountains) > Southern Arizona > Arizona",https://www.mountainproject.com/route/107390283/critics-choice,3.0,-1,Sport,5.12b,1,65,32.31622,-110.74202
"Bouldering 101","Lower Wall > Raycreation Area > 7 - Upper Highway > Mount Lemmon (Catalina Highway) > Mount Lemmon (Santa Catalina Mountains) > Southern Arizona > Arizona",https://www.mountainproject.com/route/106829955/bouldering-101,2.5,-1,Sport,5.12b,1,40,32.42488,-110.74678
"Sail Away","The Prow > Paradise Forks > Sycamore Canyon > Northern Arizona > Arizona",https://www.mountainproject.com/route/106011716/sail-away,3.1,-1,Trad,5.12b,1,,35.13763,-112.02421
Heelium,"5 - Bishop > Chessman Area > 2 - Bear Canyon > Mount Lemmon (Catalina Highway) > Mount Lemmon (Santa Catalina Mountains) > Southern Arizona > Arizona",https://www.mountainproject.com/route/107165706/heelium,2.9,-1,Sport,5.12b,1,60,32.36032,-110.71983
"Homeostasis Extension","The Grail > Lime Kiln Canyon > The Arizona Strip > Northern Arizona > Arizona",https://www.mountainproject.com/route/121457057/homeostasis-extension,3.9,-1,Sport,5.12b,1,,36.65703,-114.00822
Watusi,"Davidson Wall > Paradise Forks > Sycamore Canyon > Northern Arizona > Arizona",https://www.mountainproject.com/route/105850781/watusi,3.7,-1,Trad,"5.12b PG13",1,60,35.1381,-112.0282
"Heart Shaped Box","Main Wall > Jacks Canyon > Winslow- Hwy’s 87 & 99 Corridors > Northern Arizona > Arizona",https://www.mountainproject.com/route/106276635/heart-shaped-box,2.9,-1,Sport,5.12b,1,60,34.75487,-111.06333
"The Good, the Bad & the Ugly (GBU)","Middle Section > Granite Mountain > **Prescott Area > Central Arizona > Arizona",https://www.mountainproject.com/route/106019568/the-good-the-bad-the-ugly-gbu,4.0,-1,Trad,"5.12b PG13",3,350,34.62908,-112.56665
"Ultraviolet Ammunition","2. East End Wall > South Side > Volunteer Canyon (The Cwm) > Sycamore Canyon > Northern Arizona > Arizona",https://www.mountainproject.com/route/109515571/ultraviolet-ammunition,3.6,-1,Trad,5.12b,1,105,35.11985,-111.93423
"Twist of Fate","Ultimates West > The Ultimates > Upper Pumphouse Wash > Flagstaff Area > Northern Arizona > Arizona",https://www.mountainproject.com/route/105817148/twist-of-fate,3.6,-1,Trad,"5.12b PG13",3,215,35.03512,-111.71591
"From the Corner to the Block","The Brick House > Marg's Draw > Sedona > Sedona Area > Northern Arizona > Arizona",https://www.mountainproject.com/route/111605988/from-the-corner-to-the-block,4.0,-1,Sport,5.12b,1,90,34.85999,-111.74832
"Flogging the Bishop","5 - Bishop > Chessman Area > 2 - Bear Canyon > Mount Lemmon (Catalina Highway) > Mount Lemmon (Santa Catalina Mountains) > Southern Arizona > Arizona",https://www.mountainproject.com/route/107381229/flogging-the-bishop,2.8,-1,Sport,5.12b,1,65,32.36032,-110.71983
"Return From the Great Mormon Experience","The Pond > Queen Creek Canyon > Central Arizona > Arizona",https://www.mountainproject.com/route/108044338/return-from-the-great-mormon-experience,3.4,-1,Sport,5.12b,1,75,33.3104,-111.06756
"In a Blunt","4. The Double Clutching Wall > The Waterfall > Oak Creek Canyon > Northern Arizona > Arizona",https://www.mountainproject.com/route/107968823/in-a-blunt,3.3,-1,Trad,5.12b,1,110,34.93073,-111.73254
"The Crossing","The Helmet > 5 - Windy Ridge > Mount Lemmon (Catalina Highway) > Mount Lemmon (Santa Catalina Mountains) > Southern Arizona > Arizona",https://www.mountainproject.com/route/106744073/the-crossing,2.9,-1,Sport,5.12b,1,40,32.37846,-110.70391
Irresistible,"Middle Earth > 5 - Windy Ridge > Mount Lemmon (Catalina Highway) > Mount Lemmon (Santa Catalina Mountains) > Southern Arizona > Arizona",https://www.mountainproject.com/route/106372672/irresistible,3.0,-1,Sport,5.12b,1,70,32.3804,-110.70245
"Friend of the Devil","Devil’s Head > Mt. Elden Crags > Flagstaff Area > Northern Arizona > Arizona",https://www.mountainproject.com/route/106172724/friend-of-the-devil,3.8,-1,Sport,5.12b,1,60,35.2358,-111.6107
"The Last Gentleman","Hook Wall > Euro Dog Valley > Queen Creek Canyon > Central Arizona > Arizona",https://www.mountainproject.com/route/107470405/the-last-gentleman,3.8,-1,Sport,5.12b,1,65,33.30387,-111.06193
"Running Man","(J) The Oven > The Pit (aka Le Petit Verdon) > Flagstaff Area > Northern Arizona > Arizona",https://www.mountainproject.com/route/106141642/running-man,2.9,-1,Sport,5.12b,1,40,35.1294,-111.59711
Rain,"Andy Cook Wall > 2 - Bear Canyon > Mount Lemmon (Catalina Highway) > Mount Lemmon (Santa Catalina Mountains) > Southern Arizona > Arizona",https://www.mountainproject.com/route/108673662/rain,3.1,-1,Sport,5.12b,1,70,32.35993,-110.71919
"Special Brew","IreIand Main Wall > Ireland > 7 - Upper Highway > Mount Lemmon (Catalina Highway) > Mount Lemmon (Santa Catalina Mountains) > Southern Arizona > Arizona",https://www.mountainproject.com/route/108283670/special-brew,2.7,-1,Sport,5.12b,1,50,32.42133,-110.74968
Crackenstein,"7 - Pumpkin Patch > The Farmhouse > Southern Arizona > Arizona",https://www.mountainproject.com/route/116074282/crackenstein,3.2,-1,Sport,5.12b,1,70,31.69488,-110.43142
"Bloody Mary Extension","Blasphemy Wall > Virgin River Gorge > The Arizona Strip > Northern Arizona > Arizona",https://www.mountainproject.com/route/120152105/bloody-mary-extension,3.5,-1,Sport,5.12b,1,125,36.92112,-113.85649
"Stars and Stripes","Main Wall Right > High Rappel Area > Granite Gardens > Granite Dells > **Prescott Area > Central Arizona > Arizona",https://www.mountainproject.com/route/116780966/stars-and-stripes,3.5,-1,Sport,5.12b,1,90,34.60703,-112.42091
"The Brotherhood","West Side > Winslow Wall > East Clear Creek > Winslow- Hwy’s 87 & 99 Corridors > Northern Arizona > Arizona",https://www.mountainproject.com/route/107600304/the-brotherhood,2.9,-1,Sport,5.12b,1,90,34.94209,-110.6632
"Randy Cook Lives!","Andy Cook Wall > 2 - Bear Canyon > Mount Lemmon (Catalina Highway) > Mount Lemmon (Santa Catalina Mountains) > Southern Arizona > Arizona",https://www.mountainproject.com/route/108625479/randy-cook-lives,3.0,-1,Sport,5.12b,1,80,32.35993,-110.71919
"Runaway Train","Oaklands > Mt. Elden Crags > Flagstaff Area > Northern Arizona > Arizona",https://www.mountainproject.com/route/107350701/runaway-train,3.4,-1,Sport,5.12b,1,70,35.2458,-111.62078
"Lil' Smokie's Wild Ride","Ultimates West > The Ultimates > Upper Pumphouse Wash > Flagstaff Area > Northern Arizona > Arizona",https://www.mountainproject.com/route/119222513/lil-smokies-wild-ride,3.3,-1,Trad,5.12b,1,70,35.03512,-111.71591
"Evil is Never Dry","3 - Spine Cave > The Dry Canyon > Southern Arizona > Arizona",https://www.mountainproject.com/route/113771092/evil-is-never-dry,3.3,-1,Sport,5.12b,1,80,31.7862,-110.40666
"Tomorrow is Today","Chimney Rock > 2 - Bear Canyon > Mount Lemmon (Catalina Highway) > Mount Lemmon (Santa Catalina Mountains) > Southern Arizona > Arizona",https://www.mountainproject.com/route/106581400/tomorrow-is-today,2.9,-1,Sport,5.12b,1,75,32.36917,-110.70446
Remus,"The Pantheon > Colosseum > 1 -  Lower Highway > Mount Lemmon (Catalina Highway) > Mount Lemmon (Santa Catalina Mountains) > Southern Arizona > Arizona",https://www.mountainproject.com/route/122315673/remus,3.4,-1,Sport,5.12b,1,80,32.32193,-110.71141
Palmistry,"The Dodger > South Mesa > Cathedral Rock Area > Sedona > Sedona Area > Northern Arizona > Arizona",https://www.mountainproject.com/route/117666188/palmistry,3.5,-1,Trad,5.12b,1,95,34.81777,-111.79202
"Serial Driller","Lower Sky Valley > Sky Valley > 6 - Mid-Mountain > Mount Lemmon (Catalina Highway) > Mount Lemmon (Santa Catalina Mountains) > Southern Arizona > Arizona",https://www.mountainproject.com/route/106021017/serial-driller,3.0,-1,Sport,5.12b,1,65,32.40293,-110.69399
"Major Tom","West Point > Stewart Pocket > Central Arizona > Arizona",https://www.mountainproject.com/route/111527975/major-tom,3.5,-1,Trad,5.12b,1,70,34.22211,-111.27135
Redneck,"Planet Earth Wall > Virgin River Gorge > The Arizona Strip > Northern Arizona > Arizona",https://www.mountainproject.com/route/109793632/redneck,3.0,-1,Sport,5.12b,1,65,36.92091,-113.85698
"Americans at Arapiles","The Prow > Paradise Forks > Sycamore Canyon > Northern Arizona > Arizona",https://www.mountainproject.com/route/114366581/americans-at-arapiles,3.1,-1,Sport,5.12b,1,50,35.13763,-112.02421
Barracuda,"West Side > Winslow Wall > East Clear Creek > Winslow- Hwy’s 87 & 99 Corridors > Northern Arizona > Arizona",https://www.mountainproject.com/route/109197468/barracuda,3.0,-1,Sport,5.12b,1,100,34.94209,-110.6632
Morbius,"2 - Shallow End > The Dry Canyon > Southern Arizona > Arizona",https://www.mountainproject.com/route/106441116/morbius,3.1,-1,Sport,5.12b,1,45,31.79293,-110.40144
"A Faint Horizon","Main Wall > Higher Solitude > Solitude Canyon > Mt. Elden Crags > Flagstaff Area > Northern Arizona > Arizona",https://www.mountainproject.com/route/107454121/a-faint-horizon,2.7,-1,Sport,5.12b,1,100,35.24114,-111.61758
"Empty Nest Syndrome","5 - Bee Cave > The Dry Canyon > Southern Arizona > Arizona",https://www.mountainproject.com/route/113705991/empty-nest-syndrome,3.2,-1,Sport,5.12b,1,100,31.79397,-110.39949
"Case Study","Main Wall > The Asylum > Jacks Canyon > Winslow- Hwy’s 87 & 99 Corridors > Northern Arizona > Arizona",https://www.mountainproject.com/route/106824751/case-study,3.2,-1,Sport,5.12b,1,60,34.74779,-111.07682
Metro,"Honeymooner's Wall > 3 - Windy Point East > Mount Lemmon (Catalina Highway) > Mount Lemmon (Santa Catalina Mountains) > Southern Arizona > Arizona",https://www.mountainproject.com/route/106041855/metro,3.2,-1,Sport,5.12b,1,100,32.36712,-110.71485
"Up the 9","Oaklands > Mt. Elden Crags > Flagstaff Area > Northern Arizona > Arizona",https://www.mountainproject.com/route/107350814/up-the-9,3.2,-1,"Trad, Sport",5.12b,1,65,35.2458,-111.62078
"Get On Up","East Side > Winslow Wall > East Clear Creek > Winslow- Hwy’s 87 & 99 Corridors > Northern Arizona > Arizona",https://www.mountainproject.com/route/107595610/get-on-up,3.0,-1,Sport,5.12b,1,,34.94209,-110.6632
Naysayers,"The Grail > Lime Kiln Canyon > The Arizona Strip > Northern Arizona > Arizona",https://www.mountainproject.com/route/121989838/naysayers,3.0,-1,Sport,5.12b,1,155,36.65703,-114.00822
"Just Another G","1. The Left Wall > The Waterfall > Oak Creek Canyon > Northern Arizona > Arizona",https://www.mountainproject.com/route/110199958/just-another-g,3.0,-1,Trad,5.12b,1,110,34.9318,-111.73386
"Finger Prince","Jailhouse Rock > Prison Camp (Gordon Hirabayashi) Area > 1 -  Lower Highway > Mount Lemmon (Catalina Highway) > Mount Lemmon (Santa Catalina Mountains) > Southern Arizona > Arizona",https://www.mountainproject.com/route/105927456/finger-prince,2.2,-1,Sport,5.12b,1,40,32.33325,-110.72501
Overpass,"Right Wall > Ricochet > San Francisco Peaks > Flagstaff Area > Northern Arizona > Arizona",https://www.mountainproject.com/route/120555818/overpass,3.0,-1,Sport,5.12b,1,50,35.29457,-111.64605
"Farcical Aquatic Ceremony","The Back Walls > Lime Kiln Canyon > The Arizona Strip > Northern Arizona > Arizona",https://www.mountainproject.com/route/112259607/farcical-aquatic-ceremony,2.0,-1,Sport,5.12b,1,50,36.6569,-114.00667
"Lakshmi Singh","2. The Main Amphitheater- Fall Wall > The Waterfall > Oak Creek Canyon > Northern Arizona > Arizona",https://www.mountainproject.com/route/108548824/lakshmi-singh,3.2,-1,Trad,5.12b,1,100,34.93186,-111.73298
"Calcite Cruiser","Tufa City > The Homestead > Central Arizona > Arizona",https://www.mountainproject.com/route/106649783/calcite-cruiser,2.7,-1,Sport,5.12b,1,55,33.17567,-110.78048
"Frequent Flyer","Cracker Jack Cliffs > Jacks Canyon > Winslow- Hwy’s 87 & 99 Corridors > Northern Arizona > Arizona",https://www.mountainproject.com/route/105800771/frequent-flyer,2.2,-1,Sport,5.12b,1,,34.75582,-111.06739
"Cock and Bull","The Coop > 3 - The Bowling Alley > The Farmhouse > Southern Arizona > Arizona",https://www.mountainproject.com/route/116795330/cock-and-bull,2.4,-1,Sport,5.12b,1,42,31.69142,-110.42904
"Pistols at Dawn","6 - Swallow Wall > The Dry Canyon > Southern Arizona > Arizona",https://www.mountainproject.com/route/116638128/pistols-at-dawn,3.0,-1,Sport,5.12b,1,65,31.7862,-110.40666
"Trend Generally Upwards","Neptune > Reef of Rocks > 7 - Upper Highway > Mount Lemmon (Catalina Highway) > Mount Lemmon (Santa Catalina Mountains) > Southern Arizona > Arizona",https://www.mountainproject.com/route/112372390/trend-generally-upwards,2.8,-1,Sport,5.12b,1,110,32.46112,-110.78115
"The Whiner","Right Section > Granite Mountain > **Prescott Area > Central Arizona > Arizona",https://www.mountainproject.com/route/105981083/the-whiner,3.0,-1,Trad,"5.12b PG13",3,250,34.629,-112.56564
Phantom,"Atlantis North Side > Atlantis > Queen Creek Canyon > Central Arizona > Arizona",https://www.mountainproject.com/route/106734067/phantom,2.8,-1,Sport,5.12b,1,90,33.30561,-111.07634
"Facets of the Mined","Red Diamond Wall > 6 - Mid-Mountain > Mount Lemmon (Catalina Highway) > Mount Lemmon (Santa Catalina Mountains) > Southern Arizona > Arizona",https://www.mountainproject.com/route/114345619/facets-of-the-mined,2.9,-1,Sport,5.12b,1,50,32.4033,-110.6912
"Electric Shitstorm","South End > Peaks Crag > Peaks Crag > San Francisco Peaks > Flagstaff Area > Northern Arizona > Arizona",https://www.mountainproject.com/route/119483006/electric-shitstorm,3.0,-1,Trad,5.12b,1,90,35.30643,-111.70566
"What are you on?","1. The Left Wall > The Waterfall > Oak Creek Canyon > Northern Arizona > Arizona",https://www.mountainproject.com/route/108010107/what-are-you-on,3.0,-1,Trad,5.12b,1,110,34.9318,-111.73386
"Minor Threat","(I) Way Gone Wall > The Pit (aka Le Petit Verdon) > Flagstaff Area > Northern Arizona > Arizona",https://www.mountainproject.com/route/108241668/minor-threat,2.8,-1,Sport,5.12b,1,30,35.12936,-111.59719
"Shake Dog Shake","(A) Nose Rock > The Pit (aka Le Petit Verdon) > Flagstaff Area > Northern Arizona > Arizona",https://www.mountainproject.com/route/106403191/shake-dog-shake,2.7,-1,Sport,5.12b,1,25,35.12957,-111.59894
"Death From Above","North Buttress > The Homestead > Central Arizona > Arizona",https://www.mountainproject.com/route/107627074/death-from-above,2.7,-1,Sport,5.12b,1,90,33.17361,-110.77796
Sleepwalker,"East Side > Winslow Wall > East Clear Creek > Winslow- Hwy’s 87 & 99 Corridors > Northern Arizona > Arizona",https://www.mountainproject.com/route/121817078/sleepwalker,3.0,-1,Sport,5.12b,1,90,34.94209,-110.6632
"Richard Parker","East Side > Winslow Wall > East Clear Creek > Winslow- Hwy’s 87 & 99 Corridors > Northern Arizona > Arizona",https://www.mountainproject.com/route/118061046/richard-parker,3.0,-1,Sport,5.12b,1,80,34.94209,-110.6632
Excalibur,"Overlooked > Oak Creek Canyon Overlook > Flagstaff Area > Northern Arizona > Arizona",https://www.mountainproject.com/route/117003696/excalibur,3.0,-1,"Sport, TR",5.12b,1,50,35.0346,-111.72234
"Bat Outta Hell","7. West End Wall > South Side > Volunteer Canyon (The Cwm) > Sycamore Canyon > Northern Arizona > Arizona",https://www.mountainproject.com/route/117723916/bat-outta-hell,3.0,-1,Trad,5.12b,1,100,35.1187,-111.93604
"Rag Doll","Yakov Wall > Euro Dog Valley > Queen Creek Canyon > Central Arizona > Arizona",https://www.mountainproject.com/route/118677017/rag-doll,3.0,-1,Sport,5.12b,1,,33.3017,-111.06187
"Never Bitter","High Life Wall > Jacks Canyon > Winslow- Hwy’s 87 & 99 Corridors > Northern Arizona > Arizona",https://www.mountainproject.com/route/114503509/never-bitter,3.0,-1,Sport,5.12b,1,80,34.75412,-111.06837
"One Day Late","The Beach > Upper Devils Canyon > Queen Creek Canyon > Central Arizona > Arizona",https://www.mountainproject.com/route/112528260/one-day-late,3.0,-1,Sport,5.12b,1,50,33.3046,-111.03837
"Number 2","River Bend Right > The Promised Land > **Prescott Area > Central Arizona > Arizona",https://www.mountainproject.com/route/111603978/number-2,3.0,-1,Sport,5.12b,1,50,34.81474,-112.41006
Orangello,"West Side > Winslow Wall > East Clear Creek > Winslow- Hwy’s 87 & 99 Corridors > Northern Arizona > Arizona",https://www.mountainproject.com/route/106179993/orangello,3.0,-1,Sport,5.12b,1,,34.94209,-110.6632
"Stop Making Sense","Neptune > Reef of Rocks > 7 - Upper Highway > Mount Lemmon (Catalina Highway) > Mount Lemmon (Santa Catalina Mountains) > Southern Arizona > Arizona",https://www.mountainproject.com/route/107251769/stop-making-sense,3.0,-1,Trad,5.12b,1,150,32.46112,-110.78115
"Free Range","The Coop > Lower Devil's East  (LDE) > Lower Devil's Canyon > Queen Creek Canyon > Central Arizona > Arizona",https://www.mountainproject.com/route/106971715/free-range,3.0,-1,Trad,5.12b,1,80,33.2767,-111.02595
"Visceral Pull","Neptune > Reef of Rocks > 7 - Upper Highway > Mount Lemmon (Catalina Highway) > Mount Lemmon (Santa Catalina Mountains) > Southern Arizona > Arizona",https://www.mountainproject.com/route/108302041/visceral-pull,2.8,-1,Trad,5.12b,1,125,32.46112,-110.78115
"Lost Nuts","Pinnacle Peak > Pinnacle Peak > **Phoenix Areas > Central Arizona > Arizona",https://www.mountainproject.com/route/111882587/lost-nuts,2.8,-1,Trad,5.12b,1,70,33.72624,-111.86334
"Johnny on the Spot","2 - Shallow End > The Dry Canyon > Southern Arizona > Arizona",https://www.mountainproject.com/route/106111229/johnny-on-the-spot,2.8,-1,Sport,5.12b,1,50,31.79293,-110.40144
"Log Jammin'","Bowling Alley Main Wall > 3 - The Bowling Alley > The Farmhouse > Southern Arizona > Arizona",https://www.mountainproject.com/route/118836349/log-jammin,2.4,-1,Sport,5.12b,1,60,31.69154,-110.42929
"Hold or Fold","Casino Cliffs > Jacks Canyon > Winslow- Hwy’s 87 & 99 Corridors > Northern Arizona > Arizona",https://www.mountainproject.com/route/106819329/hold-or-fold,2.4,-1,Sport,5.12b,1,40,34.75623,-111.06529
"Walking the Plank","Cracker Jack Cliffs > Jacks Canyon > Winslow- Hwy’s 87 & 99 Corridors > Northern Arizona > Arizona",https://www.mountainproject.com/route/105863669/walking-the-plank,2.6,-1,Sport,5.12b,1,,34.75582,-111.06739
"Honed Improvement","Main Wall > Jacks Canyon > Winslow- Hwy’s 87 & 99 Corridors > Northern Arizona > Arizona",https://www.mountainproject.com/route/106539896/honed-improvement,2.2,-1,Sport,5.12b,1,50,34.75487,-111.06333
"The Fish","Main Wall > La Milagrosa Canyon > Southern Arizona > Arizona",https://www.mountainproject.com/route/108536820/the-fish,2.1,-1,Sport,5.12b,1,60,32.29825,-110.71317
"Black in the Day","2. The Main Amphitheater- Fall Wall > The Waterfall > Oak Creek Canyon > Northern Arizona > Arizona",https://www.mountainproject.com/route/112876640/black-in-the-day,2.5,-1,Trad,5.12b,1,100,34.93186,-111.73298
I.W.S.,"The Grail > Lime Kiln Canyon > The Arizona Strip > Northern Arizona > Arizona",https://www.mountainproject.com/route/118756275/iws,2.5,-1,Sport,5.12b,1,170,36.65703,-114.00822
"Just Can't Get Any","The Pond > Queen Creek Canyon > Central Arizona > Arizona",https://www.mountainproject.com/route/107355359/just-cant-get-any,2.4,-1,Sport,"5.12b PG13",1,30,33.3104,-111.06756
"Semi Bluff All In (Extension)","Rough Rider Wall > Rough Rider Zone > The Homestead > Central Arizona > Arizona",https://www.mountainproject.com/route/108127392/semi-bluff-all-in-extension,2.2,-1,Sport,5.12b,1,115,33.17392,-110.77949
"Just my Imagination","The Planetarium > West Twin Butte > Twin Butte > Sedona > Sedona Area > Northern Arizona > Arizona",https://www.mountainproject.com/route/107408110/just-my-imagination,2.5,-1,Sport,5.12b,1,80,34.83432,-111.76848
"Baby Seal","West Side > Winslow Wall > East Clear Creek > Winslow- Hwy’s 87 & 99 Corridors > Northern Arizona > Arizona",https://www.mountainproject.com/route/109227691/baby-seal,2.5,-1,Sport,5.12b,1,110,34.94209,-110.6632
"Mad Skilz","Skillsaw Crag > 5 - Windy Ridge > Mount Lemmon (Catalina Highway) > Mount Lemmon (Santa Catalina Mountains) > Southern Arizona > Arizona",https://www.mountainproject.com/route/106775729/mad-skilz,2.5,-1,Sport,5.12b,1,80,32.3828,-110.69338
Barracuda,"Solitude Wall > Solitude Canyon > Mt. Elden Crags > Flagstaff Area > Northern Arizona > Arizona",https://www.mountainproject.com/route/112099573/barracuda,2.5,-1,Sport,5.12b,1,60,35.23893,-111.62114
"Ad Hoc","Hawk Rock > 4 - Windy Point West > Mount Lemmon (Catalina Highway) > Mount Lemmon (Santa Catalina Mountains) > Southern Arizona > Arizona",https://www.mountainproject.com/route/110617021/ad-hoc,2.5,-1,Sport,5.12b,1,50,32.36916,-110.71862
"Sacrificial Fox","Slate Nation > The Homestead > Central Arizona > Arizona",https://www.mountainproject.com/route/107426268/sacrificial-fox,2.5,-1,Sport,5.12b,1,50,33.17202,-110.78128
Hijacked,"Cracker Jack Cliffs > Jacks Canyon > Winslow- Hwy’s 87 & 99 Corridors > Northern Arizona > Arizona",https://www.mountainproject.com/route/106391804/hijacked,2.1,-1,Sport,5.12b,1,,34.75582,-111.06739
"Little Stout","North End > Peaks Crag > Peaks Crag > San Francisco Peaks > Flagstaff Area > Northern Arizona > Arizona",https://www.mountainproject.com/route/110524735/little-stout,2.1,-1,Sport,5.12b,1,35,35.30713,-111.70502
"At Last","Slate Nation > The Homestead > Central Arizona > Arizona",https://www.mountainproject.com/route/107426206/at-last,2.3,-1,Sport,5.12b,1,40,33.17202,-110.78128
"Genetic Drift","Genetic Wall > West Twin Butte > Twin Butte > Sedona > Sedona Area > Northern Arizona > Arizona",https://www.mountainproject.com/route/105915894/genetic-drift,2.3,-1,Sport,5.12b,1,85,34.83804,-111.76896
"Bone Crusher","Main Wall > Jacks Canyon > Winslow- Hwy’s 87 & 99 Corridors > Northern Arizona > Arizona",https://www.mountainproject.com/route/106620658/bone-crusher,2.3,-1,Sport,5.12b,1,55,34.75487,-111.06333
"Ball Sports","Oaklands > Mt. Elden Crags > Flagstaff Area > Northern Arizona > Arizona",https://www.mountainproject.com/route/107350911/ball-sports,2.3,-1,Trad,5.12b,1,70,35.2458,-111.62078
Soothsayer,"East Face > The Druid > 6 - Mid-Mountain > Mount Lemmon (Catalina Highway) > Mount Lemmon (Santa Catalina Mountains) > Southern Arizona > Arizona",https://www.mountainproject.com/route/121027095/soothsayer,2.3,-1,"Sport, TR",5.12b,1,55,32.40588,-110.72497
"Hammer Mill","3 - Spine Cave > The Dry Canyon > Southern Arizona > Arizona",https://www.mountainproject.com/route/106639626/hammer-mill,2.3,-1,Sport,5.12b,1,80,31.7862,-110.40666
"Crystal Meth","Delta Dome > 7 - Upper Highway > Mount Lemmon (Catalina Highway) > Mount Lemmon (Santa Catalina Mountains) > Southern Arizona > Arizona",https://www.mountainproject.com/route/108854493/crystal-meth,2.0,-1,Sport,5.12b,1,35,32.41849,-110.7529
"Top Shelf","The Grail > Lime Kiln Canyon > The Arizona Strip > Northern Arizona > Arizona",https://www.mountainproject.com/route/120427550/top-shelf,2.0,-1,Sport,5.12b,2,165,36.65703,-114.00822
Underpass,"Right Wall > Ricochet > San Francisco Peaks > Flagstaff Area > Northern Arizona > Arizona",https://www.mountainproject.com/route/120555827/underpass,2.0,-1,Sport,5.12b,1,40,35.29457,-111.64605
Evolver,"Slate Nation > The Homestead > Central Arizona > Arizona",https://www.mountainproject.com/route/107426118/evolver,2.0,-1,Sport,5.12b,1,40,33.17202,-110.78128
"The Mule","Ripple Wall > 2 - Bear Canyon > Mount Lemmon (Catalina Highway) > Mount Lemmon (Santa Catalina Mountains) > Southern Arizona > Arizona",https://www.mountainproject.com/route/106979246/the-mule,2.0,-1,Trad,5.12b,1,75,32.37715,-110.6956
"Returning To The Fold","Continuum Crag > Spectrum Crags > 7 - Upper Highway > Mount Lemmon (Catalina Highway) > Mount Lemmon (Santa Catalina Mountains) > Southern Arizona > Arizona",https://www.mountainproject.com/route/110509009/returning-to-the-fold,2.0,-1,Sport,5.12b,1,65,32.41767,-110.74981
"Little League Drop-Out","Solitude Wall > Solitude Canyon > Mt. Elden Crags > Flagstaff Area > Northern Arizona > Arizona",https://www.mountainproject.com/route/106174772/little-league-drop-out,2.3,-1,"Sport, Boulder","5.12b V5",1,25,35.23893,-111.62114
"Cosmic Ray","Turret Rock and Environs > 3 - Windy Point East > Mount Lemmon (Catalina Highway) > Mount Lemmon (Santa Catalina Mountains) > Southern Arizona > Arizona",https://www.mountainproject.com/route/107081908/cosmic-ray,2.0,-1,Sport,5.12b,1,40,32.36654,-110.71648
"Rocket Man","Right Wall > Ricochet > San Francisco Peaks > Flagstaff Area > Northern Arizona > Arizona",https://www.mountainproject.com/route/120555852/rocket-man,2.0,-1,Sport,5.12b,1,50,35.29457,-111.64605
[Redacted],"East Side > Winslow Wall > East Clear Creek > Winslow- Hwy’s 87 & 99 Corridors > Northern Arizona > Arizona",https://www.mountainproject.com/route/109326255/redacted,2.0,-1,Sport,5.12b,1,60,34.94209,-110.6632
"White Russian","Lower Grotto > The Asylum > Jacks Canyon > Winslow- Hwy’s 87 & 99 Corridors > Northern Arizona > Arizona",https://www.mountainproject.com/route/120360043/white-russian,2.0,-1,Sport,5.12b,1,30,34.74752,-111.07667
"The Dopeman","West Side > Winslow Wall > East Clear Creek > Winslow- Hwy’s 87 & 99 Corridors > Northern Arizona > Arizona",https://www.mountainproject.com/route/109328647/the-dopeman,2.5,-1,Sport,5.12b,1,60,34.94209,-110.6632
"Before The Fall","Five-Thirteen Wall > Hairpin Turn Area > 1 -  Lower Highway > Mount Lemmon (Catalina Highway) > Mount Lemmon (Santa Catalina Mountains) > Southern Arizona > Arizona",https://www.mountainproject.com/route/108784247/before-the-fall,2.0,-1,Sport,5.12b,1,60,32.32127,-110.74096
"Mondo Bizzaro","Punch and Judy Towers > 3 - Windy Point East > Mount Lemmon (Catalina Highway) > Mount Lemmon (Santa Catalina Mountains) > Southern Arizona > Arizona",https://www.mountainproject.com/route/107258792/mondo-bizzaro,2.0,-1,Trad,5.12b,2,155,32.3683,-110.7125
Tsunami,"Left Side > Secret Garden > San Francisco Peaks > Flagstaff Area > Northern Arizona > Arizona",https://www.mountainproject.com/route/124765734/tsunami,3.0,-1,Sport,5.12b,1,55,35.2849,-111.65662
"After Party","Right Side > Secret Garden > San Francisco Peaks > Flagstaff Area > Northern Arizona > Arizona",https://www.mountainproject.com/route/124765987/after-party,3.0,-1,Sport,5.12b,1,55,35.28528,-111.65662
"Dr. Pepper","The Reception Area > Cave Springs > Oak Creek Canyon > Northern Arizona > Arizona",https://www.mountainproject.com/route/124800377/dr-pepper,3.0,-1,Sport,5.12b,1,70,35.00043,-111.7416
