Route,Location,URL,"Avg Stars","Your Stars","Route Type",Rating,Pitches,Length,"Area Latitude","Area Longitude"
"Black and Tan","2. The Main Amphitheater- Fall Wall > The Waterfall > Oak Creek Canyon > Northern Arizona > Arizona",https://www.mountainproject.com/route/105849207/black-and-tan,3.9,-1,Trad,5.10,1,100,34.93186,-111.73298
"East of Eden","The Gold Wall > Paradise Forks > Sycamore Canyon > Northern Arizona > Arizona",https://www.mountainproject.com/route/105825623/east-of-eden,3.6,-1,Trad,5.10,1,110,35.13747,-112.02579
"Middle Trinity Crack","The Overlook > Oak Creek Canyon Overlook > Flagstaff Area > Northern Arizona > Arizona",https://www.mountainproject.com/route/105951818/middle-trinity-crack,3.3,-1,Trad,5.10,1,90,35.03049,-111.73199
"Jolly Roger","The Prow > Paradise Forks > Sycamore Canyon > Northern Arizona > Arizona",https://www.mountainproject.com/route/106183638/jolly-roger,3.2,-1,Trad,"5.10 PG13",1,70,35.13763,-112.02421
"Smilin' Jay","3. The Right Wall > The Waterfall > Oak Creek Canyon > Northern Arizona > Arizona",https://www.mountainproject.com/route/105849227/smilin-jay,3.2,-1,Trad,5.10,1,100,34.93143,-111.73278
"Touched By An Angel","Mormon Canyon > Sedona > Sedona Area > Northern Arizona > Arizona",https://www.mountainproject.com/route/109555966/touched-by-an-angel,3.7,-1,Trad,5.10,5,650,34.90767,-111.76742
"Southern Exposure","Hobo Jungle > San Francisco Peaks > Flagstaff Area > Northern Arizona > Arizona",https://www.mountainproject.com/route/107673165/southern-exposure,3.1,-1,Sport,5.10,1,70,35.3874,-111.61355
"Off the Couch","North End > Peaks Crag > Peaks Crag > San Francisco Peaks > Flagstaff Area > Northern Arizona > Arizona",https://www.mountainproject.com/route/110535107/off-the-couch,3.0,-1,Sport,5.10,1,70,35.30713,-111.70502
"Virgin's Airline","Forgotten Wall, Control Tower & Up The Creek Wall > 1 -  Lower Highway > Mount Lemmon (Catalina Highway) > Mount Lemmon (Santa Catalina Mountains) > Southern Arizona > Arizona",https://www.mountainproject.com/route/106080211/virgins-airline,3.1,-1,Sport,5.10,1,115,32.35534,-110.71812
Raindance,"Raindance Buttress > Paradise Forks > Sycamore Canyon > Northern Arizona > Arizona",https://www.mountainproject.com/route/105792593/raindance,3.4,-1,Trad,5.10,1,110,35.1381,-112.0282
Candyland,"Middle Section > Granite Mountain > **Prescott Area > Central Arizona > Arizona",https://www.mountainproject.com/route/106018270/candyland,3.9,-1,Trad,5.10,5,450,34.62908,-112.56665
"The Windows Route","Super Crack Tower > Midgley Bridge Area > Sedona > Sedona Area > Northern Arizona > Arizona",https://www.mountainproject.com/route/106167680/the-windows-route,3.7,-1,Trad,5.10,3,220,34.9033,-111.748
"Life By The Drop","Main Wall - North > Isolation Canyon > Central Arizona > Arizona",https://www.mountainproject.com/route/106032060/life-by-the-drop,3.0,-1,Sport,5.10,1,90,34.36086,-111.45007
Flashflood,"1. The Left Wall > The Waterfall > Oak Creek Canyon > Northern Arizona > Arizona",https://www.mountainproject.com/route/106400259/flashflood,2.9,-1,Trad,5.10,1,100,34.9318,-111.73386
"The Sword","1. The Left Wall > The Waterfall > Oak Creek Canyon > Northern Arizona > Arizona",https://www.mountainproject.com/route/105806694/the-sword,2.9,-1,Trad,5.10,1,80,34.9318,-111.73386
Queenfolia,"Davidson Wall > Paradise Forks > Sycamore Canyon > Northern Arizona > Arizona",https://www.mountainproject.com/route/105831848/queenfolia,2.9,-1,Trad,5.10,1,70,35.1381,-112.0282
"Pillow Fight","Pillow Wall > Paradise Forks > Sycamore Canyon > Northern Arizona > Arizona",https://www.mountainproject.com/route/105792544/pillow-fight,2.8,-1,Trad,5.10,1,65,35.13858,-112.02479
"If I Only Had a Brain","Wall of the Marching Munchkins > Munchkinland Area > 6 - Mid-Mountain > Mount Lemmon (Catalina Highway) > Mount Lemmon (Santa Catalina Mountains) > Southern Arizona > Arizona",https://www.mountainproject.com/route/105840442/if-i-only-had-a-brain,2.7,-1,Sport,5.10,1,50,32.38886,-110.71688
"Birthday Girl","Anduriel Tower > 3 - Windy Point East > Mount Lemmon (Catalina Highway) > Mount Lemmon (Santa Catalina Mountains) > Southern Arizona > Arizona",https://www.mountainproject.com/route/105837756/birthday-girl,3.0,-1,Sport,5.10,1,70,32.36788,-110.71276
"Gandy Dancer","Hobo Jungle > San Francisco Peaks > Flagstaff Area > Northern Arizona > Arizona",https://www.mountainproject.com/route/107700773/gandy-dancer,2.6,-1,Sport,5.10,1,60,35.3874,-111.61355
"A Rusted Rapture","2. East End Wall > South Side > Volunteer Canyon (The Cwm) > Sycamore Canyon > Northern Arizona > Arizona",https://www.mountainproject.com/route/107246255/a-rusted-rapture,3.6,-1,Trad,5.10,1,90,35.11985,-111.93423
"Pathological Optimist","Totem-Proto Area > Lower Devil's Canyon > Queen Creek Canyon > Central Arizona > Arizona",https://www.mountainproject.com/route/107945505/pathological-optimist,3.5,-1,"Trad, Sport",5.10,1,110,33.27587,-111.02832
Jizzneyland,"Trad Rock > Isle of Ewe > West Stronghold > Cochise Stronghold > Southern Arizona > Arizona",https://www.mountainproject.com/route/105738692/jizzneyland,2.5,-1,Sport,5.10,1,90,31.87484,-110.01472
Aqualung,"The Jungle Wall > Paradise Forks > Sycamore Canyon > Northern Arizona > Arizona",https://www.mountainproject.com/route/105792361/aqualung,3.5,-1,Trad,5.10,1,80,35.1381,-112.0282
"The Slammer Jam","Middle Section > Granite Mountain > **Prescott Area > Central Arizona > Arizona",https://www.mountainproject.com/route/105886478/the-slammer-jam,3.6,-1,Trad,5.10,5,,34.62908,-112.56665
Kingpin,"Middle Section > Granite Mountain > **Prescott Area > Central Arizona > Arizona",https://www.mountainproject.com/route/105886467/kingpin,3.9,-1,Trad,"5.10 PG13",5,450,34.62908,-112.56665
"Slim Shady","West Side > Winslow Wall > East Clear Creek > Winslow- Hwy’s 87 & 99 Corridors > Northern Arizona > Arizona",https://www.mountainproject.com/route/106179845/slim-shady,2.8,-1,Trad,5.10,1,90,34.94209,-110.6632
"Thunderbird Arête","Main Wall > Higher Solitude > Solitude Canyon > Mt. Elden Crags > Flagstaff Area > Northern Arizona > Arizona",https://www.mountainproject.com/route/109847053/thunderbird-arete,3.3,-1,Sport,5.10,1,100,35.24114,-111.61758
"Pocket Pulling Pansies","The Pond > Queen Creek Canyon > Central Arizona > Arizona",https://www.mountainproject.com/route/106968168/pocket-pulling-pansies,2.4,-1,Sport,5.10,1,,33.3104,-111.06756
"Two Birds Too Stoned","The Steep > 7 - Upper Highway > Mount Lemmon (Catalina Highway) > Mount Lemmon (Santa Catalina Mountains) > Southern Arizona > Arizona",https://www.mountainproject.com/route/106221657/two-birds-too-stoned,2.6,-1,Sport,5.10,1,,32.41932,-110.75528
"Tour Buses Welcome","The Muttonhead > Sheepshead Area (Southwest) > West Stronghold > Cochise Stronghold > Southern Arizona > Arizona",https://www.mountainproject.com/route/106561673/tour-buses-welcome,2.8,-1,Sport,5.10,4,320,31.87036,-109.99398
"The Hotline (aka Hiccup Delux)","Middle Section > Granite Mountain > **Prescott Area > Central Arizona > Arizona",https://www.mountainproject.com/route/106593197/the-hotline-aka-hiccup-delux,4.0,-1,Trad,5.10,3,,34.62908,-112.56665
"Losers Weepers","Forgotten Wall, Control Tower & Up The Creek Wall > 1 -  Lower Highway > Mount Lemmon (Catalina Highway) > Mount Lemmon (Santa Catalina Mountains) > Southern Arizona > Arizona",https://www.mountainproject.com/route/106080238/losers-weepers,2.6,-1,Sport,5.10,1,100,32.35534,-110.71812
"Falling Ross","Right Section > Granite Mountain > **Prescott Area > Central Arizona > Arizona",https://www.mountainproject.com/route/105978206/falling-ross,3.5,-1,Trad,5.10,2,300,34.629,-112.56564
"Middle Earth","Middle Earth > 5 - Windy Ridge > Mount Lemmon (Catalina Highway) > Mount Lemmon (Santa Catalina Mountains) > Southern Arizona > Arizona",https://www.mountainproject.com/route/105847781/middle-earth,2.5,-1,Sport,5.10,1,155,32.3804,-110.70245
Heirloom,"Genetic Wall > West Twin Butte > Twin Butte > Sedona > Sedona Area > Northern Arizona > Arizona",https://www.mountainproject.com/route/112533284/heirloom,3.3,-1,Trad,5.10,1,90,34.83804,-111.76896
"Sky Diamond","Upper Sky Valley > Sky Valley > 6 - Mid-Mountain > Mount Lemmon (Catalina Highway) > Mount Lemmon (Santa Catalina Mountains) > Southern Arizona > Arizona",https://www.mountainproject.com/route/105830228/sky-diamond,2.1,-1,Sport,5.10,1,,32.40294,-110.69481
Silmarillion,"Middle Earth > 5 - Windy Ridge > Mount Lemmon (Catalina Highway) > Mount Lemmon (Santa Catalina Mountains) > Southern Arizona > Arizona",https://www.mountainproject.com/route/106023927/silmarillion,2.7,-1,Sport,5.10,1,150,32.3804,-110.70245
Desire,"Nurd Rock > 3 - Windy Point East > Mount Lemmon (Catalina Highway) > Mount Lemmon (Santa Catalina Mountains) > Southern Arizona > Arizona",https://www.mountainproject.com/route/105738671/desire,3.7,-1,Trad,"5.10 R",1,180,32.36627,-110.71518
Quran,"Mecca Area (Northeast Face) > Thumb Butte > **Prescott Area > Central Arizona > Arizona",https://www.mountainproject.com/route/105967304/quran,3.8,-1,Trad,5.10,1,80,34.54698,-112.5179
"Sine Language","The Sine Wall > Paradise Forks > Sycamore Canyon > Northern Arizona > Arizona",https://www.mountainproject.com/route/105891428/sine-language,3.1,-1,Trad,5.10,1,100,35.1381,-112.0282
"Old Grey Mare","Anti-Crag > West Clear Creek > Central Mogollon Rim > Northern Arizona > Arizona",https://www.mountainproject.com/route/108914936/old-grey-mare,3.1,-1,Sport,5.10,1,65,34.55031,-111.43053
InstaCool,"(M) The \ Hashtag \ Wall > The Pit (aka Le Petit Verdon) > Flagstaff Area > Northern Arizona > Arizona",https://www.mountainproject.com/route/111792670/instacool,2.4,-1,"Sport, TR",5.10,1,55,35.12944,-111.59645
"Quickdraw McGraw","Wheeler Wall > 6 - Mid-Mountain > Mount Lemmon (Catalina Highway) > Mount Lemmon (Santa Catalina Mountains) > Southern Arizona > Arizona",https://www.mountainproject.com/route/105738581/quickdraw-mcgraw,3.9,-1,Trad,"5.10 R",1,140,32.39653,-110.68825
Graceland,"Red Diamond Wall > 6 - Mid-Mountain > Mount Lemmon (Catalina Highway) > Mount Lemmon (Santa Catalina Mountains) > Southern Arizona > Arizona",https://www.mountainproject.com/route/107126830/graceland,3.6,-1,Trad,5.10,1,100,32.4033,-110.6912
"If You Bolt It They Will Come","East Face > Raven C > The Ravens > 8 - Summit Crags > Mount Lemmon (Catalina Highway) > Mount Lemmon (Santa Catalina Mountains) > Southern Arizona > Arizona",https://www.mountainproject.com/route/105838616/if-you-bolt-it-they-will-come,3.2,-1,Sport,5.10,1,145,32.43327,-110.79691
"Centipede Corner","The Lunchbox > Lower Devil's East  (LDE) > Lower Devil's Canyon > Queen Creek Canyon > Central Arizona > Arizona",https://www.mountainproject.com/route/106567688/centipede-corner,3.5,-1,Trad,5.10,1,110,33.2767,-111.02595
"The Creature","South End > Peaks Crag > Peaks Crag > San Francisco Peaks > Flagstaff Area > Northern Arizona > Arizona",https://www.mountainproject.com/route/110520170/the-creature,2.5,-1,Sport,5.10,1,70,35.30643,-111.70566
"Teenage Wasteland","The Wasteland > East Stronghold > Cochise Stronghold > Southern Arizona > Arizona",https://www.mountainproject.com/route/117922742/teenage-wasteland,3.3,-1,Trad,5.10,4,500,31.94542,-109.96929
"The Open Book","The Library > East Verde > Central Arizona > Arizona",https://www.mountainproject.com/route/106341318/the-open-book,3.4,-1,Trad,5.10,1,50,34.2997,-111.3571
Tangent,"The Sine Wall > Paradise Forks > Sycamore Canyon > Northern Arizona > Arizona",https://www.mountainproject.com/route/105891413/tangent,3.4,-1,Trad,"5.10 PG13",1,100,35.1381,-112.0282
"Andy Kaufman Crack","North Mesa > Cathedral Rock Area > Sedona > Sedona Area > Northern Arizona > Arizona",https://www.mountainproject.com/route/105817049/andy-kaufman-crack,3.0,-1,Trad,5.10,1,105,34.82026,-111.79373
"Trinity Roofs","The Overlook > Oak Creek Canyon Overlook > Flagstaff Area > Northern Arizona > Arizona",https://www.mountainproject.com/route/106141284/trinity-roofs,2.9,-1,Trad,5.10,1,70,35.03049,-111.73199
"Little Trundle Of Joy","Boneyard > 6 - Mid-Mountain > Mount Lemmon (Catalina Highway) > Mount Lemmon (Santa Catalina Mountains) > Southern Arizona > Arizona",https://www.mountainproject.com/route/107669737/little-trundle-of-joy,2.3,-1,Sport,5.10,1,75,32.40369,-110.6965
"T.L. Bush","The Gold Wall > Paradise Forks > Sycamore Canyon > Northern Arizona > Arizona",https://www.mountainproject.com/route/105827580/tl-bush,3.1,-1,Trad,"5.10 PG13",1,100,35.13747,-112.02579
"Mirror Image","Red Diamond Wall > 6 - Mid-Mountain > Mount Lemmon (Catalina Highway) > Mount Lemmon (Santa Catalina Mountains) > Southern Arizona > Arizona",https://www.mountainproject.com/route/107711579/mirror-image,3.8,-1,Trad,"5.10 R",1,100,32.4033,-110.6912
"Technicolor Corner","Flying Buttress > Mitten Ridge > Sedona > Sedona Area > Northern Arizona > Arizona",https://www.mountainproject.com/route/105906584/technicolor-corner,3.1,-1,Trad,"5.10 R",3,300,34.87684,-111.72573
Siege,"Main Wall Left > High Rappel Area > Granite Gardens > Granite Dells > **Prescott Area > Central Arizona > Arizona",https://www.mountainproject.com/route/105804178/siege,3.5,-1,Trad,"5.10 R",2,150,34.6082,-112.4206
"Thin Slice aka A Thin Slice of Plum Pie","Right Section > Granite Mountain > **Prescott Area > Central Arizona > Arizona",https://www.mountainproject.com/route/106329218/thin-slice-aka-a-thin-slice-of-plum-pie,3.6,-1,"Trad, Sport",5.10,3,250,34.629,-112.56564
Amazon,"South End > Peaks Crag > Peaks Crag > San Francisco Peaks > Flagstaff Area > Northern Arizona > Arizona",https://www.mountainproject.com/route/110524812/amazon,2.0,-1,Sport,5.10,1,40,35.30643,-111.70566
"Disco Inferno","Concrete Jungle > Lower Sullivan Canyon > Sullivan's Canyon > **Prescott Area > Central Arizona > Arizona",https://www.mountainproject.com/route/110104509/disco-inferno,3.5,-1,Trad,5.10,1,70,34.86312,-112.44732
"Rusty Blade","Main Wall > Higher Solitude > Solitude Canyon > Mt. Elden Crags > Flagstaff Area > Northern Arizona > Arizona",https://www.mountainproject.com/route/109957160/rusty-blade,2.6,-1,Sport,5.10,1,100,35.24114,-111.61758
Vasectomy,"The Reception Area > Cave Springs > Oak Creek Canyon > Northern Arizona > Arizona",https://www.mountainproject.com/route/118970261/vasectomy,3.3,-1,Trad,5.10,1,105,35.00043,-111.7416
"Pitfalls of Hesitation","Hawk's Bill Spire > Agave Spires Area > 2 - Bear Canyon > Mount Lemmon (Catalina Highway) > Mount Lemmon (Santa Catalina Mountains) > Southern Arizona > Arizona",https://www.mountainproject.com/route/105813311/pitfalls-of-hesitation,3.2,-1,Trad,5.10,3,,32.36506,-110.71896
Asgard,"Wall of the Trundling Trolls > Munchkinland Area > 6 - Mid-Mountain > Mount Lemmon (Catalina Highway) > Mount Lemmon (Santa Catalina Mountains) > Southern Arizona > Arizona",https://www.mountainproject.com/route/106224450/asgard,3.0,-1,Trad,5.10,2,140,32.38723,-110.71788
"La Diosa","Downtown > West Elden > Mt. Elden Crags > Flagstaff Area > Northern Arizona > Arizona",https://www.mountainproject.com/route/106013850/la-diosa,3.3,-1,Trad,5.10,1,80,35.25451,-111.6238
"The Fire Inside","Upper Sky Valley > Sky Valley > 6 - Mid-Mountain > Mount Lemmon (Catalina Highway) > Mount Lemmon (Santa Catalina Mountains) > Southern Arizona > Arizona",https://www.mountainproject.com/route/105830218/the-fire-inside,2.0,-1,Sport,5.10,1,,32.40294,-110.69481
Kingsnakey,"Switchbacks Overlook > Flagstaff Area > Northern Arizona > Arizona",https://www.mountainproject.com/route/121505818/kingsnakey,4.0,-1,Trad,5.10,1,80,35.02309,-111.73059
"Puzzle Pieces","Apache Leap > Queen Creek Canyon > Central Arizona > Arizona",https://www.mountainproject.com/route/120382713/puzzle-pieces,4.0,-1,"Sport, TR",5.10,1,150,33.28112,-111.07415
"Flying Pig aka Witblitz Direct/Sorcerer-Witblitz-Altar-Kingpin","Granite Mountain Link-Ups > Granite Mountain > **Prescott Area > Central Arizona > Arizona",https://www.mountainproject.com/route/107922268/flying-pig-aka-witblitz-directsorcerer-witblitz-altar-kingpin,4.0,-1,Trad,"5.10 PG13",7,700,34.62669,-112.55409
"Canary Crack","4. Canary Wall > South Side > Volunteer Canyon (The Cwm) > Sycamore Canyon > Northern Arizona > Arizona",https://www.mountainproject.com/route/106899183/canary-crack,3.1,-1,Trad,5.10,1,100,35.11965,-111.93467
Cornickopia,"5 - Bishop > Chessman Area > 2 - Bear Canyon > Mount Lemmon (Catalina Highway) > Mount Lemmon (Santa Catalina Mountains) > Southern Arizona > Arizona",https://www.mountainproject.com/route/107638192/cornickopia,2.1,-1,Sport,5.10,1,80,32.36032,-110.71983
"Don't Call me Junior!","5 - Whippersnapper Wall > The Farmhouse > Southern Arizona > Arizona",https://www.mountainproject.com/route/119923540/dont-call-me-junior,3.2,-1,Sport,5.10,1,130,31.69331,-110.43068
"Just walk","Stewart Peak > Stewart Pocket > Central Arizona > Arizona",https://www.mountainproject.com/route/120366258/just-walk,4.0,-1,Trad,5.10,1,50,34.21851,-111.26871
Eek-A-Moose,"Puppy Tower > Pictograph Canyon > West Stronghold > Cochise Stronghold > Southern Arizona > Arizona",https://www.mountainproject.com/route/120234313/eek-a-moose,4.0,-1,Trad,5.10,2,200,31.91743,-110.0272
Sand_Castles,"Slide Rock State Park > Oak Creek Canyon > Northern Arizona > Arizona",https://www.mountainproject.com/route/106230171/sand-castles,4.0,-1,Trad,5.10,3,350,34.9524,-111.7543
"Direct Left","The Overlook > Oak Creek Canyon Overlook > Flagstaff Area > Northern Arizona > Arizona",https://www.mountainproject.com/route/107433780/direct-left,3.2,-1,Trad,5.10,1,80,35.03049,-111.73199
Classic,"Opera House, Hot Spot > Lower Sullivan Canyon > Sullivan's Canyon > **Prescott Area > Central Arizona > Arizona",https://www.mountainproject.com/route/106152826/classic,3.0,-1,Trad,5.10,1,50,34.86312,-112.44732
"Brother's Bond","Hidden Garden > Clints Well > West Clear Creek > Central Mogollon Rim > Northern Arizona > Arizona",https://www.mountainproject.com/route/108284252/brothers-bond,4.0,-1,Trad,5.10,1,90,34.52568,-111.42396
"Question of Balance","Faded Rock > 4 - Windy Point West > Mount Lemmon (Catalina Highway) > Mount Lemmon (Santa Catalina Mountains) > Southern Arizona > Arizona",https://www.mountainproject.com/route/106607505/question-of-balance,3.4,-1,Trad,"5.10 PG13",2,,32.36837,-110.71715
Shanashee,"Neptune > Reef of Rocks > 7 - Upper Highway > Mount Lemmon (Catalina Highway) > Mount Lemmon (Santa Catalina Mountains) > Southern Arizona > Arizona",https://www.mountainproject.com/route/106195594/shanashee,3.5,-1,Trad,"5.10 R",2,200,32.46112,-110.78115
"Damsels in Distress","Glitter Box Area > Lower Devil's Canyon > Queen Creek Canyon > Central Arizona > Arizona",https://www.mountainproject.com/route/106761156/damsels-in-distress,3.1,-1,"Trad, Sport","5.10 PG13",1,160,33.27681,-111.02935
"Cinnamon Girl","Middle Section > Granite Mountain > **Prescott Area > Central Arizona > Arizona",https://www.mountainproject.com/route/106538490/cinnamon-girl,3.5,-1,Trad,"5.10 R",5,450,34.62908,-112.56665
"Thunder Moon","Main Wall > Higher Solitude > Solitude Canyon > Mt. Elden Crags > Flagstaff Area > Northern Arizona > Arizona",https://www.mountainproject.com/route/110019981/thunder-moon,3.3,-1,Sport,5.10,1,115,35.24114,-111.61758
"The Hive Splitter","The Hive > Upper Middle Elden Canyon > Middle Elden Canyon > Mt. Elden Crags > Flagstaff Area > Northern Arizona > Arizona",https://www.mountainproject.com/route/116102166/the-hive-splitter,3.8,-1,Trad,5.10,1,70,35.23523,-111.60171
Excalibur,"South Castle Tower > Castle Towers > Village of Oak Creek > Sedona Area > Northern Arizona > Arizona",https://www.mountainproject.com/route/114257799/excalibur,3.3,-1,Trad,5.10,1,120,34.79016,-111.77388
"Soaked to the Bone","Boneyard > 6 - Mid-Mountain > Mount Lemmon (Catalina Highway) > Mount Lemmon (Santa Catalina Mountains) > Southern Arizona > Arizona",https://www.mountainproject.com/route/111715614/soaked-to-the-bone,2.8,-1,Sport,5.10,1,115,32.40369,-110.6965
"El Alquimista","Southern Wall > Christopher Creek Gorge > Central Arizona > Arizona",https://www.mountainproject.com/route/120818372/el-alquimista,3.2,-1,Sport,5.10,1,90,34.31126,-111.06571
"First Amendment Rights (slightly sideways)","Northeast Face of Out of Towners Dome > Out-of-Towners Dome > East Stronghold > Cochise Stronghold > Southern Arizona > Arizona",https://www.mountainproject.com/route/119640100/first-amendment-rights-slightly-sideways,3.8,-1,Trad,"5.10 R",5,560,31.94476,-109.97084
"Spiritual Stroking","The Altar > Stewart Pocket > Central Arizona > Arizona",https://www.mountainproject.com/route/111696090/spiritual-stroking,3.7,-1,Trad,5.10,1,70,34.21848,-111.26581
"Flash Flood","Welcome Wash > Five Mile Draw > Central Arizona > Arizona",https://www.mountainproject.com/route/114012043/flash-flood,3.7,-1,Sport,5.10,1,60,34.59162,-110.08354
"Few Species","Wall of the Trundling Trolls > Munchkinland Area > 6 - Mid-Mountain > Mount Lemmon (Catalina Highway) > Mount Lemmon (Santa Catalina Mountains) > Southern Arizona > Arizona",https://www.mountainproject.com/route/106224426/few-species,3.1,-1,Trad,5.10,2,185,32.38723,-110.71788
"The Altar of Impermanence","The Sundial > Superstition Mountains > **Phoenix Areas > Central Arizona > Arizona",https://www.mountainproject.com/route/120121786/the-altar-of-impermanence,3.4,-1,Sport,5.10,2,110,33.41852,-111.35692
"Mid-Evil Times","South Castle Tower > Castle Towers > Village of Oak Creek > Sedona Area > Northern Arizona > Arizona",https://www.mountainproject.com/route/114257758/mid-evil-times,3.4,-1,Trad,5.10,1,80,34.79016,-111.77388
"Totem Pole Direct","Totem-Proto Area > Lower Devil's Canyon > Queen Creek Canyon > Central Arizona > Arizona",https://www.mountainproject.com/route/107968427/totem-pole-direct,3.0,-1,Sport,5.10,1,70,33.27587,-111.02832
"Pocket full of Horses","Sterling Pass > Oak Creek Canyon > Northern Arizona > Arizona",https://www.mountainproject.com/route/108158722/pocket-full-of-horses,3.0,-1,Trad,5.10,6,,34.9329,-111.7598
"IMAX Experience","IMAX Tower > Gibraltar Rock Area > Sedona > Sedona Area > Northern Arizona > Arizona",https://www.mountainproject.com/route/112853797/imax-experience,3.5,-1,Trad,5.10,4,250,34.82124,-111.74731
"Climb It, Change Sides","Upper Sky Valley > Sky Valley > 6 - Mid-Mountain > Mount Lemmon (Catalina Highway) > Mount Lemmon (Santa Catalina Mountains) > Southern Arizona > Arizona",https://www.mountainproject.com/route/111852536/climb-it-change-sides,2.2,-1,Sport,5.10,1,50,32.40294,-110.69481
"Copperhead  5","Chimney Rock > 2 - Bear Canyon > Mount Lemmon (Catalina Highway) > Mount Lemmon (Santa Catalina Mountains) > Southern Arizona > Arizona",https://www.mountainproject.com/route/105932666/copperhead-5,2.8,-1,Trad,"5.10 PG13",1,,32.36917,-110.70446
"Black Arrow","Dry Creek Spire > Dry Creek Spires > Dry Creek Road Area > West Sedona > Sedona Area > Northern Arizona > Arizona",https://www.mountainproject.com/route/107209412/black-arrow,2.8,-1,Trad,5.10,4,330,34.88686,-111.81319
Devoid,"SE Face > Chey Desa Tsay > Rockfellow Group > East Stronghold > Cochise Stronghold > Southern Arizona > Arizona",https://www.mountainproject.com/route/109431279/devoid,3.3,-1,Trad,"5.10 X",3,370,31.92708,-109.97767
"One Beer","Redbud Canyon > Lime Kiln Canyon > The Arizona Strip > Northern Arizona > Arizona",https://www.mountainproject.com/route/118046688/one-beer,3.3,-1,Sport,5.10,1,100,36.6573,-114.00503
"La Quinta","Oak Creek Spire > Oak Creek Spire Area > Village of Oak Creek > Sedona Area > Northern Arizona > Arizona",https://www.mountainproject.com/route/111381819/la-quinta,3.3,-1,Trad,5.10,4,250,34.80292,-111.72643
"Deft Leopard","Players Club > Crags Against Humanity > 1 -  Lower Highway > Mount Lemmon (Catalina Highway) > Mount Lemmon (Santa Catalina Mountains) > Southern Arizona > Arizona",https://www.mountainproject.com/route/118734692/deft-leopard,2.4,-1,Sport,5.10,1,60,32.32442,-110.7072
"Rocket Man","Wind Wall > 3 - Windy Point East > Mount Lemmon (Catalina Highway) > Mount Lemmon (Santa Catalina Mountains) > Southern Arizona > Arizona",https://www.mountainproject.com/route/105929677/rocket-man,2.7,-1,"Trad, Sport, TR",5.10,1,80,32.36721,-110.7149
"The Shepherd","The Sheepshead > Sheepshead Area (Southwest) > West Stronghold > Cochise Stronghold > Southern Arizona > Arizona",https://www.mountainproject.com/route/120514678/the-shepherd,3.0,-1,"Trad, Aid","5.10 A0 PG13",9,1100,31.87031,-109.99388
"Airborne Sage","Crown Butte > Gibraltar Rock Area > Sedona > Sedona Area > Northern Arizona > Arizona",https://www.mountainproject.com/route/112813822/airborne-sage,3.0,-1,Trad,5.10,4,300,34.82443,-111.75125
"Hot Line","Tom's Thumb > McDowell Mountains > **Phoenix Areas > Central Arizona > Arizona",https://www.mountainproject.com/route/105806313/hot-line,2.8,-1,Trad,5.10,1,120,33.68174,-111.81143
"Unknown Dihedral","Garlic Dome > West Stronghold > Cochise Stronghold > Southern Arizona > Arizona",https://www.mountainproject.com/route/121775392/unknown-dihedral,3.0,-1,Trad,5.10,4,300,31.9343,-109.99117
"Slack-Jawed Yokels","DWS West Side > DWS East Clear Creek > East Clear Creek > Winslow- Hwy’s 87 & 99 Corridors > Northern Arizona > Arizona",https://www.mountainproject.com/route/121010565/slack-jawed-yokels,2.7,-1,Trad,5.10,1,55,34.96125,-110.65969
Immunity,"Zone-tail Buttress > Isolation Canyon > Central Arizona > Arizona",https://www.mountainproject.com/route/114293523/immunity,3.5,-1,Trad,5.10,1,90,34.36365,-111.44823
Sidewinder,"Flatiron > Superstition Mountains > **Phoenix Areas > Central Arizona > Arizona",https://www.mountainproject.com/route/105824538/sidewinder,2.9,-1,Trad,5.10,3,300,33.43761,-111.45433
Succubus,"Tom's Thumb > McDowell Mountains > **Phoenix Areas > Central Arizona > Arizona",https://www.mountainproject.com/route/105905840/succubus,2.7,-1,Trad,5.10,1,,33.68174,-111.81143
"The Twinkie","Ultimates East > The Ultimates > Upper Pumphouse Wash > Flagstaff Area > Northern Arizona > Arizona",https://www.mountainproject.com/route/119752755/the-twinkie,2.7,-1,Sport,5.10,1,50,35.03442,-111.71469
"Bop Til You Drop","Rupley Towers > 3 - Windy Point East > Mount Lemmon (Catalina Highway) > Mount Lemmon (Santa Catalina Mountains) > Southern Arizona > Arizona",https://www.mountainproject.com/route/105921348/bop-til-you-drop,2.5,-1,"Trad, Sport","5.10 R",2,140,32.36736,-110.71377
"Wheeler Dealer","Opera House, Hot Spot > Lower Sullivan Canyon > Sullivan's Canyon > **Prescott Area > Central Arizona > Arizona",https://www.mountainproject.com/route/106147513/wheeler-dealer,2.8,-1,Trad,5.10,1,30,34.86312,-112.44732
Foreclosure,"The Tool Shed > Tanque Verde Canyon > Southern Arizona > Arizona",https://www.mountainproject.com/route/108074533/foreclosure,2.1,-1,Sport,5.10,1,40,32.25743,-110.64944
"Modern Day Warrior","Table Mountain > Pusch Ridge > Mount Lemmon (Santa Catalina Mountains) > Southern Arizona > Arizona",https://www.mountainproject.com/route/106840925/modern-day-warrior,3.1,-1,Trad,"5.10 PG13",5,700,32.38223,-110.90836
"Clean Bean","The Joint > Stewart Pocket > Central Arizona > Arizona",https://www.mountainproject.com/route/112439274/clean-bean,3.0,-1,Sport,5.10,1,65,34.22415,-111.27374
"Lord Fowelsbain","West Face > The Druid > 6 - Mid-Mountain > Mount Lemmon (Catalina Highway) > Mount Lemmon (Santa Catalina Mountains) > Southern Arizona > Arizona",https://www.mountainproject.com/route/105841639/lord-fowelsbain,2.6,-1,Sport,5.10,1,,32.40573,-110.72538
"Covid Spike","5. Tralfamadore Wall > North Side > Volunteer Canyon (The Cwm) > Sycamore Canyon > Northern Arizona > Arizona",https://www.mountainproject.com/route/119252633/covid-spike,3.3,-1,"Trad, TR",5.10,2,190,35.12026,-111.9352
Futz,"Ripple Wall > 2 - Bear Canyon > Mount Lemmon (Catalina Highway) > Mount Lemmon (Santa Catalina Mountains) > Southern Arizona > Arizona",https://www.mountainproject.com/route/107789593/futz,3.1,-1,Trad,5.10,1,130,32.37715,-110.6956
"The Nameless Tower - Jacob's Ladder","Mormon Canyon > Sedona > Sedona Area > Northern Arizona > Arizona",https://www.mountainproject.com/route/109818719/the-nameless-tower-jacobs-ladder,3.3,-1,Trad,5.10,3,300,34.90767,-111.76742
"Aloof Roof","Confluence Wall > Christopher Creek Gorge > Central Arizona > Arizona",https://www.mountainproject.com/route/119534734/aloof-roof,3.0,-1,"Sport, TR",5.10,1,80,34.31205,-111.0664
"Knead Me","Rockfellow Dome > Rockfellow Group > East Stronghold > Cochise Stronghold > Southern Arizona > Arizona",https://www.mountainproject.com/route/105794289/knead-me,3.0,-1,,"5.10 R",6,500,31.92692,-109.97782
"Pixie Bell","Southern Wall > Christopher Creek Gorge > Central Arizona > Arizona",https://www.mountainproject.com/route/120904216/pixie-bell,3.0,-1,Sport,5.10,1,60,34.31126,-111.06571
[Redacted],"Chimney Rock > 2 - Bear Canyon > Mount Lemmon (Catalina Highway) > Mount Lemmon (Santa Catalina Mountains) > Southern Arizona > Arizona",https://www.mountainproject.com/route/106249995/redacted,3.3,-1,Trad,5.10,7,350,32.36917,-110.70446
"Turkish Bride","Super Crack Tower > Midgley Bridge Area > Sedona > Sedona Area > Northern Arizona > Arizona",https://www.mountainproject.com/route/106096004/turkish-bride,3.0,-1,Trad,"5.10 R",4,220,34.9033,-111.748
"DB Special","Beale St West > Beale St Wall > Kingman Area > Northern Arizona > Arizona",https://www.mountainproject.com/route/118751708/db-special,3.3,-1,"Sport, TR",5.10,1,45,35.20513,-114.08633
"Stairway to Heaven","Heaven's Gate > The Refuge > Lower Devil's Canyon > Queen Creek Canyon > Central Arizona > Arizona",https://www.mountainproject.com/route/107448076/stairway-to-heaven,3.2,-1,"Trad, Sport",5.10,1,100,33.2728,-111.0475
"Sweet Acidophilus","Middle Section > Granite Mountain > **Prescott Area > Central Arizona > Arizona",https://www.mountainproject.com/route/108141064/sweet-acidophilus,3.3,-1,Trad,5.10,1,120,34.62908,-112.56665
"Nurse Ratchet","Upper Beach > The Beach Areas > West Twin Butte > Twin Butte > Sedona > Sedona Area > Northern Arizona > Arizona",https://www.mountainproject.com/route/106995470/nurse-ratchet,2.6,-1,Sport,5.10,1,60,34.8346,-111.7666
"Black Water","Forgotten Wall, Control Tower & Up The Creek Wall > 1 -  Lower Highway > Mount Lemmon (Catalina Highway) > Mount Lemmon (Santa Catalina Mountains) > Southern Arizona > Arizona",https://www.mountainproject.com/route/106106365/black-water,2.9,-1,Trad,5.10,1,70,32.35534,-110.71812
"Cat Mantle, Dude","Catalina Dome > Mount Lemmon (Santa Catalina Mountains) > Southern Arizona > Arizona",https://www.mountainproject.com/route/121149703/cat-mantle-dude,3.1,-1,Sport,5.10,1,90,32.50483,-110.85308
"Water Wait","Kitty Pool > Atlantis > Queen Creek Canyon > Central Arizona > Arizona",https://www.mountainproject.com/route/118905856/water-wait,2.2,-1,Sport,5.10,1,40,33.30559,-111.07749
"The Warden","The Pond > Queen Creek Canyon > Central Arizona > Arizona",https://www.mountainproject.com/route/108899722/the-warden,2.1,-1,Sport,5.10,1,50,33.3104,-111.06756
"Sitting Duck","(B) The Shooting Gallery > The Pit (aka Le Petit Verdon) > Flagstaff Area > Northern Arizona > Arizona",https://www.mountainproject.com/route/119566686/sitting-duck,2.4,-1,Sport,5.10,1,50,35.12935,-111.59834
"Fifty Foot Spire","Fifty Foot Spire > Boynton Canyon > Dry Creek Road Area > West Sedona > Sedona Area > Northern Arizona > Arizona",https://www.mountainproject.com/route/111981703/fifty-foot-spire,3.0,-1,Trad,5.10,1,50,34.92043,-111.85806
"Uncle Fister","1. The Left Wall > The Waterfall > Oak Creek Canyon > Northern Arizona > Arizona",https://www.mountainproject.com/route/108852943/uncle-fister,2.9,-1,Trad,5.10,1,100,34.9318,-111.73386
"You Will Respect My Authoriti","South Park > 7 - Upper Highway > Mount Lemmon (Catalina Highway) > Mount Lemmon (Santa Catalina Mountains) > Southern Arizona > Arizona",https://www.mountainproject.com/route/105987494/you-will-respect-my-authoriti,2.0,-1,Sport,5.10,1,,32.4514,-110.7914
[Redacted],"Incinerated Ridge > Outcroppings > 6 - Mid-Mountain > Mount Lemmon (Catalina Highway) > Mount Lemmon (Santa Catalina Mountains) > Southern Arizona > Arizona",https://www.mountainproject.com/route/106227756/redacted,2.1,-1,Sport,5.10,1,55,32.39994,-110.71588
"Bucking the Sun","6. Memorial Wall > South Side > Volunteer Canyon (The Cwm) > Sycamore Canyon > Northern Arizona > Arizona",https://www.mountainproject.com/route/113559154/bucking-the-sun,2.6,-1,Sport,5.10,1,75,35.11877,-111.93581
"Dugald's Route","The Overlook > Oak Creek Canyon Overlook > Flagstaff Area > Northern Arizona > Arizona",https://www.mountainproject.com/route/105823368/dugalds-route,2.4,-1,Trad,5.10,1,55,35.03049,-111.73199
"Endres Game","Southern Wall > Christopher Creek Gorge > Central Arizona > Arizona",https://www.mountainproject.com/route/120798086/endres-game,3.1,-1,Sport,5.10,1,40,34.31126,-111.06571
"Yang & Yin","Middle Section > West Clear Creek > Central Mogollon Rim > Northern Arizona > Arizona",https://www.mountainproject.com/route/107174902/yang-yin,3.0,-1,Trad,5.10,2,200,34.55008,-111.4354
Matterhorness,"Cave Wall > Outcroppings > 6 - Mid-Mountain > Mount Lemmon (Catalina Highway) > Mount Lemmon (Santa Catalina Mountains) > Southern Arizona > Arizona",https://www.mountainproject.com/route/106226879/matterhorness,2.5,-1,Sport,5.10,1,75,32.40027,-110.71542
"No More Credit From the Liquor Store","The Muttonhead > Sheepshead Area (Southwest) > West Stronghold > Cochise Stronghold > Southern Arizona > Arizona",https://www.mountainproject.com/route/106951403/no-more-credit-from-the-liquor-store,2.6,-1,Sport,5.10,3,,31.87036,-109.99398
"UKD (Unusual Killing Device)","The Prow > Paradise Forks > Sycamore Canyon > Northern Arizona > Arizona",https://www.mountainproject.com/route/105923209/ukd-unusual-killing-device,2.6,-1,Trad,5.10,1,80,35.13763,-112.02421
"Southern Bell","Southern Wall > Christopher Creek Gorge > Central Arizona > Arizona",https://www.mountainproject.com/route/111204861/southern-bell,2.7,-1,Trad,5.10,1,90,34.31126,-111.06571
"Thing Two","Tower Station > Upper Middle Elden Canyon > Middle Elden Canyon > Mt. Elden Crags > Flagstaff Area > Northern Arizona > Arizona",https://www.mountainproject.com/route/116118024/thing-two,3.0,-1,Sport,5.10,2,100,35.23356,-111.60167
"The Happy Ending","Dry Creek Spire > Dry Creek Spires > Dry Creek Road Area > West Sedona > Sedona Area > Northern Arizona > Arizona",https://www.mountainproject.com/route/107209405/the-happy-ending,2.9,-1,Trad,5.10,3,300,34.88686,-111.81319
Haywire,"Dam Wall > Below the Dam > Granite Dells > **Prescott Area > Central Arizona > Arizona",https://www.mountainproject.com/route/110977768/haywire,3.2,-1,Trad,5.10,1,100,34.60739,-112.40423
"King of Slots","2 - King > Chessman Area > 2 - Bear Canyon > Mount Lemmon (Catalina Highway) > Mount Lemmon (Santa Catalina Mountains) > Southern Arizona > Arizona",https://www.mountainproject.com/route/107994609/king-of-slots,2.1,-1,Sport,5.10,1,90,32.36032,-110.71983
"Mac Daddy","Mac Wall > Chimney Rock Area > West Sedona > Sedona Area > Northern Arizona > Arizona",https://www.mountainproject.com/route/121912061/mac-daddy,3.0,-1,Trad,5.10,2,180,34.88134,-111.81158
"Hall of Mirrors","1. The Grotto > Southern Walls > Peaks Crag > San Francisco Peaks > Flagstaff Area > Northern Arizona > Arizona",https://www.mountainproject.com/route/110520022/hall-of-mirrors,2.9,-1,Sport,5.10,1,50,35.30625,-111.70583
"Cheeto Dog","Workman Falls > Central Arizona > Arizona",https://www.mountainproject.com/route/119018408/cheeto-dog,3.0,-1,Sport,5.10,1,90,33.81839,-110.93062
"Take a Chance on Me","7. West End Wall > South Side > Volunteer Canyon (The Cwm) > Sycamore Canyon > Northern Arizona > Arizona",https://www.mountainproject.com/route/112197610/take-a-chance-on-me,2.4,-1,Trad,5.10,1,90,35.1187,-111.93604
Dustdevils,"Westworld Dome > West Stronghold > Cochise Stronghold > Southern Arizona > Arizona",https://www.mountainproject.com/route/105821813/dustdevils,2.6,-1,"Trad, Sport",5.10,4,500,31.93522,-109.99091
"Bobby Fissure","2 - King > Chessman Area > 2 - Bear Canyon > Mount Lemmon (Catalina Highway) > Mount Lemmon (Santa Catalina Mountains) > Southern Arizona > Arizona",https://www.mountainproject.com/route/107995328/bobby-fissure,2.6,-1,"Trad, Sport",5.10,1,60,32.36032,-110.71983
"Got My Mojo Workin","Players Club > Crags Against Humanity > 1 -  Lower Highway > Mount Lemmon (Catalina Highway) > Mount Lemmon (Santa Catalina Mountains) > Southern Arizona > Arizona",https://www.mountainproject.com/route/116995557/got-my-mojo-workin,2.0,-1,Sport,5.10,1,42,32.32442,-110.7072
"I'itoi Dance","West Face/ Southwest Arete > Baboquivari Peak > Southern Arizona > Arizona",https://www.mountainproject.com/route/106711141/iitoi-dance,2.8,-1,Trad,5.10,9,1000,31.77063,-111.59773
"Forced Stress","Southeast Face > The Fortress > 8 - Summit Crags > Mount Lemmon (Catalina Highway) > Mount Lemmon (Santa Catalina Mountains) > Southern Arizona > Arizona",https://www.mountainproject.com/route/107259010/forced-stress,3.0,-1,Sport,5.10,2,220,32.43213,-110.79756
"Dead Giveaway","1. People's Court > North Side > Volunteer Canyon (The Cwm) > Sycamore Canyon > Northern Arizona > Arizona",https://www.mountainproject.com/route/114498921/dead-giveaway,3.0,-1,Trad,5.10,1,90,35.12029,-111.93498
"Peace Frog","Waterfall Area > Christopher Creek Gorge > Central Arizona > Arizona",https://www.mountainproject.com/route/113486264/peace-frog,3.0,-1,Trad,5.10,2,130,34.30839,-111.0566
"Secret Garden","The Carnal Caves > Secret Canyon > Mt. Elden Crags > Flagstaff Area > Northern Arizona > Arizona",https://www.mountainproject.com/route/108138708/secret-garden,3.0,-1,Sport,5.10,1,90,35.2464,-111.58659
"Bat & the Scorpion","4. Deep South > Southern Walls > Peaks Crag > San Francisco Peaks > Flagstaff Area > Northern Arizona > Arizona",https://www.mountainproject.com/route/110531222/bat-the-scorpion,3.0,-1,Sport,5.10,1,50,35.30568,-111.70602
"Pain & A Dirty Glass","IreIand Main Wall > Ireland > 7 - Upper Highway > Mount Lemmon (Catalina Highway) > Mount Lemmon (Santa Catalina Mountains) > Southern Arizona > Arizona",https://www.mountainproject.com/route/108283651/pain-a-dirty-glass,2.0,-1,Sport,5.10,1,30,32.42133,-110.74968
"The Womb","The Library > East Verde > Central Arizona > Arizona",https://www.mountainproject.com/route/106341314/the-womb,3.0,-1,Trad,5.10,1,60,34.2997,-111.3571
"Collar Blind","7. West End Wall > South Side > Volunteer Canyon (The Cwm) > Sycamore Canyon > Northern Arizona > Arizona",https://www.mountainproject.com/route/117767755/collar-blind,2.8,-1,Trad,5.10,1,100,35.1187,-111.93604
"Jim's Route","Hearthstone > 2 - Bear Canyon > Mount Lemmon (Catalina Highway) > Mount Lemmon (Santa Catalina Mountains) > Southern Arizona > Arizona",https://www.mountainproject.com/route/107310155/jims-route,2.8,-1,"Trad, Sport",5.10,1,90,32.36752,-110.70379
"El Toro","Bob Ross Wall > Wildlife Canyon (Closures in Effect) > South Mountain > **Phoenix Areas > Central Arizona > Arizona",https://www.mountainproject.com/route/121834274/el-toro,3.0,-1,Sport,5.10,1,25,33.34213,-112.07597
"Fashionably Late","Swim Fin > 4 - Windy Point West > Mount Lemmon (Catalina Highway) > Mount Lemmon (Santa Catalina Mountains) > Southern Arizona > Arizona",https://www.mountainproject.com/route/106764900/fashionably-late,1.8,-1,Sport,5.10,1,40,32.36765,-110.71988
"Gluten Intolerance","Atlantis South Side > Atlantis > Queen Creek Canyon > Central Arizona > Arizona",https://www.mountainproject.com/route/118838404/gluten-intolerance,2.5,-1,Sport,"5.10 PG13",1,40,33.30561,-111.07634
"Triple E","Finland Terrace > The Homestead > Central Arizona > Arizona",https://www.mountainproject.com/route/106676321/triple-e,2.3,-1,Sport,5.10,1,80,33.17507,-110.78122
"Corndog Spire","Corndog Spire > Dry Creek Spires > Dry Creek Road Area > West Sedona > Sedona Area > Northern Arizona > Arizona",https://www.mountainproject.com/route/110264453/corndog-spire,2.5,-1,Trad,5.10,2,100,34.88603,-111.81316
"Shrimp Gumbo","Unsorted Pictograph Canyon Routes > Pictograph Canyon > West Stronghold > Cochise Stronghold > Southern Arizona > Arizona",https://www.mountainproject.com/route/120122549/shrimp-gumbo,3.0,-1,Trad,"5.10 PG13",3,200,31.90871,-109.98906
Over-torqued,"Main Wall > The Fist Pinnacle > Council Rocks > West Stronghold > Cochise Stronghold > Southern Arizona > Arizona",https://www.mountainproject.com/route/121840075/over-torqued,3.0,-1,Trad,5.10,1,100,31.90785,-110.03896
"Black Streak","Gardener's Wall > McDowell Mountains > **Phoenix Areas > Central Arizona > Arizona",https://www.mountainproject.com/route/118212400/black-streak,3.0,-1,Trad,5.10,1,105,33.68178,-111.80737
"The Peep Show","T-Pinnacle > East Stronghold > Cochise Stronghold > Southern Arizona > Arizona",https://www.mountainproject.com/route/121808784/the-peep-show,2.0,-1,Trad,5.10,1,70,31.95328,-109.96197
Gravity,"Gardener's Wall > McDowell Mountains > **Phoenix Areas > Central Arizona > Arizona",https://www.mountainproject.com/route/118212268/gravity,3.0,-1,Trad,5.10,1,47,33.68178,-111.80737
"Bumping Gums","The Godfather Area > Upper Middle Elden Canyon > Middle Elden Canyon > Mt. Elden Crags > Flagstaff Area > Northern Arizona > Arizona",https://www.mountainproject.com/route/116099173/bumping-gums,3.3,-1,Sport,5.10,1,70,35.23316,-111.6017
"Bikini Run","Log Jam area > West Clear Creek > Central Mogollon Rim > Northern Arizona > Arizona",https://www.mountainproject.com/route/119008452/bikini-run,3.0,-1,Trad,"5.10 PG13",2,162,34.5539,-111.41886
"The Mayor of Ghost Town","Ghost Town > San Francisco Peaks > Flagstaff Area > Northern Arizona > Arizona",https://www.mountainproject.com/route/112115775/the-mayor-of-ghost-town,3.0,-1,Sport,5.10,1,70,35.32928,-111.62074
"Wild Woman Spire","Secret Canyon > Dry Creek Road Area > West Sedona > Sedona Area > Northern Arizona > Arizona",https://www.mountainproject.com/route/111434656/wild-woman-spire,3.0,-1,Trad,5.10,2,150,34.90922,-111.84107
"Canyon Cooler","Wild Wall > Paradise Forks > Sycamore Canyon > Northern Arizona > Arizona",https://www.mountainproject.com/route/113244986/canyon-cooler,3.0,-1,Trad,5.10,1,85,35.13706,-112.02357
Galapago,"Oasis > La Milagrosa Canyon > Southern Arizona > Arizona",https://www.mountainproject.com/route/110085738/galapago,3.0,-1,Trad,5.10,1,40,32.30032,-110.70959
"Visions of Yesteryears","Workman Falls > Central Arizona > Arizona",https://www.mountainproject.com/route/108120614/visions-of-yesteryears,3.3,-1,Trad,5.10,1,80,33.81839,-110.93062
"Apache Rose","The White Wall > Paradise Forks > Sycamore Canyon > Northern Arizona > Arizona",https://www.mountainproject.com/route/109590777/apache-rose,3.0,-1,Trad,5.10,1,60,35.1381,-112.0282
"Spaceman Spiff","Wind Wall > 3 - Windy Point East > Mount Lemmon (Catalina Highway) > Mount Lemmon (Santa Catalina Mountains) > Southern Arizona > Arizona",https://www.mountainproject.com/route/105929682/spaceman-spiff,2.5,-1,"Trad, Sport, TR",5.10,1,80,32.36721,-110.7149
"Fear of Frying","Ripple Wall > 2 - Bear Canyon > Mount Lemmon (Catalina Highway) > Mount Lemmon (Santa Catalina Mountains) > Southern Arizona > Arizona",https://www.mountainproject.com/route/105936598/fear-of-frying,2.5,-1,Sport,5.10,1,85,32.37715,-110.6956
"Free Flight","The Roost Area > Raptor Ridge > The Refuge > Lower Devil's Canyon > Queen Creek Canyon > Central Arizona > Arizona",https://www.mountainproject.com/route/108716905/free-flight,3.0,-1,"Trad, Sport",5.10,1,60,33.27133,-111.04627
Cobwebs,"Cobwebs Cliff > Willow Canyon Crags > 6 - Mid-Mountain > Mount Lemmon (Catalina Highway) > Mount Lemmon (Santa Catalina Mountains) > Southern Arizona > Arizona",https://www.mountainproject.com/route/110264648/cobwebs,3.0,-1,Trad,5.10,1,60,32.37794,-110.71748
"The Edge of Da-light","North Fin > 4 - Windy Point West > Mount Lemmon (Catalina Highway) > Mount Lemmon (Santa Catalina Mountains) > Southern Arizona > Arizona",https://www.mountainproject.com/route/106125887/the-edge-of-da-light,2.6,-1,Trad,5.10,1,,32.36755,-110.71953
Hairball,"Catopia > The Refuge > Lower Devil's Canyon > Queen Creek Canyon > Central Arizona > Arizona",https://www.mountainproject.com/route/107939172/hairball,3.0,-1,Trad,"5.10 PG13",1,80,33.2728,-111.0475
"After Nine","Subalien Wall > Faulty Towers > The Refuge > Lower Devil's Canyon > Queen Creek Canyon > Central Arizona > Arizona",https://www.mountainproject.com/route/107383604/after-nine,3.0,-1,Trad,5.10,1,70,33.2728,-111.0475
"Sine of the Times","The Sine Wall > Paradise Forks > Sycamore Canyon > Northern Arizona > Arizona",https://www.mountainproject.com/route/105891419/sine-of-the-times,2.9,-1,Trad,5.10,1,100,35.1381,-112.0282
Ursula,"Octopus's Garden > Midgley Bridge Area > Sedona > Sedona Area > Northern Arizona > Arizona",https://www.mountainproject.com/route/121897406/ursula,2.5,-1,Sport,5.10,1,70,34.88787,-111.75091
"Inside Track","Continuum Crag > Spectrum Crags > 7 - Upper Highway > Mount Lemmon (Catalina Highway) > Mount Lemmon (Santa Catalina Mountains) > Southern Arizona > Arizona",https://www.mountainproject.com/route/110508549/inside-track,2.7,-1,Sport,5.10,1,45,32.41767,-110.74981
"The Wookie Max","Morrell's Wall > McDowell Mountains > **Phoenix Areas > Central Arizona > Arizona",https://www.mountainproject.com/route/122074817/the-wookie-max,3.0,-1,Trad,5.10,1,50,33.68572,-111.80174
"Snake Fur Jacket","The Boulder and Main Wall > Rattlesnake Pinnacles > West Stronghold > Cochise Stronghold > Southern Arizona > Arizona",https://www.mountainproject.com/route/119689215/snake-fur-jacket,3.0,-1,Trad,5.10,3,285,31.93363,-109.99364
"One-Nut Wonder","Crown Butte > Gibraltar Rock Area > Sedona > Sedona Area > Northern Arizona > Arizona",https://www.mountainproject.com/route/118654260/one-nut-wonder,3.0,-1,Trad,5.10,3,230,34.82443,-111.75125
"Need More Batteries","Whipper Wall > Stewart Pocket > Central Arizona > Arizona",https://www.mountainproject.com/route/120062387/need-more-batteries,3.0,-1,Trad,5.10,1,60,34.22856,-111.26615
"The High Road","Upper Tier > Crossroads Wall (AKA Parking Lot Wall) > McDowell Mountains > **Phoenix Areas > Central Arizona > Arizona",https://www.mountainproject.com/route/117669403/the-high-road,3.0,-1,"Sport, TR",5.10,1,45,33.6807,-111.80956
"Crack Man","Entrance Dome > East Stronghold > Cochise Stronghold > Southern Arizona > Arizona",https://www.mountainproject.com/route/116246105/crack-man,3.0,-1,Trad,5.10,1,120,31.94653,-109.96833
"Lean On Me","Solitude Wall > Solitude Canyon > Mt. Elden Crags > Flagstaff Area > Northern Arizona > Arizona",https://www.mountainproject.com/route/121125084/lean-on-me,3.0,-1,Sport,5.10,1,50,35.23893,-111.62114
"Spaghetti Western","Myth Wall > The Labyrinth > Superstition Mountains > **Phoenix Areas > Central Arizona > Arizona",https://www.mountainproject.com/route/118226236/spaghetti-western,3.0,-1,Trad,5.10,1,65,33.41155,-111.35051
"The Gridle","The Overlook > Oak Creek Canyon Overlook > Flagstaff Area > Northern Arizona > Arizona",https://www.mountainproject.com/route/106143241/the-gridle,3.0,-1,Trad,5.10,12,900,35.03049,-111.73199
"Lion's Den","Myth Wall > The Labyrinth > Superstition Mountains > **Phoenix Areas > Central Arizona > Arizona",https://www.mountainproject.com/route/118790677/lions-den,3.0,-1,Trad,5.10,1,80,33.41155,-111.35051
Junky,"OCB > Pusch Ridge > Mount Lemmon (Santa Catalina Mountains) > Southern Arizona > Arizona",https://www.mountainproject.com/route/116195926/junky,3.0,-1,"Trad, TR",5.10,1,30,32.36561,-110.91059
"Bear Necessities","The Jungle Wall > Paradise Forks > Sycamore Canyon > Northern Arizona > Arizona",https://www.mountainproject.com/route/111688396/bear-necessities,2.7,-1,Trad,5.10,1,60,35.1381,-112.0282
"Not Royal’s Problem","The Prow Area > Black Mountains - Golden Valley > Kingman Area > Northern Arizona > Arizona",https://www.mountainproject.com/route/115123316/not-royals-problem,2.8,-1,"Sport, TR",5.10,1,46,35.1608,-114.32884
"Fame and Notoriety","The Lighthouse > Coffeepot Rock Area > West Sedona > Sedona Area > Northern Arizona > Arizona",https://www.mountainproject.com/route/111685185/fame-and-notoriety,3.0,-1,Trad,5.10,2,190,34.88804,-111.79352
"Window of Opportunity","Super Crack Tower > Midgley Bridge Area > Sedona > Sedona Area > Northern Arizona > Arizona",https://www.mountainproject.com/route/106179408/window-of-opportunity,2.8,-1,Trad,5.10,1,70,34.9033,-111.748
"Stick It to the Man","1. People's Court > North Side > Volunteer Canyon (The Cwm) > Sycamore Canyon > Northern Arizona > Arizona",https://www.mountainproject.com/route/114524407/stick-it-to-the-man,3.0,-1,Trad,5.10,1,80,35.12029,-111.93498
"guinea Pig","Salome > Central Arizona > Arizona",https://www.mountainproject.com/route/108541281/guinea-pig,3.0,-1,Sport,5.10,1,60,33.8488,-113.68882
"Flight Line 3","Forgotten Wall, Control Tower & Up The Creek Wall > 1 -  Lower Highway > Mount Lemmon (Catalina Highway) > Mount Lemmon (Santa Catalina Mountains) > Southern Arizona > Arizona",https://www.mountainproject.com/route/106080322/flight-line-3,2.7,-1,Trad,5.10,1,45,32.35534,-110.71812
"Tucson Goes to New York","Sandwich Spire East Face > Agave Spires Area > 2 - Bear Canyon > Mount Lemmon (Catalina Highway) > Mount Lemmon (Santa Catalina Mountains) > Southern Arizona > Arizona",https://www.mountainproject.com/route/107853382/tucson-goes-to-new-york,3.0,-1,Sport,5.10,1,80,32.36502,-110.71828
"No More Aliens","Alien Wall > Faulty Towers > The Refuge > Lower Devil's Canyon > Queen Creek Canyon > Central Arizona > Arizona",https://www.mountainproject.com/route/107383636/no-more-aliens,3.0,-1,Trad,5.10,1,100,33.2728,-111.0475
"Stealing Eggs","The Roost Area > Raptor Ridge > The Refuge > Lower Devil's Canyon > Queen Creek Canyon > Central Arizona > Arizona",https://www.mountainproject.com/route/108715657/stealing-eggs,3.0,-1,Trad,5.10,1,130,33.27133,-111.04627
"The Raptor","The Roost Area > Raptor Ridge > The Refuge > Lower Devil's Canyon > Queen Creek Canyon > Central Arizona > Arizona",https://www.mountainproject.com/route/108715716/the-raptor,3.0,-1,Trad,5.10,1,110,33.27133,-111.04627
"Tree Hugger","Log Jam area > West Clear Creek > Central Mogollon Rim > Northern Arizona > Arizona",https://www.mountainproject.com/route/107244388/tree-hugger,2.8,-1,Trad,"5.10 PG13",2,180,34.5539,-111.41886
"Yesterdays 5.8","Lower Mt Wilson Wall > Midgley Bridge Area > Sedona > Sedona Area > Northern Arizona > Arizona",https://www.mountainproject.com/route/106396661/yesterdays-58,3.0,-1,Trad,5.10,1,90,34.88934,-111.75151
Noodler,"North Fin > 4 - Windy Point West > Mount Lemmon (Catalina Highway) > Mount Lemmon (Santa Catalina Mountains) > Southern Arizona > Arizona",https://www.mountainproject.com/route/107830280/noodler,2.4,-1,Sport,5.10,1,75,32.36755,-110.71953
"Flight Stimulator","Forgotten Wall, Control Tower & Up The Creek Wall > 1 -  Lower Highway > Mount Lemmon (Catalina Highway) > Mount Lemmon (Santa Catalina Mountains) > Southern Arizona > Arizona",https://www.mountainproject.com/route/106080285/flight-stimulator,2.1,-1,Trad,5.10,1,80,32.35534,-110.71812
"Spinal Cracker","Sven Tower 3 > Sven Towers > McDowell Mountains > **Phoenix Areas > Central Arizona > Arizona",https://www.mountainproject.com/route/111604724/spinal-cracker,2.6,-1,"Trad, TR","5.10 PG13",1,65,33.68722,-111.7946
Trollkind,"Wall of the Trundling Trolls > Munchkinland Area > 6 - Mid-Mountain > Mount Lemmon (Catalina Highway) > Mount Lemmon (Santa Catalina Mountains) > Southern Arizona > Arizona",https://www.mountainproject.com/route/106224438/trollkind,2.6,-1,Trad,5.10,2,185,32.38723,-110.71788
"Eagles and Aliens","Alien Wall > Faulty Towers > The Refuge > Lower Devil's Canyon > Queen Creek Canyon > Central Arizona > Arizona",https://www.mountainproject.com/route/107383661/eagles-and-aliens,2.8,-1,Trad,5.10,1,100,33.2728,-111.0475
"Slightly Stoopid aka Stupa Spire","Stupa Crag > Chimney Rock Area > West Sedona > Sedona Area > Northern Arizona > Arizona",https://www.mountainproject.com/route/120079134/slightly-stoopid-aka-stupa-spire,2.8,-1,Trad,5.10,1,70,34.87438,-111.81231
"The Clan of the Cave Bear","Bear Mountain > Bear Mountain Area > Dry Creek Road Area > West Sedona > Sedona Area > Northern Arizona > Arizona",https://www.mountainproject.com/route/108971897/the-clan-of-the-cave-bear,2.7,-1,Trad,"5.10 R",3,300,34.90508,-111.86974
"Hairy Hands","The Boulder and Main Wall > Rattlesnake Pinnacles > West Stronghold > Cochise Stronghold > Southern Arizona > Arizona",https://www.mountainproject.com/route/119686406/hairy-hands,2.8,-1,Trad,5.10,3,400,31.93363,-109.99364
"Target Practice","Thirteen Mile Rock > Central Mogollon Rim > Northern Arizona > Arizona",https://www.mountainproject.com/route/121050557/target-practice,2.8,-1,Sport,5.10,1,,34.50376,-111.67743
"Son of Gums","End Pinnacle > Rockfellow Group > East Stronghold > Cochise Stronghold > Southern Arizona > Arizona",https://www.mountainproject.com/route/107447697/son-of-gums,2.8,-1,Trad,5.10,3,,31.92707,-109.97864
"Captain Caution","Beale St East > Beale St Wall > Kingman Area > Northern Arizona > Arizona",https://www.mountainproject.com/route/118751870/captain-caution,2.6,-1,"Sport, TR",5.10,1,45,35.20513,-114.08628
"Hanging from the Mantle","Hearthstone > 2 - Bear Canyon > Mount Lemmon (Catalina Highway) > Mount Lemmon (Santa Catalina Mountains) > Southern Arizona > Arizona",https://www.mountainproject.com/route/119677872/hanging-from-the-mantle,2.8,-1,Trad,5.10,1,70,32.36752,-110.70379
"Tenderfoots Nightmare","Boyscout Wall > 6 - Mid-Mountain > Mount Lemmon (Catalina Highway) > Mount Lemmon (Santa Catalina Mountains) > Southern Arizona > Arizona",https://www.mountainproject.com/route/107862408/tenderfoots-nightmare,2.2,-1,Sport,5.10,1,105,32.40356,-110.71275
"Unknown OW","Upper Sullie’s North Side > Upper Sullivan's > Sullivan's Canyon > **Prescott Area > Central Arizona > Arizona",https://www.mountainproject.com/route/108022592/unknown-ow,2.8,-1,Trad,5.10,1,,34.86417,-112.45957
"Have You Seen It?","The Muttonhead > Sheepshead Area (Southwest) > West Stronghold > Cochise Stronghold > Southern Arizona > Arizona",https://www.mountainproject.com/route/106951393/have-you-seen-it,2.3,-1,Sport,5.10,2,260,31.87036,-109.99398
"Kopytem Sem Kopytem Tam (Hoof here, Hoof there)","The Mustang > Southern Arizona > Arizona",https://www.mountainproject.com/route/105903733/kopytem-sem-kopytem-tam-hoof-here-hoof-there,2.5,-1,Sport,5.10,1,100,31.694,-110.4713
"Bromancing the Stone","6. Memorial Wall > South Side > Volunteer Canyon (The Cwm) > Sycamore Canyon > Northern Arizona > Arizona",https://www.mountainproject.com/route/110897078/bromancing-the-stone,2.3,-1,Trad,5.10,1,70,35.11877,-111.93581
"Animal Husbandry","The Sheepshead > Sheepshead Area (Southwest) > West Stronghold > Cochise Stronghold > Southern Arizona > Arizona",https://www.mountainproject.com/route/108384689/animal-husbandry,2.4,-1,Sport,5.10,2,,31.87031,-109.99388
"Middle Deception Crack","Uptown > West Elden > Mt. Elden Crags > Flagstaff Area > Northern Arizona > Arizona",https://www.mountainproject.com/route/105819007/middle-deception-crack,2.1,-1,Trad,"5.10 PG13",1,70,35.25552,-111.6237
"More Than A Handful","Rollinstone > 2 - Bear Canyon > Mount Lemmon (Catalina Highway) > Mount Lemmon (Santa Catalina Mountains) > Southern Arizona > Arizona",https://www.mountainproject.com/route/106124761/more-than-a-handful,2.0,-1,Sport,5.10,1,60,32.3705,-110.70796
"Finger Banger","Ripple Wall > 2 - Bear Canyon > Mount Lemmon (Catalina Highway) > Mount Lemmon (Santa Catalina Mountains) > Southern Arizona > Arizona",https://www.mountainproject.com/route/106668823/finger-banger,2.5,-1,Trad,5.10,1,70,32.37715,-110.6956
"Don't Grab Here","Forgotten Wall, Control Tower & Up The Creek Wall > 1 -  Lower Highway > Mount Lemmon (Catalina Highway) > Mount Lemmon (Santa Catalina Mountains) > Southern Arizona > Arizona",https://www.mountainproject.com/route/106080572/dont-grab-here,2.6,-1,Trad,5.10,1,80,32.35534,-110.71812
"Harry Tuber's Big ""O""","Upper Looner Land > The Mine Area > Queen Creek Canyon > Central Arizona > Arizona",https://www.mountainproject.com/route/107490225/harry-tubers-big-o,2.5,-1,Sport,5.10,1,50,33.29996,-111.07183
"Scooby Doobie","Lost Hawk > 2 - Bear Canyon > Mount Lemmon (Catalina Highway) > Mount Lemmon (Santa Catalina Mountains) > Southern Arizona > Arizona",https://www.mountainproject.com/route/106405681/scooby-doobie,1.9,-1,Sport,5.10,1,55,32.3704,-110.70788
"The Cruxible","7 - Pumpkin Patch > The Farmhouse > Southern Arizona > Arizona",https://www.mountainproject.com/route/116134176/the-cruxible,2.1,-1,Sport,5.10,1,60,31.69488,-110.43142
Gemstone,"Concrete Jungle > Lower Sullivan Canyon > Sullivan's Canyon > **Prescott Area > Central Arizona > Arizona",https://www.mountainproject.com/route/106151864/gemstone,2.6,-1,Trad,5.10,1,40,34.86312,-112.44732
"Girl Scout","Boyscout Wall > 6 - Mid-Mountain > Mount Lemmon (Catalina Highway) > Mount Lemmon (Santa Catalina Mountains) > Southern Arizona > Arizona",https://www.mountainproject.com/route/108143379/girl-scout,2.1,-1,Sport,5.10,1,90,32.40356,-110.71275
Centipede,"Lower Religion Wall > Church Wall and Religion Wall > Church Spires Area > East Twin Butte > Twin Butte > Sedona > Sedona Area > Northern Arizona > Arizona",https://www.mountainproject.com/route/105814717/centipede,2.3,-1,Sport,5.10,1,70,34.83144,-111.75866
"Piggly Wiggly","Bristle Pig Spire > Lost Dry Creek Cirque > Dry Creek Road Area > West Sedona > Sedona Area > Northern Arizona > Arizona",https://www.mountainproject.com/route/116180224/piggly-wiggly,2.7,-1,Trad,5.10,2,100,34.89277,-111.80889
"Tarantula Spire","Land of Spires > Long Canyon > Dry Creek Road Area > West Sedona > Sedona Area > Northern Arizona > Arizona",https://www.mountainproject.com/route/114396199/tarantula-spire,2.7,-1,Trad,5.10,2,200,34.92477,-111.8572
"Strassman Memorial Buttress","Mt. Chaktar > Sheepshead Area (Southwest) > West Stronghold > Cochise Stronghold > Southern Arizona > Arizona",https://www.mountainproject.com/route/111790694/strassman-memorial-buttress,2.7,-1,Trad,5.10,3,450,31.87229,-109.99625
Greenhorn,"Green Acres (North Face) > Green Slabs Area > 2 - Bear Canyon > Mount Lemmon (Catalina Highway) > Mount Lemmon (Santa Catalina Mountains) > Southern Arizona > Arizona",https://www.mountainproject.com/route/105826401/greenhorn,2.3,-1,Sport,5.10,1,50,32.36252,-110.71352
"Texas Duo","Road Area > Lower Devil's Canyon > Queen Creek Canyon > Central Arizona > Arizona",https://www.mountainproject.com/route/106074410/texas-duo,2.4,-1,Sport,5.10,1,110,33.27178,-111.04223
"Ultimate OW","Ultimates East > The Ultimates > Upper Pumphouse Wash > Flagstaff Area > Northern Arizona > Arizona",https://www.mountainproject.com/route/105815993/ultimate-ow,2.3,-1,Trad,"5.10 PG13",1,165,35.03442,-111.71469
"Hornass Nest","Cave Wall > Outcroppings > 6 - Mid-Mountain > Mount Lemmon (Catalina Highway) > Mount Lemmon (Santa Catalina Mountains) > Southern Arizona > Arizona",https://www.mountainproject.com/route/106226677/hornass-nest,2.1,-1,Sport,5.10,1,75,32.40027,-110.71542
"Insane Orange Heaven (aka 666)","Window Dome > West Stronghold > Cochise Stronghold > Southern Arizona > Arizona",https://www.mountainproject.com/route/120238456/insane-orange-heaven-aka-666,2.5,-1,Trad,5.10,5,,31.935,-109.99553
"Sergeant Pepper","Submarine (Steamboat) Rock > Midgley Bridge Area > Sedona > Sedona Area > Northern Arizona > Arizona",https://www.mountainproject.com/route/113826624/sergeant-pepper,2.5,-1,Trad,5.10,2,140,34.88907,-111.75198
"Cracked Code","Mystery Spire > Boynton Canyon > Dry Creek Road Area > West Sedona > Sedona Area > Northern Arizona > Arizona",https://www.mountainproject.com/route/112344532/cracked-code,2.5,-1,Trad,5.10,2,160,34.91445,-111.84789
Bruuuuhhhh,"The Joint > Stewart Pocket > Central Arizona > Arizona",https://www.mountainproject.com/route/113766206/bruuuuhhhh,2.5,-1,Sport,5.10,1,45,34.22415,-111.27374
"Quadruple Direct","Cochise Dome (What's My Line Dome) > East Stronghold > Cochise Stronghold > Southern Arizona > Arizona",https://www.mountainproject.com/route/107968662/quadruple-direct,2.5,-1,Trad,5.10,4,475,31.929,-109.98167
"Fire Hydrant Spire","Macita/ Fire Hydrant area > Marg's Draw > Sedona > Sedona Area > Northern Arizona > Arizona",https://www.mountainproject.com/route/108246540/fire-hydrant-spire,2.5,-1,Trad,5.10,2,180,34.8518,-111.7303
"Beans and Baby Dicks","Southern Wall > Christopher Creek Gorge > Central Arizona > Arizona",https://www.mountainproject.com/route/111124785/beans-and-baby-dicks,2.5,-1,Trad,5.10,1,,34.31126,-111.06571
N.I.B.,"OCB > Pusch Ridge > Mount Lemmon (Santa Catalina Mountains) > Southern Arizona > Arizona",https://www.mountainproject.com/route/111245716/nib,2.5,-1,Trad,5.10,1,70,32.36561,-110.91059
"Hobo Sapien","Delta Dome > 7 - Upper Highway > Mount Lemmon (Catalina Highway) > Mount Lemmon (Santa Catalina Mountains) > Southern Arizona > Arizona",https://www.mountainproject.com/route/109221571/hobo-sapien,1.9,-1,Sport,5.10,1,70,32.41849,-110.7529
"Vapin in the Boys Room","K12 > School of Rock > 5 - Windy Ridge > Mount Lemmon (Catalina Highway) > Mount Lemmon (Santa Catalina Mountains) > Southern Arizona > Arizona",https://www.mountainproject.com/route/115787519/vapin-in-the-boys-room,2.2,-1,Sport,5.10,1,50,32.37462,-110.70508
"Pit Pig","(M) The \ Hashtag \ Wall > The Pit (aka Le Petit Verdon) > Flagstaff Area > Northern Arizona > Arizona",https://www.mountainproject.com/route/111792716/pit-pig,1.9,-1,"Sport, TR",5.10,1,55,35.12944,-111.59645
Chuckwalla,"Lizardhead Cove > Lizardhead Area > Dry Creek Road Area > West Sedona > Sedona Area > Northern Arizona > Arizona",https://www.mountainproject.com/route/112508592/chuckwalla,2.4,-1,Trad,5.10,3,220,34.88333,-111.81732
"Mauled by Jesus","Peanut Butter Cabal Wall > The Biscuit > Southern Arizona > Arizona",https://www.mountainproject.com/route/116378666/mauled-by-jesus,2.4,-1,Sport,5.10,1,,31.70898,-110.49397
Macita,"Macita/ Fire Hydrant area > Marg's Draw > Sedona > Sedona Area > Northern Arizona > Arizona",https://www.mountainproject.com/route/106935188/macita,2.4,-1,"Trad, Aid","5.10 C1",3,250,34.8518,-111.7303
Galadriel,"Weathertop > 1 -  Lower Highway > Mount Lemmon (Catalina Highway) > Mount Lemmon (Santa Catalina Mountains) > Southern Arizona > Arizona",https://www.mountainproject.com/route/108799626/galadriel,2.4,-1,Trad,5.10,1,100,32.32177,-110.7023
"As You Like It","Southeast Face > The Fortress > 8 - Summit Crags > Mount Lemmon (Catalina Highway) > Mount Lemmon (Santa Catalina Mountains) > Southern Arizona > Arizona",https://www.mountainproject.com/route/105842261/as-you-like-it,2.3,-1,Sport,"5.10 PG13",3,475,32.43213,-110.79756
"Conveyor Belt to Conformity","Conformity Wall > Boynton Canyon > Dry Creek Road Area > West Sedona > Sedona Area > Northern Arizona > Arizona",https://www.mountainproject.com/route/118188138/conveyor-belt-to-conformity,2.5,-1,Sport,5.10,15,1085,34.92027,-111.84194
"Brownie Redpoints","Boyscout Wall > 6 - Mid-Mountain > Mount Lemmon (Catalina Highway) > Mount Lemmon (Santa Catalina Mountains) > Southern Arizona > Arizona",https://www.mountainproject.com/route/107920606/brownie-redpoints,2.1,-1,Sport,5.10,1,100,32.40356,-110.71275
"The Stage","North Mesa > Cathedral Rock Area > Sedona > Sedona Area > Northern Arizona > Arizona",https://www.mountainproject.com/route/112324601/the-stage,2.4,-1,Trad,5.10,2,200,34.82026,-111.79373
"Girls Route","Davidson Wall > Paradise Forks > Sycamore Canyon > Northern Arizona > Arizona",https://www.mountainproject.com/route/113987974/girls-route,2.3,-1,Trad,5.10,1,70,35.1381,-112.0282
Threshold,"Wind Wall > 3 - Windy Point East > Mount Lemmon (Catalina Highway) > Mount Lemmon (Santa Catalina Mountains) > Southern Arizona > Arizona",https://www.mountainproject.com/route/106580551/threshold,2.3,-1,"Trad, Sport, TR",5.10,1,50,32.36721,-110.7149
"Hot Dog","Canines & Lobo Wall > 3 - Windy Point East > Mount Lemmon (Catalina Highway) > Mount Lemmon (Santa Catalina Mountains) > Southern Arizona > Arizona",https://www.mountainproject.com/route/107672439/hot-dog,1.9,-1,Sport,5.10,1,,32.36786,-110.71241
"Rocka Rolla","1-Upper Wall > Palisade Park > 6 - Mid-Mountain > Mount Lemmon (Catalina Highway) > Mount Lemmon (Santa Catalina Mountains) > Southern Arizona > Arizona",https://www.mountainproject.com/route/121622249/rocka-rolla,2.1,-1,Sport,5.10,1,45,32.4122,-110.7179
"Ubangy Lips","Tom's Thumb > McDowell Mountains > **Phoenix Areas > Central Arizona > Arizona",https://www.mountainproject.com/route/119924459/ubangy-lips,2.5,-1,Trad,5.10,1,135,33.68174,-111.81143
"The Chase","Southern Wall > Christopher Creek Gorge > Central Arizona > Arizona",https://www.mountainproject.com/route/120818503/the-chase,2.5,-1,Sport,5.10,1,60,34.31126,-111.06571
"Can You See","Sven Tower 1 > Sven Towers > McDowell Mountains > **Phoenix Areas > Central Arizona > Arizona",https://www.mountainproject.com/route/117806695/can-you-see,2.5,-1,"Trad, TR",5.10,1,100,33.68665,-111.8089
"Unnecessary Fisting","Upper Sullie’s South Side > Upper Sullivan's > Sullivan's Canyon > **Prescott Area > Central Arizona > Arizona",https://www.mountainproject.com/route/120217918/unnecessary-fisting,2.5,-1,"Trad, TR",5.10,1,30,34.86409,-112.45941
"Mister Rogers' Wild Ride","Sock Puppet Spire > Sock Puppet Area > Long Canyon > Dry Creek Road Area > West Sedona > Sedona Area > Northern Arizona > Arizona",https://www.mountainproject.com/route/116217321/mister-rogers-wild-ride,2.5,-1,Trad,5.10,2,190,34.93159,-111.83321
"Jug Haul","Tombstone > Stewart Pocket > Central Arizona > Arizona",https://www.mountainproject.com/route/121819275/jug-haul,2.7,-1,Sport,5.10,1,40,34.22232,-111.259
"Bellyful of Moonshine","Sterling Pass > Oak Creek Canyon > Northern Arizona > Arizona",https://www.mountainproject.com/route/108739308/bellyful-of-moonshine,2.5,-1,Trad,5.10,2,110,34.9329,-111.7598
"Beyond Nuts!","5. Tralfamadore Wall > North Side > Volunteer Canyon (The Cwm) > Sycamore Canyon > Northern Arizona > Arizona",https://www.mountainproject.com/route/114528622/beyond-nuts,2.5,-1,Trad,5.10,1,150,35.12026,-111.9352
"Doo-doo in my Tu-Tu","Upper Beach > The Beach Areas > West Twin Butte > Twin Butte > Sedona > Sedona Area > Northern Arizona > Arizona",https://www.mountainproject.com/route/112777918/doo-doo-in-my-tu-tu,2.5,-1,Trad,5.10,1,70,34.8346,-111.7666
"Greasy Gizzards","Stronghold Dome > East Stronghold > Cochise Stronghold > Southern Arizona > Arizona",https://www.mountainproject.com/route/107004816/greasy-gizzards,2.5,-1,Trad,"5.10 R",2,,31.93005,-109.97094
"Contact High","East Side > Winslow Wall > East Clear Creek > Winslow- Hwy’s 87 & 99 Corridors > Northern Arizona > Arizona",https://www.mountainproject.com/route/106892410/contact-high,2.5,-1,Trad,5.10,1,80,34.94209,-110.6632
"Z Crack","Upper Sullie’s North Side > Upper Sullivan's > Sullivan's Canyon > **Prescott Area > Central Arizona > Arizona",https://www.mountainproject.com/route/111826713/z-crack,2.5,-1,"Trad, TR",5.10,1,,34.86417,-112.45957
Unknown,"Tollgate Pass East > Tollgate Pass > Black Hills > Southern Arizona > Arizona",https://www.mountainproject.com/route/108277921/unknown,2.5,-1,Sport,5.10,1,40,32.84374,-109.39844
"Sweet Sarah","Stonewall  (aka Airmen Peak) > 1 -  Lower Highway > Mount Lemmon (Catalina Highway) > Mount Lemmon (Santa Catalina Mountains) > Southern Arizona > Arizona",https://www.mountainproject.com/route/108233192/sweet-sarah,2.5,-1,Trad,"5.10 PG13",2,220,32.3508,-110.6856
"Defrocked Direct Start","Westworld Dome > West Stronghold > Cochise Stronghold > Southern Arizona > Arizona",https://www.mountainproject.com/route/105824135/defrocked-direct-start,2.5,-1,Trad,"5.10 R",2,,31.93522,-109.99091
"Beak n Chains","The Roost Area > Raptor Ridge > The Refuge > Lower Devil's Canyon > Queen Creek Canyon > Central Arizona > Arizona",https://www.mountainproject.com/route/108718853/beak-n-chains,2.5,-1,Sport,5.10,1,70,33.27133,-111.04627
"You Only Nest Twice","The Bulges > The Torch > The Refuge > Lower Devil's Canyon > Queen Creek Canyon > Central Arizona > Arizona",https://www.mountainproject.com/route/107382903/you-only-nest-twice,2.5,-1,Trad,5.10,1,90,33.26866,-111.04877
"Balin Goes to Hollywood","Wall of the Trundling Trolls > Munchkinland Area > 6 - Mid-Mountain > Mount Lemmon (Catalina Highway) > Mount Lemmon (Santa Catalina Mountains) > Southern Arizona > Arizona",https://www.mountainproject.com/route/106224477/balin-goes-to-hollywood,2.0,-1,Trad,5.10,1,65,32.38723,-110.71788
"Never Ending Night Train","Hobo Jungle > San Francisco Peaks > Flagstaff Area > Northern Arizona > Arizona",https://www.mountainproject.com/route/107652153/never-ending-night-train,2.1,-1,Trad,"5.10 PG13",1,80,35.3874,-111.61355
Airgasm,"Rollinstone > 2 - Bear Canyon > Mount Lemmon (Catalina Highway) > Mount Lemmon (Santa Catalina Mountains) > Southern Arizona > Arizona",https://www.mountainproject.com/route/105738527/airgasm,1.9,-1,Trad,5.10,1,80,32.3705,-110.70796
"Funnel of Love","Cowpunks Wall > 5 - Windy Ridge > Mount Lemmon (Catalina Highway) > Mount Lemmon (Santa Catalina Mountains) > Southern Arizona > Arizona",https://www.mountainproject.com/route/122390096/funnel-of-love,2.3,-1,Trad,5.10,1,80,32.3751,-110.70681
"The Lineup","The Surf > Muscle Beach > Oak Creek Canyon > Northern Arizona > Arizona",https://www.mountainproject.com/route/113955079/the-lineup,2.1,-1,Sport,5.10,1,35,34.89108,-111.73284
"Car Bomb","Boot Hill > 1 -  Lower Highway > Mount Lemmon (Catalina Highway) > Mount Lemmon (Santa Catalina Mountains) > Southern Arizona > Arizona",https://www.mountainproject.com/route/106703026/car-bomb,2.0,-1,Sport,5.10,1,35,32.33319,-110.71853
"Elacca Drug","Aegir > Reef of Rocks > 7 - Upper Highway > Mount Lemmon (Catalina Highway) > Mount Lemmon (Santa Catalina Mountains) > Southern Arizona > Arizona",https://www.mountainproject.com/route/106921418/elacca-drug,2.1,-1,Sport,5.10,1,110,32.46112,-110.78115
"Humungous Woosey","East Face > Baboquivari Peak > Southern Arizona > Arizona",https://www.mountainproject.com/route/106443008/humungous-woosey,2.3,-1,Trad,"5.10 R",8,1000,31.77129,-111.59357
"Killer of Enemies","Lower Wall > Exit Gorge > Christopher Creek Gorge > Central Arizona > Arizona",https://www.mountainproject.com/route/122141841/killer-of-enemies,2.5,-1,Sport,5.10,1,90,34.31313,-111.0658
"Layed to Rest","Boneyard > 6 - Mid-Mountain > Mount Lemmon (Catalina Highway) > Mount Lemmon (Santa Catalina Mountains) > Southern Arizona > Arizona",https://www.mountainproject.com/route/107329301/layed-to-rest,2.1,-1,Sport,5.10,1,60,32.40369,-110.6965
"Book of Andy","Hawk Pinnacle > Rockfellow Group > East Stronghold > Cochise Stronghold > Southern Arizona > Arizona",https://www.mountainproject.com/route/116542561/book-of-andy,2.3,-1,Trad,5.10,1,200,31.92569,-109.97651
"Static Cling","Main Wall > Hog Heaven > McDowell Mountains > **Phoenix Areas > Central Arizona > Arizona",https://www.mountainproject.com/route/114145141/static-cling,2.3,-1,"Trad, TR","5.10 PG13",2,80,33.67856,-111.7963
"New Safari","The Mustang > Southern Arizona > Arizona",https://www.mountainproject.com/route/105915938/new-safari,2.5,-1,Sport,5.10,2,170,31.694,-110.4713
"Chicken Hawk","Hawk Rock > 4 - Windy Point West > Mount Lemmon (Catalina Highway) > Mount Lemmon (Santa Catalina Mountains) > Southern Arizona > Arizona",https://www.mountainproject.com/route/108173391/chicken-hawk,2.3,-1,Sport,5.10,1,30,32.36916,-110.71862
"Crystal Magic","Stupa Crag > Chimney Rock Area > West Sedona > Sedona Area > Northern Arizona > Arizona",https://www.mountainproject.com/route/123387574/crystal-magic,2.4,-1,Sport,5.10,1,75,34.87438,-111.81231
"Spare Rib","Sven Tower 3 > Sven Towers > McDowell Mountains > **Phoenix Areas > Central Arizona > Arizona",https://www.mountainproject.com/route/111618410/spare-rib,2.2,-1,"Trad, TR",5.10,1,60,33.68722,-111.7946
"Happily Never After","Rapunzel's Tower > The Nursery > 2 - Bear Canyon > Mount Lemmon (Catalina Highway) > Mount Lemmon (Santa Catalina Mountains) > Southern Arizona > Arizona",https://www.mountainproject.com/route/106674267/happily-never-after,2.2,-1,"Trad, Sport",5.10,1,50,32.36348,-110.7138
"Wanderer Over Yonder","Hobo Jungle > San Francisco Peaks > Flagstaff Area > Northern Arizona > Arizona",https://www.mountainproject.com/route/111995977/wanderer-over-yonder,2.0,-1,Trad,5.10,1,50,35.3874,-111.61355
"Overcoming Inertia","Totem-Proto Area > Lower Devil's Canyon > Queen Creek Canyon > Central Arizona > Arizona",https://www.mountainproject.com/route/108081619/overcoming-inertia,2.2,-1,Trad,5.10,1,140,33.27587,-111.02832
"Pitched Battle","Southeast Face > The Fortress > 8 - Summit Crags > Mount Lemmon (Catalina Highway) > Mount Lemmon (Santa Catalina Mountains) > Southern Arizona > Arizona",https://www.mountainproject.com/route/106879852/pitched-battle,2.3,-1,"Trad, Sport",5.10,4,350,32.43213,-110.79756
"Pissed off Mofo","Cave Wall > Outcroppings > 6 - Mid-Mountain > Mount Lemmon (Catalina Highway) > Mount Lemmon (Santa Catalina Mountains) > Southern Arizona > Arizona",https://www.mountainproject.com/route/106226667/pissed-off-mofo,2.0,-1,Sport,5.10,1,70,32.40027,-110.71542
"The Big Apple","Sandwich Spire West Face (New York Deli Wall) > Agave Spires Area > 2 - Bear Canyon > Mount Lemmon (Catalina Highway) > Mount Lemmon (Santa Catalina Mountains) > Southern Arizona > Arizona",https://www.mountainproject.com/route/107853283/the-big-apple,2.3,-1,Sport,5.10,1,80,32.36491,-110.71847
"Raising Arizona","Cornerstone > 2 - Bear Canyon > Mount Lemmon (Catalina Highway) > Mount Lemmon (Santa Catalina Mountains) > Southern Arizona > Arizona",https://www.mountainproject.com/route/107468240/raising-arizona,2.3,-1,Trad,5.10,1,75,32.37349,-110.69243
"Tornado in Peril","The Alley > Lower Devil's East  (LDE) > Lower Devil's Canyon > Queen Creek Canyon > Central Arizona > Arizona",https://www.mountainproject.com/route/106669000/tornado-in-peril,2.2,-1,Trad,5.10,1,130,33.2767,-111.02595
"Touching the Coop","The Coop > Lower Devil's East  (LDE) > Lower Devil's Canyon > Queen Creek Canyon > Central Arizona > Arizona",https://www.mountainproject.com/route/106633608/touching-the-coop,2.3,-1,Trad,"5.10 PG13",1,80,33.2767,-111.02595
"Cloud Man Got Angry","West Face/ Southwest Arete > Baboquivari Peak > Southern Arizona > Arizona",https://www.mountainproject.com/route/107107070/cloud-man-got-angry,2.0,-1,"Trad, Sport",5.10,8,1000,31.77063,-111.59773
"Senior Patrol  Leader","Boyscout Wall > 6 - Mid-Mountain > Mount Lemmon (Catalina Highway) > Mount Lemmon (Santa Catalina Mountains) > Southern Arizona > Arizona",https://www.mountainproject.com/route/107920637/senior-patrol-leader,1.9,-1,Sport,5.10,1,100,32.40356,-110.71275
"The Rest of the Story","Naiche's Nest > West Stronghold > Cochise Stronghold > Southern Arizona > Arizona",https://www.mountainproject.com/route/106954394/the-rest-of-the-story,2.0,-1,"Sport, TR",5.10,1,30,31.8756,-110.0164
"Auntie Social","K12 > School of Rock > 5 - Windy Ridge > Mount Lemmon (Catalina Highway) > Mount Lemmon (Santa Catalina Mountains) > Southern Arizona > Arizona",https://www.mountainproject.com/route/116082061/auntie-social,1.9,-1,Sport,5.10,1,45,32.37462,-110.70508
"Moose's Butte Regular Route","The Moose's Butte > Mitten Ridge > Sedona > Sedona Area > Northern Arizona > Arizona",https://www.mountainproject.com/route/105804077/mooses-butte-regular-route,2.0,-1,Trad,5.10,5,500,34.8749,-111.73783
"Coyote Business","Ribbit Wall > 3 - Windy Point East > Mount Lemmon (Catalina Highway) > Mount Lemmon (Santa Catalina Mountains) > Southern Arizona > Arizona",https://www.mountainproject.com/route/106047815/coyote-business,1.9,-1,Sport,5.10,1,60,32.36722,-110.71448
"Gray Wails","Lower Crag > Over The Hill > 2 - Bear Canyon > Mount Lemmon (Catalina Highway) > Mount Lemmon (Santa Catalina Mountains) > Southern Arizona > Arizona",https://www.mountainproject.com/route/120314400/gray-wails,2.0,-1,Sport,5.10,1,55,32.37226,-110.70087
"Too Far from the Car","Tiny Town > Upper Middle Elden Canyon > Middle Elden Canyon > Mt. Elden Crags > Flagstaff Area > Northern Arizona > Arizona",https://www.mountainproject.com/route/116101973/too-far-from-the-car,2.0,-1,Sport,5.10,1,40,35.23543,-111.60174
"Shagging the Doctor","Summit Block Rock > Coffeepot Rock Area > West Sedona > Sedona Area > Northern Arizona > Arizona",https://www.mountainproject.com/route/105917054/shagging-the-doctor,2.0,-1,Trad,5.10,4,350,34.88502,-111.79434
"Double Feature","Echo > 7 - Upper Highway > Mount Lemmon (Catalina Highway) > Mount Lemmon (Santa Catalina Mountains) > Southern Arizona > Arizona",https://www.mountainproject.com/route/120118688/double-feature,2.0,-1,Sport,5.10,1,40,32.42192,-110.75379
"Numb Nuts","Fist Grease Boulder > Hog Heaven > McDowell Mountains > **Phoenix Areas > Central Arizona > Arizona",https://www.mountainproject.com/route/115561914/numb-nuts,2.0,-1,Trad,5.10,1,35,33.67856,-111.7963
"Oh My doG!","Hackberry Creek > Lower Devil's Canyon > Queen Creek Canyon > Central Arizona > Arizona",https://www.mountainproject.com/route/106315104/oh-my-dog,2.0,-1,Trad,5.10,1,100,33.27463,-111.03207
Camelot,"Southeast Face > The Fortress > 8 - Summit Crags > Mount Lemmon (Catalina Highway) > Mount Lemmon (Santa Catalina Mountains) > Southern Arizona > Arizona",https://www.mountainproject.com/route/106893506/camelot,2.0,-1,Trad,5.10,3,300,32.43213,-110.79756
Xenomorph,"Lizard Tail Spire > Chimney Rock Area > West Sedona > Sedona Area > Northern Arizona > Arizona",https://www.mountainproject.com/route/120410014/xenomorph,2.0,-1,Trad,5.10,1,70,34.88155,-111.81113
"Celestial Crack","The Sundial > Superstition Mountains > **Phoenix Areas > Central Arizona > Arizona",https://www.mountainproject.com/route/118276662/celestial-crack,2.0,-1,Trad,"5.10 PG13",2,105,33.41852,-111.35692
"Hairline Fracture","Boneyard > 6 - Mid-Mountain > Mount Lemmon (Catalina Highway) > Mount Lemmon (Santa Catalina Mountains) > Southern Arizona > Arizona",https://www.mountainproject.com/route/122791157/hairline-fracture,2.0,-1,Sport,5.10,1,80,32.40369,-110.6965
"Direct North Face","Totem-Proto Area > Lower Devil's Canyon > Queen Creek Canyon > Central Arizona > Arizona",https://www.mountainproject.com/route/108059706/direct-north-face,2.0,-1,Trad,"5.10 R",1,130,33.27587,-111.02832
Tombstone,"1. The Left Wall > The Waterfall > Oak Creek Canyon > Northern Arizona > Arizona",https://www.mountainproject.com/route/108854195/tombstone,2.0,-1,Trad,5.10,1,110,34.9318,-111.73386
"Ribbit Roof","Ribbit Wall > 3 - Windy Point East > Mount Lemmon (Catalina Highway) > Mount Lemmon (Santa Catalina Mountains) > Southern Arizona > Arizona",https://www.mountainproject.com/route/111258446/ribbit-roof,2.0,-1,Trad,5.10,1,,32.36722,-110.71448
Amputation,"The Overlook > Oak Creek Canyon Overlook > Flagstaff Area > Northern Arizona > Arizona",https://www.mountainproject.com/route/105967058/amputation,2.0,-1,Trad,5.10,1,70,35.03049,-111.73199
"Swedish Britfast Crack","The Overlook > Oak Creek Canyon Overlook > Flagstaff Area > Northern Arizona > Arizona",https://www.mountainproject.com/route/106290956/swedish-britfast-crack,2.0,-1,Trad,"5.10 PG13",1,70,35.03049,-111.73199
"brighter than creation,s dark","The Rockin Roll Wall.. > The Homestead > Central Arizona > Arizona",https://www.mountainproject.com/route/107177316/brighter-than-creations-dark,2.0,-1,Sport,5.10,1,40,33.17723,-110.77843
"Hung Like a Troll","Wall of the Trundling Trolls > Munchkinland Area > 6 - Mid-Mountain > Mount Lemmon (Catalina Highway) > Mount Lemmon (Santa Catalina Mountains) > Southern Arizona > Arizona",https://www.mountainproject.com/route/106224401/hung-like-a-troll,1.9,-1,Trad,5.10,1,100,32.38723,-110.71788
Hyrax,"7 - Lorax & Ball Return > Chessman Area > 2 - Bear Canyon > Mount Lemmon (Catalina Highway) > Mount Lemmon (Santa Catalina Mountains) > Southern Arizona > Arizona",https://www.mountainproject.com/route/106414146/hyrax,2.0,-1,Trad,5.10,1,130,32.36032,-110.71983
Dogmatic,"Canines & Lobo Wall > 3 - Windy Point East > Mount Lemmon (Catalina Highway) > Mount Lemmon (Santa Catalina Mountains) > Southern Arizona > Arizona",https://www.mountainproject.com/route/106085338/dogmatic,2.0,-1,Sport,5.10,1,70,32.36786,-110.71241
"Moon Landing","Hobo House > Papago Park > **Phoenix Areas > Central Arizona > Arizona",https://www.mountainproject.com/route/116735934/moon-landing,2.0,-1,Sport,5.10,1,60,33.43794,-111.93211
"At the queens pleasure","2 - King > Chessman Area > 2 - Bear Canyon > Mount Lemmon (Catalina Highway) > Mount Lemmon (Santa Catalina Mountains) > Southern Arizona > Arizona",https://www.mountainproject.com/route/112416196/at-the-queens-pleasure,1.8,-1,Sport,5.10,1,50,32.36032,-110.71983
"Hook Me Up","(A) Nose Rock > The Pit (aka Le Petit Verdon) > Flagstaff Area > Northern Arizona > Arizona",https://www.mountainproject.com/route/106959879/hook-me-up,1.8,-1,Sport,5.10,1,35,35.12957,-111.59894
"Battling Fear","Gardener's Wall > McDowell Mountains > **Phoenix Areas > Central Arizona > Arizona",https://www.mountainproject.com/route/118141338/battling-fear,2.0,-1,Sport,5.10,2,200,33.68178,-111.80737
"Lefty Loosey Orange Juicy","Fire Wall > Oak Creek Canyon > Northern Arizona > Arizona",https://www.mountainproject.com/route/120285143/lefty-loosey-orange-juicy,2.3,-1,Sport,5.10,1,30,34.87258,-111.7531
"Real Rappel Route","The Mace > Cathedral Rock Area > Sedona > Sedona Area > Northern Arizona > Arizona",https://www.mountainproject.com/route/106901415/real-rappel-route,2.0,-1,Trad,5.10,2,200,34.81836,-111.7913
"Ice Cream Cone Route","The Acropolis > Midgley Bridge Area > Sedona > Sedona Area > Northern Arizona > Arizona",https://www.mountainproject.com/route/112246376/ice-cream-cone-route,2.0,-1,Trad,5.10,4,400,34.88934,-111.75151
Unknown,"Myth Wall > The Labyrinth > Superstition Mountains > **Phoenix Areas > Central Arizona > Arizona",https://www.mountainproject.com/route/118262644/unknown,2.0,-1,Sport,5.10,1,77,33.41155,-111.35051
Heifer,"Beef Wall > Oak Creek Spire Area > Village of Oak Creek > Sedona Area > Northern Arizona > Arizona",https://www.mountainproject.com/route/118942822/heifer,2.0,-1,Trad,5.10,1,70,34.80786,-111.72652
"Button Man","The Godfather Area > Upper Middle Elden Canyon > Middle Elden Canyon > Mt. Elden Crags > Flagstaff Area > Northern Arizona > Arizona",https://www.mountainproject.com/route/116099588/button-man,2.0,-1,Sport,5.10,1,50,35.23316,-111.6017
"Cash Cow","Finland Terrace > The Homestead > Central Arizona > Arizona",https://www.mountainproject.com/route/118253102/cash-cow,2.0,-1,Sport,5.10,1,50,33.17507,-110.78122
"Wash Off Tan","Lookout Tower > Fay Canyon > Dry Creek Road Area > West Sedona > Sedona Area > Northern Arizona > Arizona",https://www.mountainproject.com/route/110118858/wash-off-tan,2.0,-1,Trad,5.10,2,120,34.90864,-111.85936
"Town Without Pity","Five Mile Wall > 7 - Upper Highway > Mount Lemmon (Catalina Highway) > Mount Lemmon (Santa Catalina Mountains) > Southern Arizona > Arizona",https://www.mountainproject.com/route/108286370/town-without-pity,2.0,-1,Trad,5.10,3,400,32.44073,-110.78727
"Hot Pocket","Upper Beach > The Beach Areas > West Twin Butte > Twin Butte > Sedona > Sedona Area > Northern Arizona > Arizona",https://www.mountainproject.com/route/112328612/hot-pocket,2.0,-1,Trad,5.10,1,50,34.8346,-111.7666
"Black Sheep","Northwest Face > The Fortress > 8 - Summit Crags > Mount Lemmon (Catalina Highway) > Mount Lemmon (Santa Catalina Mountains) > Southern Arizona > Arizona",https://www.mountainproject.com/route/107239561/black-sheep,2.0,-1,Trad,5.10,2,200,32.43221,-110.79851
"NorthWest Corner","Bell Rock > Bell Rock / Courthouse Butte > Village of Oak Creek > Sedona Area > Northern Arizona > Arizona",https://www.mountainproject.com/route/106188682/northwest-corner,2.0,-1,Trad,"5.10 PG13",2,200,34.80029,-111.76469
Chokonen,"Worm Dome and Murray Canyon > East Stronghold > Cochise Stronghold > Southern Arizona > Arizona",https://www.mountainproject.com/route/107919774/chokonen,2.0,-1,Sport,5.10,1,80,31.93911,-109.97019
"Viking Funeral","Ghost Town > San Francisco Peaks > Flagstaff Area > Northern Arizona > Arizona",https://www.mountainproject.com/route/112115675/viking-funeral,2.0,-1,Trad,5.10,1,60,35.32928,-111.62074
"Masquerader Aider","Window Needle > Miners Needle > Superstition Mountains > **Phoenix Areas > Central Arizona > Arizona",https://www.mountainproject.com/route/111453029/masquerader-aider,2.0,-1,Trad,5.10,1,100,33.40892,-111.32218
"Sin Ropa","The Overlook > Oak Creek Canyon Overlook > Flagstaff Area > Northern Arizona > Arizona",https://www.mountainproject.com/route/106296855/sin-ropa,2.0,-1,Trad,"5.10 R",1,80,35.03049,-111.73199
"Bolting Elvis's","Main Wall > The Asylum > Jacks Canyon > Winslow- Hwy’s 87 & 99 Corridors > Northern Arizona > Arizona",https://www.mountainproject.com/route/107326847/bolting-elviss,2.0,-1,Sport,5.10,1,75,34.74779,-111.07682
"Rip Tide","Concrete Jungle > Lower Sullivan Canyon > Sullivan's Canyon > **Prescott Area > Central Arizona > Arizona",https://www.mountainproject.com/route/110104517/rip-tide,2.0,-1,Trad,"5.10 PG13",1,70,34.86312,-112.44732
"Blue Moon","Turret Rock and Environs > 3 - Windy Point East > Mount Lemmon (Catalina Highway) > Mount Lemmon (Santa Catalina Mountains) > Southern Arizona > Arizona",https://www.mountainproject.com/route/107865720/blue-moon,2.0,-1,"Trad, Sport",5.10,1,50,32.36654,-110.71648
Gatekeeper,"Heaven's Gate > The Refuge > Lower Devil's Canyon > Queen Creek Canyon > Central Arizona > Arizona",https://www.mountainproject.com/route/107432284/gatekeeper,2.0,-1,Trad,5.10,1,80,33.2728,-111.0475
"Nickle Slot","The Overlook > Oak Creek Canyon Overlook > Flagstaff Area > Northern Arizona > Arizona",https://www.mountainproject.com/route/106302288/nickle-slot,2.0,-1,Trad,5.10,1,70,35.03049,-111.73199
"Gutter Ball","7 - Lorax & Ball Return > Chessman Area > 2 - Bear Canyon > Mount Lemmon (Catalina Highway) > Mount Lemmon (Santa Catalina Mountains) > Southern Arizona > Arizona",https://www.mountainproject.com/route/106418482/gutter-ball,2.0,-1,Trad,5.10,1,70,32.36032,-110.71983
"Killer On The Loose","Kill Wall > The Outback > 5 - Windy Ridge > Mount Lemmon (Catalina Highway) > Mount Lemmon (Santa Catalina Mountains) > Southern Arizona > Arizona",https://www.mountainproject.com/route/105972845/killer-on-the-loose,2.0,-1,Sport,5.10,1,70,32.3751,-110.70681
ERJS,"Boneyard > 6 - Mid-Mountain > Mount Lemmon (Catalina Highway) > Mount Lemmon (Santa Catalina Mountains) > Southern Arizona > Arizona",https://www.mountainproject.com/route/123288882/erjs,2.6,-1,Sport,5.10,1,100,32.40369,-110.6965
"Walking the Earth variation","Crack Wall > Mendoza Canyon (aka Coyote Domes) > Southern Arizona > Arizona",https://www.mountainproject.com/route/123454684/walking-the-earth-variation,2.0,-1,"Trad, Aid","5.10 A0 X",7,1050,31.97904,-111.52952
"The Mayor","(A) Nose Rock > The Pit (aka Le Petit Verdon) > Flagstaff Area > Northern Arizona > Arizona",https://www.mountainproject.com/route/119863259/the-mayor,2.5,-1,Sport,5.10,1,25,35.12957,-111.59894
"Put Away Wet","Wild Horse Wall > Superstition Mountains > **Phoenix Areas > Central Arizona > Arizona",https://www.mountainproject.com/route/120164486/put-away-wet,2.0,-1,Trad,5.10,1,90,33.41302,-111.35194
"Alt Tower Traverse","Rock Worship > Colorado City Area > The Arizona Strip > Northern Arizona > Arizona",https://www.mountainproject.com/route/121158531/alt-tower-traverse,2.0,-1,Sport,5.10,1,100,37.0243,-112.99602
McGoo,"Knob Hill - East > Knob Hill Area > McDowell Mountains > **Phoenix Areas > Central Arizona > Arizona",https://www.mountainproject.com/route/120106174/mcgoo,2.0,-1,Sport,5.10,1,70,33.68664,-111.80887
"Circle the drain","Quarantini crag > West side > Lower Middle Elden Canyon > Middle Elden Canyon > Mt. Elden Crags > Flagstaff Area > Northern Arizona > Arizona",https://www.mountainproject.com/route/119120679/circle-the-drain,2.0,-1,Sport,5.10,1,60,35.23111,-111.60449
"Oh Kappitty Kap Kap","Porcini area > Upper Middle Elden Canyon > Middle Elden Canyon > Mt. Elden Crags > Flagstaff Area > Northern Arizona > Arizona",https://www.mountainproject.com/route/121457552/oh-kappitty-kap-kap,2.0,-1,Trad,5.10,1,120,35.2321,-111.60136
Skeletor,"Rattle Bone Dome > Stewart Pocket > Central Arizona > Arizona",https://www.mountainproject.com/route/116837547/skeletor,2.0,-1,TR,5.10,1,40,34.21458,-111.27083
"Unknown crack","gateway cracks > West side > Lower Middle Elden Canyon > Middle Elden Canyon > Mt. Elden Crags > Flagstaff Area > Northern Arizona > Arizona",https://www.mountainproject.com/route/119392570/unknown-crack,2.0,-1,Trad,5.10,1,45,35.22927,-111.6057
Cartouche,"Pharaoh > 2 - Bear Canyon > Mount Lemmon (Catalina Highway) > Mount Lemmon (Santa Catalina Mountains) > Southern Arizona > Arizona",https://www.mountainproject.com/route/118132274/cartouche,2.0,-1,Sport,5.10,1,100,32.37686,-110.69491
Stubber,"Upper Taint > The Colony > Central Arizona > Arizona",https://www.mountainproject.com/route/118356601/stubber,2.0,-1,Trad,"5.10 R",1,45,33.80666,-111.46575
"Air Time","Glass Dome > McDowell Mountains > **Phoenix Areas > Central Arizona > Arizona",https://www.mountainproject.com/route/116544676/air-time,2.0,-1,Trad,"5.10 R",1,65,33.67983,-111.80605
"The Bouldery Route","The Tooth > Granite Basin Crags > Granite Mountain > **Prescott Area > Central Arizona > Arizona",https://www.mountainproject.com/route/116757786/the-bouldery-route,2.0,-1,Sport,5.10,1,50,34.61531,-112.53223
"Forget Jaws","The Snort Wall > The Coke Wall Area > Oak Creek Canyon > Northern Arizona > Arizona",https://www.mountainproject.com/route/118253157/forget-jaws,2.0,-1,Trad,5.10,1,105,34.98678,-111.74939
"Le Grand Piton","Split Spire > 5 - Windy Ridge > Mount Lemmon (Catalina Highway) > Mount Lemmon (Santa Catalina Mountains) > Southern Arizona > Arizona",https://www.mountainproject.com/route/117254418/le-grand-piton,2.0,-1,Trad,5.10,1,25,32.3776,-110.69623
"Christmas in July","1. Ramshackle Wall > South Side > Volunteer Canyon (The Cwm) > Sycamore Canyon > Northern Arizona > Arizona",https://www.mountainproject.com/route/114524308/christmas-in-july,2.0,-1,Trad,5.10,1,60,35.1197,-111.93448
Fissureman,"Loose goose > 5 - Windy Ridge > Mount Lemmon (Catalina Highway) > Mount Lemmon (Santa Catalina Mountains) > Southern Arizona > Arizona",https://www.mountainproject.com/route/118788810/fissureman,2.0,-1,Trad,5.10,1,60,32.37866,-110.69759
Run-It-Out,"Myth Wall > The Labyrinth > Superstition Mountains > **Phoenix Areas > Central Arizona > Arizona",https://www.mountainproject.com/route/118790620/run-it-out,2.0,-1,Trad,"5.10 R",1,75,33.41155,-111.35051
"Solitude    5.10  A.2","Solitude Dome > Alamo Canyon > Mount Lemmon (Santa Catalina Mountains) > Southern Arizona > Arizona",https://www.mountainproject.com/route/106725855/solitude-510-a2,2.0,-1,"Trad, Aid","5.10 C1",5,700,32.39067,-110.88891
"Zone tail","Zone-tail Buttress > Isolation Canyon > Central Arizona > Arizona",https://www.mountainproject.com/route/114293379/zone-tail,2.0,-1,Sport,5.10,1,,34.36365,-111.44823
"Yo Trabajo Duro","El Oso Rodeo > Pine Creek > Boulder Mountain > Central Arizona > Arizona",https://www.mountainproject.com/route/114145274/yo-trabajo-duro,2.0,-1,Trad,5.10,1,70,33.77608,-111.45072
"North Siamese Twin: North Face","Land of Spires > Long Canyon > Dry Creek Road Area > West Sedona > Sedona Area > Northern Arizona > Arizona",https://www.mountainproject.com/route/114396242/north-siamese-twin-north-face,2.0,-1,Trad,5.10,1,100,34.92477,-111.8572
"Co-ed Volleyball","Upper Beach > The Beach Areas > West Twin Butte > Twin Butte > Sedona > Sedona Area > Northern Arizona > Arizona",https://www.mountainproject.com/route/112777899/co-ed-volleyball,2.0,-1,Trad,5.10,1,50,34.8346,-111.7666
"Tuesday's Child","Dall Wall > Black Mountains - Golden Valley > Kingman Area > Northern Arizona > Arizona",https://www.mountainproject.com/route/114152368/tuesdays-child,2.0,-1,Sport,5.10,1,85,35.16028,-114.32982
"""South West Cracks""","Lily Flower Tower > Midgley Bridge Area > Sedona > Sedona Area > Northern Arizona > Arizona",https://www.mountainproject.com/route/110078574/south-west-cracks,2.0,-1,Trad,5.10,3,300,34.90404,-111.7493
"Queen's Bishop","Flying Buttress > Mitten Ridge > Sedona > Sedona Area > Northern Arizona > Arizona",https://www.mountainproject.com/route/112006573/queens-bishop,2.0,-1,Trad,"5.10 R",4,450,34.87684,-111.72573
Rockchuck,"Lookout Tower > Fay Canyon > Dry Creek Road Area > West Sedona > Sedona Area > Northern Arizona > Arizona",https://www.mountainproject.com/route/110118631/rockchuck,2.0,-1,Trad,5.10,1,120,34.90864,-111.85936
"Birds & Beavs","Wet Beaver Crack > Central Mogollon Rim > Northern Arizona > Arizona",https://www.mountainproject.com/route/107032957/birds-beavs,2.0,-1,Trad,5.10,1,80,34.67534,-111.65967
"Prison break","Salome > Central Arizona > Arizona",https://www.mountainproject.com/route/108107183/prison-break,2.0,-1,"TR, Boulder","5.10 V3",1,25,33.8488,-113.68882
"SE Corner","Sullivan Peak > Grand Canyon > Northern Arizona > Arizona",https://www.mountainproject.com/route/106797265/se-corner,2.0,-1,Trad,5.10,3,250,36.10733,-112.11205
"Squeeze Play","The Nursery > Lower Sullivan Canyon > Sullivan's Canyon > **Prescott Area > Central Arizona > Arizona",https://www.mountainproject.com/route/110112926/squeeze-play,2.0,-1,Trad,"5.10 PG13",1,50,34.86312,-112.44732
"Minas Morgul","Hidden Towers > Lower Devil's Canyon > Queen Creek Canyon > Central Arizona > Arizona",https://www.mountainproject.com/route/108105568/minas-morgul,2.0,-1,Trad,5.10,1,120,33.27178,-111.04223
"Phoenix Two Step","Hackberry Creek > Lower Devil's Canyon > Queen Creek Canyon > Central Arizona > Arizona",https://www.mountainproject.com/route/107059074/phoenix-two-step,2.0,-1,Sport,5.10,1,100,33.27463,-111.03207
Heaven,"Heaven's Gate > The Refuge > Lower Devil's Canyon > Queen Creek Canyon > Central Arizona > Arizona",https://www.mountainproject.com/route/107448098/heaven,2.0,-1,Sport,5.10,1,70,33.2728,-111.0475
Hufflepuff,"Penguinland Area > Raptor Ridge > The Refuge > Lower Devil's Canyon > Queen Creek Canyon > Central Arizona > Arizona",https://www.mountainproject.com/route/108729031/hufflepuff,2.0,-1,Trad,5.10,1,70,33.27066,-111.04595
"(2) Short Story","Reef Rock on Mica Mt. > Rincon Mountains > Southern Arizona > Arizona",https://www.mountainproject.com/route/107485127/2-short-story,2.0,-1,Trad,5.10,1,100,32.1064,-110.4521
"A Night With Ra","Sun King Tower, East Face > Sun King Tower > Secret Canyon > Mt. Elden Crags > Flagstaff Area > Northern Arizona > Arizona",https://www.mountainproject.com/route/108138511/a-night-with-ra,2.0,-1,Trad,5.10,2,150,35.2464,-111.58659
"Left Behind","Five-Thirteen Wall > Hairpin Turn Area > 1 -  Lower Highway > Mount Lemmon (Catalina Highway) > Mount Lemmon (Santa Catalina Mountains) > Southern Arizona > Arizona",https://www.mountainproject.com/route/108784341/left-behind,2.0,-1,Trad,5.10,1,65,32.32127,-110.74096
"Hawk n Bladder","Hidden Towers > Lower Devil's Canyon > Queen Creek Canyon > Central Arizona > Arizona",https://www.mountainproject.com/route/108414144/hawk-n-bladder,2.0,-1,"Trad, Sport",5.10,1,120,33.27178,-111.04223
C-Section,"Rock Worship > Colorado City Area > The Arizona Strip > Northern Arizona > Arizona",https://www.mountainproject.com/route/112383488/c-section,2.0,-1,Trad,5.10,1,50,37.0243,-112.99602
"""Bad Beta""              -unknown  5.10 crack","Fish Bowl > Bill Williams Mountain > Williams Area > Northern Arizona > Arizona",https://www.mountainproject.com/route/107315456/bad-beta-unknown-510-crack,2.0,-1,Trad,5.10,1,110,35.19796,-112.21123
Cherubino,"Cherub > Godhead South > The Refuge > Lower Devil's Canyon > Queen Creek Canyon > Central Arizona > Arizona",https://www.mountainproject.com/route/107383982/cherubino,2.0,-1,Trad,5.10,1,65,33.2728,-111.0475
Marsupium,"Bownorthman > 3 - Windy Point East > Mount Lemmon (Catalina Highway) > Mount Lemmon (Santa Catalina Mountains) > Southern Arizona > Arizona",https://www.mountainproject.com/route/107079399/marsupium,2.0,-1,Trad,5.10,1,65,32.36712,-110.71485
Tributary,"Forgotten Wall, Control Tower & Up The Creek Wall > 1 -  Lower Highway > Mount Lemmon (Catalina Highway) > Mount Lemmon (Santa Catalina Mountains) > Southern Arizona > Arizona",https://www.mountainproject.com/route/106112940/tributary,2.0,-1,Trad,5.10,1,60,32.35534,-110.71812
"Girlfriend's Nightmare","The Entrance Wall > Griffith Springs > Flagstaff Area > Northern Arizona > Arizona",https://www.mountainproject.com/route/123543129/girlfriends-nightmare,3.0,-1,Trad,5.10,1,50,35.11213,-111.70675
"Peter's Ladder","The Acropolis > Midgley Bridge Area > Sedona > Sedona Area > Northern Arizona > Arizona",https://www.mountainproject.com/route/106121938/peters-ladder,2.2,-1,Trad,5.10,4,,34.88934,-111.75151
"North Face - Original Route","Finger Rock aka Bill Williams Spire > Bill Williams Mountain > Williams Area > Northern Arizona > Arizona",https://www.mountainproject.com/route/106573405/north-face-original-route,3.0,-1,Trad,5.10,1,90,35.1967,-112.21194
"The Pope  (Primal Yawn )","Central Reservation Climbs > Navajolands > Northern Arizona > Arizona",https://www.mountainproject.com/route/105961378/the-pope-primal-yawn,2.5,-1,"Trad, Aid","5.10 A3+",5,350,36.14052,-110.41849
"Feel the Creep","Sven Tower 1 > Sven Towers > McDowell Mountains > **Phoenix Areas > Central Arizona > Arizona",https://www.mountainproject.com/route/117806892/feel-the-creep,2.0,-1,Sport,5.10,1,70,33.68665,-111.8089
"Little Jack Corner","Green Acres (North Face) > Green Slabs Area > 2 - Bear Canyon > Mount Lemmon (Catalina Highway) > Mount Lemmon (Santa Catalina Mountains) > Southern Arizona > Arizona",https://www.mountainproject.com/route/105829645/little-jack-corner,2.0,-1,Trad,5.10,1,90,32.36252,-110.71352
"Unknown Arete","Ice Castles > **Phoenix Areas > Central Arizona > Arizona",https://www.mountainproject.com/route/123590714/unknown-arete,4.0,-1,Sport,5.10,1,50,33.77054,-112.2078
"Sidewalk Senderella","Promenade Wall > Colosseum > 1 -  Lower Highway > Mount Lemmon (Catalina Highway) > Mount Lemmon (Santa Catalina Mountains) > Southern Arizona > Arizona",https://www.mountainproject.com/route/123644493/sidewalk-senderella,2.1,-1,Sport,5.10,1,40,32.32185,-110.71126
Trundlina,"Promenade Wall > Colosseum > 1 -  Lower Highway > Mount Lemmon (Catalina Highway) > Mount Lemmon (Santa Catalina Mountains) > Southern Arizona > Arizona",https://www.mountainproject.com/route/123644497/trundlina,1.9,-1,Sport,5.10,1,40,32.32185,-110.71126
"Poultry Emulsion","The Sheepshead > Sheepshead Area (Southwest) > West Stronghold > Cochise Stronghold > Southern Arizona > Arizona",https://www.mountainproject.com/route/123864657/poultry-emulsion,2.0,-1,Sport,5.10,2,230,31.87031,-109.99388
"Riding the Rails","Lost Tower > Rockfellow Group > East Stronghold > Cochise Stronghold > Southern Arizona > Arizona",https://www.mountainproject.com/route/123945938/riding-the-rails,4.0,-1,Trad,5.10,1,190,31.92575,-109.97604
"Baby Got Cracks","Don't Touch My Buttress > Eastern Aretes of the Hand > Hands Canyon > West Stronghold > Cochise Stronghold > Southern Arizona > Arizona",https://www.mountainproject.com/route/123971830/baby-got-cracks,3.5,-1,Trad,5.10,4,550,31.9188,-109.99759
"Max Headwall","The Gap > West Stronghold > Cochise Stronghold > Southern Arizona > Arizona",https://www.mountainproject.com/route/124064459/max-headwall,2.5,-1,Sport,5.10,2,230,31.93698,-109.99468
"Hummer Day","Upper Wall > Exit Gorge > Christopher Creek Gorge > Central Arizona > Arizona",https://www.mountainproject.com/route/124345028/hummer-day,2.7,-1,Sport,5.10,1,95,34.3133,-111.06447
"White Privilege","Lower Wall > Exit Gorge > Christopher Creek Gorge > Central Arizona > Arizona",https://www.mountainproject.com/route/124359627/white-privilege,2.8,-1,Sport,5.10,1,45,34.31313,-111.0658
