Route,Location,URL,"Avg Stars","Your Stars","Route Type",Rating,Pitches,Length,"Area Latitude","Area Longitude"
"Upper Right Ski Track","Intersection Rock > Hidden Valley Campground > Hidden Valley Area > Joshua Tree National Park > California",https://www.mountainproject.com/route/105721723/upper-right-ski-track,2.5,-1,Trad,5.3,1,100,34.0148,-116.163
"Double Crack","Short Wall - Right Side > Short Wall > Indian Cove CG East > Indian Cove Campground > Indian Cove > Joshua Tree National Park > California",https://www.mountainproject.com/route/105721759/double-crack,2.2,-1,Trad,5.3,1,30,34.09258,-116.15315
Shardik,"Bear Island > North Wonderland Approach > Wonderland North > Wonderland of Rocks > Joshua Tree National Park > California",https://www.mountainproject.com/route/105874278/shardik,2.1,-1,Trad,5.3,1,55,34.0538,-116.18113
"Beginner's Three","Intersection Rock > Hidden Valley Campground > Hidden Valley Area > Joshua Tree National Park > California",https://www.mountainproject.com/route/105725824/beginners-three,2.0,-1,Trad,5.3,1,50,34.0148,-116.163
"Beginner's One","The Blob - West Face > The Blob > Hidden Valley Campground > Hidden Valley Area > Joshua Tree National Park > California",https://www.mountainproject.com/route/105724096/beginners-one,1.9,-1,Trad,"5.3 R",1,140,34.01799,-116.16431
"Transportation Crack","The Pit (West Side) > Indian Rock > Berkeley > East Bay Area > San Francisco Bay Area > California",https://www.mountainproject.com/route/105735320/transportation-crack,1.9,-1,"TR, Boulder","5.3 V-easy",1,20,37.89213,-122.27299
"Tabby Treat","(v) North Face > Suicide Rock > Tahquitz & Suicide Rocks > California",https://www.mountainproject.com/route/105791213/tabby-treat,1.9,-1,Trad,5.3,2,300,33.77166,-116.69612
"Fever Pitch","Gunsmoke Wall > Central Pinnacles > Holcomb Valley Pinnacles > Big Bear City Area > Big Bear North > Big Bear Lake Area > San Bernardino Mountains > California",https://www.mountainproject.com/route/105977129/fever-pitch,1.9,-1,Sport,5.3,1,30,34.3082,-116.8785
"Rootin' Tootin' Rhythm","Lost Eye to the Moon > Cattle Pocket and Corridors Area > Alabama Hills North > Alabama Hills > Lone Pine Area > Sierra Eastside > California",https://www.mountainproject.com/route/106832927/rootin-tootin-rhythm,1.8,-1,Sport,5.3,1,,36.6056,-118.12796
"Fraggle Rock","Pink Face > Lower Gorge > Owens River Gorge > Bishop Area > Sierra Eastside > California",https://www.mountainproject.com/route/111755168/fraggle-rock,2.5,-1,Sport,5.3,1,50,37.50247,-118.56786
"Craig's Chimney","Limbo Area > Mission Gorge > South San Diego County > San Diego County > California",https://www.mountainproject.com/route/107049587/craigs-chimney,1.9,-1,TR,5.3,1,20,32.8255,-117.051
"Green Crack","Two Trees East > Pigeon Pass Area > Box Springs Mountain Reserve > Riverside Area > Inland Empire > California",https://www.mountainproject.com/route/107011520/green-crack,2.5,-1,Trad,5.3,1,25,33.98364,-117.29246
Knobulator,"Knob Wall > Belvedere Heights West > Belvedere Heights > Box Springs Mountain Reserve > Riverside Area > Inland Empire > California",https://www.mountainproject.com/route/106100908/knobulator,2.3,-1,TR,5.3,1,30,33.98892,-117.30903
"Unknown (aka 'Platy Galore')","Paul's Backyard > Paul's Paradise > Alabama Hills North > Alabama Hills > Lone Pine Area > Sierra Eastside > California",https://www.mountainproject.com/route/107049624/unknown-aka-platy-galore,1.9,-1,Sport,"5.3 PG13",1,,36.60417,-118.125
"For Sure","Beak Boulder Area > Loveland > Pinto Basin > Joshua Tree National Park > California",https://www.mountainproject.com/route/120026712/for-sure,2.5,-1,Trad,"5.3 PG13",1,50,34.02597,-116.0511
"Tot's Crack","Kidding Area > Lower Gorge > Owens River Gorge > Bishop Area > Sierra Eastside > California",https://www.mountainproject.com/route/118186263/tots-crack,2.5,-1,Trad,5.3,1,35,37.50372,-118.56729
"Far Left Scramble","5-Erb > Silver Lake > June Lake Area > Sierra Eastside > California",https://www.mountainproject.com/route/117555799/far-left-scramble,2.5,-1,"Trad, TR","5.3 X",2,160,37.77362,-119.12851
"Left alongside Right Gully","6-Franosch > Silver Lake > June Lake Area > Sierra Eastside > California",https://www.mountainproject.com/route/117512156/left-alongside-right-gully,2.5,-1,"Sport, TR, Aid","5.3 C0",1,70,37.77371,-119.12881
"Right Edge","7-Lewis > Silver Lake > June Lake Area > Sierra Eastside > California",https://www.mountainproject.com/route/113783679/right-edge,2.5,-1,"Sport, TR",5.3,1,90,37.77396,-119.12861
"Trail Slab - Right Gully","7-Lewis > Silver Lake > June Lake Area > Sierra Eastside > California",https://www.mountainproject.com/route/113439034/trail-slab-right-gully,2.5,-1,TR,5.3,1,95,37.77396,-119.12861
"Chossy Bossy","Limbo Area > Mission Gorge > South San Diego County > San Diego County > California",https://www.mountainproject.com/route/123533095/chossy-bossy,2.7,-1,Trad,5.3,1,50,32.8255,-117.051
"North Ridge","Locals Only Rock > Benton Crags > Eastern Hills > Sierra Eastside > California",https://www.mountainproject.com/route/112046547/north-ridge,1.9,-1,Trad,5.3,1,120,37.73217,-118.56843
"Lucky 37","Two Trees East > Pigeon Pass Area > Box Springs Mountain Reserve > Riverside Area > Inland Empire > California",https://www.mountainproject.com/route/118216753/lucky-37,2.0,-1,Trad,5.3,1,40,33.98364,-117.29246
"Regular Route","The Cone > Upper Juniper Canyon > High Peaks > Pinnacles National Park > Central Coast > California",https://www.mountainproject.com/route/108004307/regular-route,2.3,-1,Sport,5.3,1,50,36.48258,-121.20025
Jonah,"Stately Pleasure Dome > Tuolumne Meadows > Yosemite National Park > California",https://www.mountainproject.com/route/122468038/jonah,2.0,-1,"Trad, Alpine",5.3,2,350,37.83546,-119.4577
"Last Grapes / Pink Drainpipe Exit","Upper Northeast Buttress > (a) Northeast Buttress > Tahquitz Rock > Tahquitz & Suicide Rocks > California",https://www.mountainproject.com/route/106809006/last-grapes-pink-drainpipe-exit,2.0,-1,Trad,5.3,3,550,33.76128,-116.68142
"Logan's Solo","Yardsale > Lower Mission Canyon / Seven Falls > Santa Barbara > Central Coast > California",https://www.mountainproject.com/route/107011858/logans-solo,2.0,-1,Trad,"5.3 R",1,15,34.4664,-119.705
"Turkey Breast","SW Face Center (The Solarium) > Little Hunk - SW Face > Little Hunk > Echo Rock Area > Central Joshua Tree > Joshua Tree National Park > California",https://www.mountainproject.com/route/114273449/turkey-breast,1.9,-1,TR,5.3,1,80,34.0265,-116.152
"Riveting by Rosie","Hippodrome > *Lost Horse Roadside Crags > Lost Horse Area > Joshua Tree National Park > California",https://www.mountainproject.com/route/120341061/riveting-by-rosie,2.0,-1,Trad,"5.3 PG13",2,145,34.03479,-116.17671
"Laid Off","The Wall - Middle Section > The Wall > Hidden Valley Campground > Hidden Valley Area > Joshua Tree National Park > California",https://www.mountainproject.com/route/121692899/laid-off,2.0,-1,Trad,5.3,1,30,34.01883,-116.16201
"Kiddie Slab","Pie Shop Roadside Crag > The Pie Shop > South Shore > Lake Tahoe > California",https://www.mountainproject.com/route/120782696/kiddie-slab,2.0,-1,TR,5.3,1,35,38.87581,-120.01193
"Bolt Ladder aka AIDS","Fictitioua Tree Rock > Fictitioua Tree > Angeles National Forest > Los Angeles Basin > California",https://www.mountainproject.com/route/112938283/bolt-ladder-aka-aids,2.0,-1,"Trad, Aid","5.3 C1+",1,50,34.34024,-117.98041
"Moor or Less","Fraggle Rock > Desert Queen Mine > Queen Valley Area > Joshua Tree National Park > California",https://www.mountainproject.com/route/120221899/moor-or-less,2.0,-1,Trad,5.3,1,50,34.02244,-116.06147
"Under 8","Mormon Kids > Mormon Rocks > Cajon Junction Area > San Bernardino Mountains > California",https://www.mountainproject.com/route/114612417/under-8,2.0,-1,Trad,"5.3 R",1,80,34.31657,-117.48982
"Wazoo Crack","Rock Craft (South Face) > (i) Rock Craft > North of the Ridge > Crafts Peak > Green Valley Lake Area > Running Springs Area > San Bernardino Mountains > California",https://www.mountainproject.com/route/117377871/wazoo-crack,2.0,-1,Trad,5.3,1,40,34.24845,-117.03868
"Right Scramble","6-Franosch > Silver Lake > June Lake Area > Sierra Eastside > California",https://www.mountainproject.com/route/117397627/right-scramble,2.0,-1,TR,5.3,1,85,37.77371,-119.12881
"Left Gully Edge","6-Franosch > Silver Lake > June Lake Area > Sierra Eastside > California",https://www.mountainproject.com/route/117388378/left-gully-edge,2.0,-1,TR,5.3,1,28,37.77371,-119.12881
"Almost-Right Wide Gully","6-Franosch > Silver Lake > June Lake Area > Sierra Eastside > California",https://www.mountainproject.com/route/117512179/almost-right-wide-gully,2.0,-1,TR,5.3,1,50,37.77371,-119.12881
"Middle Slab","Box Slab > Belvedere Heights East > Belvedere Heights > Box Springs Mountain Reserve > Riverside Area > Inland Empire > California",https://www.mountainproject.com/route/112368522/middle-slab,2.0,-1,"Trad, TR","5.3 R",1,100,33.99147,-117.30318
"Low Slab Left","1-Croft > Silver Lake > June Lake Area > Sierra Eastside > California",https://www.mountainproject.com/route/112305997/low-slab-left,2.0,-1,TR,5.3,1,80,37.77156,-119.12721
"Right Scramble","3-Eldorado > Grimsel (north) > Rush > June Lake Area > Sierra Eastside > California",https://www.mountainproject.com/route/112267349/right-scramble,2.0,-1,TR,5.3,1,50,37.81397,-119.10739
"What Just Happened","The Blob - Southeast Face > The Blob > Hidden Valley Campground > Hidden Valley Area > Joshua Tree National Park > California",https://www.mountainproject.com/route/118593366/what-just-happened,1.8,-1,Trad,5.3,1,50,34.01793,-116.16382
"Scimitar Crack","Further Back > Sandals Hillside > Box Springs Mountain Reserve > Riverside Area > Inland Empire > California",https://www.mountainproject.com/route/123657942/scimitar-crack,2.0,-1,Trad,5.3,1,18,34.00296,-117.30365
"Unsure if named??","Isles in the Sky (Northeast Face) > Isles in the Sky > Split Rocks West > Split Rocks > Pinto Basin > Joshua Tree National Park > California",https://www.mountainproject.com/route/124166923/unsure-if-named,2.0,-1,Trad,5.3,1,60,34.0047,-116.05874
Krakatoa,"The Coffee Shop > Mill Creek Massif > Mill Creek Area > Sonora Pass Highway (108) > California",https://www.mountainproject.com/route/124341169/krakatoa,2.0,-1,Trad,5.3,1,80,38.30736,-119.93927
Extramundane,"Top Hat Rock > Top Hat Rock > Cap Rock Area > Sheep Pass Area > Central Joshua Tree > Joshua Tree National Park > California",https://www.mountainproject.com/route/124418243/extramundane,2.0,-1,Trad,5.3,1,35,33.98741,-116.1632
Downclimb,"Whaler's Island > Crescent City Area > Northwest California > California",https://www.mountainproject.com/route/124481875/downclimb,2.0,-1,TR,5.3,1,40,41.73981,-124.18463
