Route,Location,URL,"Avg Stars","Your Stars","Route Type",Rating,Pitches,Length,"Area Latitude","Area Longitude"
"Fight or Flight","Lower Elbow Room > Upper Gorge > Owens River Gorge > Bishop Area > Sierra Eastside > California",https://www.mountainproject.com/route/118725422/fight-or-flight,4.0,-1,Sport,5.12c/d,1,100,37.52328,-118.57385
"Prime Real Estate","Upper Cow Rock > Real Hidden Valley > Hidden Valley Area > Joshua Tree National Park > California",https://www.mountainproject.com/route/108041745/prime-real-estate,4.0,-1,Sport,5.12c/d,1,50,34.01678,-116.17473
"Curse of Consciousness","West Face > Castle Rock > Northwest California > California",https://www.mountainproject.com/route/113687439/curse-of-consciousness,4.0,-1,Sport,5.12c/d,1,130,40.74946,-123.51789
"Baby Apes (Direct)","Peyote Cracks Formation - E. Face (aka Bachar Toprope Wall) > Peyote Cracks Formation > The Outback > Hidden Valley Area > Joshua Tree National Park > California",https://www.mountainproject.com/route/118299428/baby-apes-direct,4.0,-1,Trad,5.12c/d,1,50,34.02233,-116.16039
"Just the Tips","Original climb list > Grand Canyon of the Tuolumne > Glen Aulin Area > Tuolumne Meadows > Yosemite National Park > California",https://www.mountainproject.com/route/117870962/just-the-tips,4.0,-1,Trad,5.12c/d,1,115,37.91596,-119.44074
"Never Say Nada","Wedding Rock > Sue-meg State Park > Northwest California > California",https://www.mountainproject.com/route/111505576/never-say-nada,4.0,-1,TR,5.12c/d,1,60,41.14105,-124.16165
"Lethal Weapon","Lethal Rock > Box Canyon East > New Jack City > Barstow Area > High Desert > California",https://www.mountainproject.com/route/105904735/lethal-weapon,3.5,-1,Sport,5.12c/d,1,,34.66523,-116.9791
"Kung Pao","The Dog Pile > Dog Pile Area > Santee Boulders > South San Diego County > San Diego County > California",https://www.mountainproject.com/route/105931886/kung-pao,3.4,-1,Sport,5.12c/d,1,22,32.85048,-117.02311
"Blade Runner","The Cave > Columns of the Giants > Upper Highway 108 > Sonora Pass Highway (108) > California",https://www.mountainproject.com/route/121114933/blade-runner,3.5,-1,Sport,5.12c/d,1,60,38.3353,-119.80409
"Guilt (LINK UP)","The Alcove > Echo Cliffs > Santa Monica Mountains > Los Angeles Basin > California",https://www.mountainproject.com/route/122160172/guilt-link-up,3.3,-1,Sport,5.12c/d,1,100,34.12499,-118.92562
"Midnight Oil","P.T. Barnum Wall > Inner Gorge > Owens River Gorge > Bishop Area > Sierra Eastside > California",https://www.mountainproject.com/route/118325025/midnight-oil,3.2,-1,Sport,5.12c/d,1,80,37.52196,-118.57343
"Buehler's Day Off","Planetarium / Gecko Wall > Scheelite Canyon / Pratt's Crack Gully > Pine Creek Canyon > Bishop Area > Sierra Eastside > California",https://www.mountainproject.com/route/108476201/buehlers-day-off,3.0,-1,Trad,5.12c/d,1,85,37.38453,-118.67785
"Altered Carbon","B - Word > Bowman Valley > Bowman/Emeralds > I-80 Corridor > Lake Tahoe > California",https://www.mountainproject.com/route/112066371/altered-carbon,2.9,-1,Sport,5.12c/d,1,70,39.44527,-120.66024
"Blood Loss","Tropics Wall > Land Of The Lost > Northwest California > California",https://www.mountainproject.com/route/111992820/blood-loss,3.0,-1,Sport,5.12c/d,1,40,40.85281,-123.70654
"Hard 5.12 Face","Lexington Rock > South Bay Area > San Francisco Bay Area > California",https://www.mountainproject.com/route/120081878/hard-512-face,3.0,-1,Trad,"5.12c/d R",1,50,37.20773,-121.98921
"Belly of the Beast","Ministry Wall > Scheelite Canyon / Pratt's Crack Gully > Pine Creek Canyon > Bishop Area > Sierra Eastside > California",https://www.mountainproject.com/route/118358322/belly-of-the-beast,3.0,-1,Sport,5.12c/d,2,100,37.38348,-118.67733
"God Of The Gaps","Mussel Rock > Sue-meg State Park > Northwest California > California",https://www.mountainproject.com/route/111665423/god-of-the-gaps,3.0,-1,TR,5.12c/d,1,100,41.14276,-124.15844
"The Face that Launched 1000 Clips","Patterson Left > Patterson Bluff > Hwy 168:Tollhouse, Shaver Lake, Courtright > Southern-Western Sierra > California",https://www.mountainproject.com/route/117863801/the-face-that-launched-1000-clips,3.0,-1,Trad,5.12c/d,11,1200,36.92802,-119.09471
"Arete Already","Summit > Cerro San Luis Obispo > San Luis Obispo > Central Coast > California",https://www.mountainproject.com/route/121305231/arete-already,3.0,-1,"Sport, TR",5.12c/d,1,45,35.28612,-120.67251
Kittens,"Officer's Club > The Wedge > El Cajon Mountain > South San Diego County > San Diego County > California",https://www.mountainproject.com/route/120081054/kittens,3.0,-1,Sport,5.12c/d,1,90,32.90441,-116.81779
"Humpty Dumpty's Delirium","Old Camp Bluff > Silver Lake > Carson Pass Highway (88) > Lake Tahoe > California",https://www.mountainproject.com/route/112201463/humpty-dumptys-delirium,3.0,-1,TR,5.12c/d,1,,38.66885,-120.13085
Disconnected,"Raven Rocks North Face ""Power Block"" Area > Raven Rocks > Box Canyon East > New Jack City > Barstow Area > High Desert > California",https://www.mountainproject.com/route/105930099/disconnected,2.8,-1,Sport,5.12c/d,1,,34.66528,-116.97734
"Apes of Wrath","Planet of the Apes Wall > Malibu Creek State Park > Santa Monica Mountains > Los Angeles Basin > California",https://www.mountainproject.com/route/112463160/apes-of-wrath,2.3,-1,TR,5.12c/d,1,,34.09765,-118.72905
"The Temptress","Emperor Boulder > Mickey's Beach > Marin/Northwest Bay Area > San Francisco Bay Area > California",https://www.mountainproject.com/route/117734763/the-temptress,2.2,-1,Sport,5.12c/d,1,70,37.87816,-122.62111
"Code III","3. East Wall > Pigeon Cliff > Susanville Area > Northeast California > California",https://www.mountainproject.com/route/112051623/code-iii,2.0,-1,Trad,5.12c/d,1,90,40.4206,-120.67313
Hairdo,"Poison Oak Boulder Area > Mount Woodson > North San Diego County > San Diego County > California",https://www.mountainproject.com/route/105796113/hairdo,2.0,-1,Sport,5.12c/d,1,,33.00759,-116.96769
"Swamp Thing","Lower Tier (Left Side) > Lower Tier > (c) Frustration Creek > Highway 38 Crags > San Bernardino Mountains > California",https://www.mountainproject.com/route/107847458/swamp-thing,2.0,-1,Sport,5.12c/d,1,60,34.10202,-116.96535
Continuum,"Kosmos Wall > Sphinx Rock > Sphinx Rock Area (aka The Cliff Hanger) > Lake Arrowhead Area > San Bernardino Mountains > California",https://www.mountainproject.com/route/109077566/continuum,2.0,-1,Sport,5.12c/d,1,60,34.22709,-117.25349
Resurrection,"The Cave > Williamson Rock > Angeles National Forest > Los Angeles Basin > California",https://www.mountainproject.com/route/108193923/resurrection,2.0,-1,Sport,5.12c/d,1,85,34.36217,-117.87895
"Vice Melange","Locals Only Rock > Lower Dark Canyon > San Jacinto Mountains > California",https://www.mountainproject.com/route/125004685/vice-melange,3.0,-1,TR,5.12c/d,1,40,33.81326,-116.73893
