Route,Location,URL,"Avg Stars","Your Stars","Route Type",Rating,Pitches,Length,"Area Latitude","Area Longitude"
"The Nose","2. Southwest Face > B. El Capitan > Valley North Side > Yosemite Valley > Yosemite National Park > California",https://www.mountainproject.com/route/105924807/the-nose,3.9,-1,"Trad, Aid","5.9 C2",31,3000,37.73051,-119.63828
"Regular Northwest Face of Half Dome (RNWF)","1. Northwest Face > D. Half Dome > Valley South Side > Yosemite Valley > Yosemite National Park > California",https://www.mountainproject.com/route/105912416/regular-northwest-face-of-half-dome-rnwf,3.9,-1,"Trad, Aid","5.9 C1",23,2200,37.74685,-119.5336
"Salathe Wall","2. Southwest Face > B. El Capitan > Valley North Side > Yosemite Valley > Yosemite National Park > California",https://www.mountainproject.com/route/106154042/salathe-wall,3.9,-1,"Trad, Aid","5.9 C2",35,3500,37.73051,-119.63828
"Central Pillar of Frenzy","6. Middle Cathedral Rock > P. Cathedral Area > Valley South Side > Yosemite Valley > Yosemite National Park > California",https://www.mountainproject.com/route/105862930/central-pillar-of-frenzy,3.8,-1,Trad,5.9,5,500,37.7165,-119.6363
"Regular Route","North Face > Fairview Dome > Tuolumne Meadows > Yosemite National Park > California",https://www.mountainproject.com/route/105847227/regular-route,3.7,-1,Trad,5.9,12,1000,37.87279,-119.40427
"Thunderbolt to Sill Traverse","Thunderbolt Peak > 09 - Palisades & Surrounding Peaks > High Sierra > California",https://www.mountainproject.com/route/106513790/thunderbolt-to-sill-traverse,3.9,-1,"Trad, Snow, Alpine","5.9 Easy Snow",1,5280,37.098,-118.5176
"Fishhook Arête","Mt. Russell > 14 - Whitney & Surrounding Peaks > High Sierra > California",https://www.mountainproject.com/route/105802684/fishhook-arete,3.8,-1,"Trad, Alpine",5.9,8,1000,36.59,-118.291
"Flower of High Rank","(u) Northeast Buttress > Suicide Rock > Tahquitz & Suicide Rocks > California",https://www.mountainproject.com/route/105788563/flower-of-high-rank,3.9,-1,Trad,5.9,1,160,33.77158,-116.69558
"Open Book","(h) Open Book Area > Tahquitz Rock > Tahquitz & Suicide Rocks > California",https://www.mountainproject.com/route/105794117/open-book,3.7,-1,Trad,5.9,3,490,33.75946,-116.68508
"On the Lamb","West Face of the Lamb > Lamb Dome > Tuolumne Meadows > Yosemite National Park > California",https://www.mountainproject.com/route/105862991/on-the-lamb,3.8,-1,Trad,5.9,4,,37.86932,-119.42588
Whodunit,"(d) Northwest Recess > Tahquitz Rock > Tahquitz & Suicide Rocks > California",https://www.mountainproject.com/route/105798191/whodunit,3.7,-1,Trad,5.9,8,800,33.76079,-116.68392
"Pratt's Crack","Pratt's Crack / Dihedrals Area > Scheelite Canyon / Pratt's Crack Gully > Pine Creek Canyon > Bishop Area > Sierra Eastside > California",https://www.mountainproject.com/route/105957801/pratts-crack,3.8,-1,Trad,5.9,1,165,37.38393,-118.67712
"Southwest Arete","Grandma Peabody Boulder > Peabody Boulders > Buttermilks Main > Buttermilk Country > Bishop Area > Sierra Eastside > California",https://www.mountainproject.com/route/105956126/southwest-arete,3.8,-1,"Trad, TR",5.9,1,50,37.32837,-118.57479
"Black September","3. Black Wall - Right > Black Wall > Donner Summit > I-80 Corridor > Lake Tahoe > California",https://www.mountainproject.com/route/105981506/black-september,3.8,-1,Trad,5.9,1,110,39.32564,-120.31425
"The Line","East Wall > Main Formation > Lover's Leap > Highway 50 Corridor > Lake Tahoe > California",https://www.mountainproject.com/route/105798280/the-line,3.7,-1,Trad,5.9,3,320,38.80261,-120.13204
"West Crack","West Face > DAFF Dome > DAFF Area > Tuolumne Meadows > Yosemite National Park > California",https://www.mountainproject.com/route/105859422/west-crack,3.6,-1,Trad,5.9,5,430,37.8795,-119.41345
"Traveler Buttress","Main Wall > Main Formation > Lover's Leap > Highway 50 Corridor > Lake Tahoe > California",https://www.mountainproject.com/route/105812520/traveler-buttress,3.6,-1,Trad,5.9,4,500,38.80006,-120.13522
Leonids,"Left Wall > The Wedge > El Cajon Mountain > South San Diego County > San Diego County > California",https://www.mountainproject.com/route/105793305/leonids,3.6,-1,Sport,5.9,3,350,32.90461,-116.81845
"Blown Away","West Face > DAFF Dome > DAFF Area > Tuolumne Meadows > Yosemite National Park > California",https://www.mountainproject.com/route/105862936/blown-away,3.7,-1,Trad,"5.9 PG13",5,500,37.8795,-119.41345
"One Hand Clapping","1. Black Wall - Left > Black Wall > Donner Summit > I-80 Corridor > Lake Tahoe > California",https://www.mountainproject.com/route/105736426/one-hand-clapping,3.6,-1,Trad,5.9,4,400,39.32485,-120.31463
"Regular Route (Higher Cathedral Spire)","3. Higher Cathedral Spire > P. Cathedral Area > Valley South Side > Yosemite Valley > Yosemite National Park > California",https://www.mountainproject.com/route/105956387/regular-route-higher-cathedral-spire,3.5,-1,Trad,5.9,4,400,37.71404,-119.63226
"Aurora Borealis","Black Bluff - N. Face (Right Side) > Black Bluff - North Face > Black Bluff > Mill Creek Road/Skyline Drive Area > Big Bear South > Big Bear Lake Area > San Bernardino Mountains > California",https://www.mountainproject.com/route/107247031/aurora-borealis,3.7,-1,"Trad, Alpine",5.9,1,80,34.21992,-116.99268
"Slip 'n Slide","Lower Elbow Room > Upper Gorge > Owens River Gorge > Bishop Area > Sierra Eastside > California",https://www.mountainproject.com/route/105900092/slip-n-slide,3.6,-1,Sport,5.9,1,115,37.52328,-118.57385
"Touch and Go","Touch and Go Face > Echo Rock Area > Central Joshua Tree > Joshua Tree National Park > California",https://www.mountainproject.com/route/105722359/touch-and-go,3.5,-1,Trad,5.9,1,70,34.02559,-116.1574
Commitment,"First Tier > Five Open Books > E. Yosemite Falls Area > Valley North Side > Yosemite Valley > Yosemite National Park > California",https://www.mountainproject.com/route/105867013/commitment,3.4,-1,Trad,5.9,3,320,37.74798,-119.59857
Fantasia,"East Wall > Main Formation > Lover's Leap > Highway 50 Corridor > Lake Tahoe > California",https://www.mountainproject.com/route/105735227/fantasia,3.6,-1,Trad,"5.9 R",3,300,38.80261,-120.13204
"Permanent Income Hypothesis","Right Side Gully > The Fortress > Hwy 33/Ojai > Central Coast > California",https://www.mountainproject.com/route/105906865/permanent-income-hypothesis,3.5,-1,Sport,5.9,1,180,34.58355,-119.26301
Jamcrack,"Sunnyside Bench > E. Yosemite Falls Area > Valley North Side > Yosemite Valley > Yosemite National Park > California",https://www.mountainproject.com/route/105866367/jamcrack,3.4,-1,Trad,5.9,2,160,37.7507,-119.59446
"Ace of Spades","White Cliffs of Dover - Left Side > White Cliffs of Dover > Quail Springs Area > Joshua Tree National Park > California",https://www.mountainproject.com/route/105722716/ace-of-spades,3.5,-1,Trad,5.9,1,80,34.02919,-116.199
"The Dike Route","Pywiack Dome > Tuolumne Meadows > Yosemite National Park > California",https://www.mountainproject.com/route/105862957/the-dike-route,3.5,-1,"Trad, Sport","5.9 R",5,,37.8453,-119.444
"Psychedelic Tree","East Wall > Main Formation > Lover's Leap > Highway 50 Corridor > Lake Tahoe > California",https://www.mountainproject.com/route/105928449/psychedelic-tree,3.4,-1,Trad,5.9,3,350,38.80261,-120.13204
"Nutcracker 5.9 Start Variation","5. Manure Pile Buttress (aka Ranger Rock) > C. El Cap Picnic Area (Eagle Creek) > Valley North Side > Yosemite Valley > Yosemite National Park > California",https://www.mountainproject.com/route/105862632/nutcracker-59-start-variation,3.4,-1,Trad,5.9,2,200,37.73059,-119.619
"Absolutely Free, Center","2. Lower Brother > D. Camp 4 Area > Valley North Side > Yosemite Valley > Yosemite National Park > California",https://www.mountainproject.com/route/106451171/absolutely-free-center,3.4,-1,Trad,5.9,3,700,37.73378,-119.61232
"New Deviations","Ap. New Diversions > Lower Merced River Canyon > Yosemite Valley > Yosemite National Park > California",https://www.mountainproject.com/route/106807133/new-deviations,3.5,-1,Trad,5.9,1,150,37.72262,-119.70258
"The Big Deal","PSOM Slab > Scheelite Crags / PSOM Slab > Pine Creek Canyon > Bishop Area > Sierra Eastside > California",https://www.mountainproject.com/route/108117647/the-big-deal,3.3,-1,Trad,5.9,4,400,37.38788,-118.6742
Scimitar,"East Wall > Main Formation > Lover's Leap > Highway 50 Corridor > Lake Tahoe > California",https://www.mountainproject.com/route/105806605/scimitar,3.4,-1,Trad,"5.9 R",3,400,38.80261,-120.13204
"West Pillar","Eichorn Pinnacle > Cathedral Range > Tuolumne Meadows > Yosemite National Park > California",https://www.mountainproject.com/route/106110296/west-pillar,3.4,-1,"Trad, Alpine",5.9,5,600,37.84763,-119.40724
"Popular Mechanics","White Cliffs of Dover - Left Side > White Cliffs of Dover > Quail Springs Area > Joshua Tree National Park > California",https://www.mountainproject.com/route/105723478/popular-mechanics,3.4,-1,Trad,5.9,1,80,34.02919,-116.199
Spooky,"The Charlatan > The Needles > Southern Sierra - The Needles, Kern River, Domelands, etc. > Southern-Western Sierra > California",https://www.mountainproject.com/route/105834227/spooky,3.4,-1,Trad,5.9,2,175,36.10825,-118.48129
"Touch and Go","1. Black Wall - Left > Black Wall > Donner Summit > I-80 Corridor > Lake Tahoe > California",https://www.mountainproject.com/route/106180304/touch-and-go,3.4,-1,Trad,5.9,4,370,39.32485,-120.31463
"Beckey Route","El Segundo Buttress > Whitney Portal > Lone Pine Area > Sierra Eastside > California",https://www.mountainproject.com/route/106477993/beckey-route,3.4,-1,Trad,5.9,5,750,36.59295,-118.23459
"High Strung","Foolproof Tower > West Wonderland Valley > Wonderland Valley > Wonderland South > Wonderland of Rocks > Joshua Tree National Park > California",https://www.mountainproject.com/route/105724099/high-strung,3.3,-1,Trad,5.9,1,80,34.0372,-116.14386
"Dave's Deviation","West Face - Left Side > (g) West Face > Tahquitz Rock > Tahquitz & Suicide Rocks > California",https://www.mountainproject.com/route/105800056/daves-deviation,3.3,-1,Trad,5.9,3,300,33.76002,-116.68503
"Pope's Crack","Echo Rock - South Face > Echo Rock > Echo Rock Area > Central Joshua Tree > Joshua Tree National Park > California",https://www.mountainproject.com/route/105722188/popes-crack,3.2,-1,Trad,5.9,1,70,34.02465,-116.15513
"Out of Sight","Out of Sight Boulder Area > Mount Woodson > North San Diego County > San Diego County > California",https://www.mountainproject.com/route/105932005/out-of-sight,3.3,-1,Trad,5.9,1,35,33.01016,-116.96838
"*CLOSED FOR SAFETY* Super Slide","Western Royal Arches > Royal Arches > H. Royal Arches Area > Valley North Side > Yosemite Valley > Yosemite National Park > California",https://www.mountainproject.com/route/105915124/closed-for-safety-super-slide,3.2,-1,Trad,5.9,5,500,37.74873,-119.57265
"Rock n Rolla","Candy Land > Bowman Valley > Bowman/Emeralds > I-80 Corridor > Lake Tahoe > California",https://www.mountainproject.com/route/108013091/rock-n-rolla,3.3,-1,Sport,5.9,1,80,39.44101,-120.65802
"Colorado Crack","Conan's Corridor > Jumbo Rock Area > Pinto Basin > Joshua Tree National Park > California",https://www.mountainproject.com/route/105724777/colorado-crack,3.2,-1,Trad,5.9,1,100,33.9952,-116.0682
Serpentine,"(m) The Weeping Wall > Suicide Rock > Tahquitz & Suicide Rocks > California",https://www.mountainproject.com/route/105789701/serpentine,3.2,-1,Trad,5.9,3,300,33.77027,-116.69477
Farley,"East Face > Sugarloaf > Sugarloaf Area > Highway 50 Corridor > Lake Tahoe > California",https://www.mountainproject.com/route/105911320/farley,3.2,-1,Trad,5.9,1,80,38.77622,-120.30784
"Positively 4th Street","2. Lower Brother > D. Camp 4 Area > Valley North Side > Yosemite Valley > Yosemite National Park > California",https://www.mountainproject.com/route/105986641/positively-4th-street,3.2,-1,Trad,5.9,2,150,37.73378,-119.61232
"Aqua Knobby","Pywiack Dome > Tuolumne Meadows > Yosemite National Park > California",https://www.mountainproject.com/route/105898680/aqua-knobby,3.2,-1,Trad,"5.9 PG13",4,375,37.8453,-119.444
"Heart of the Sun","Great Wall of China > Central Gorge > Owens River Gorge > Bishop Area > Sierra Eastside > California",https://www.mountainproject.com/route/105897050/heart-of-the-sun,3.1,-1,Sport,5.9,1,90,37.51637,-118.57089
"Reed's Pinnacle Regular Route","Reed's Pinnacle > At. Reed's Pinnacle Area > Lower Merced River Canyon > Yosemite Valley > Yosemite National Park > California",https://www.mountainproject.com/route/106308782/reeds-pinnacle-regular-route,3.1,-1,Trad,5.9,4,300,37.72439,-119.70063
Overseer,"Hemingway Buttress (East Face Left) > Hemingway Buttress > *Lost Horse Roadside Crags > Lost Horse Area > Joshua Tree National Park > California",https://www.mountainproject.com/route/105722227/overseer,3.1,-1,Trad,5.9,1,120,34.02386,-116.17782
"La Cosita, Right","Little John and La Cosita > Southwest Base > 1. Base Routes > B. El Capitan > Valley North Side > Yosemite Valley > Yosemite National Park > California",https://www.mountainproject.com/route/105877768/la-cosita-right,3.1,-1,Trad,5.9,1,,37.72953,-119.63752
"Imaginary Voyage","The Warlock > The Needles > Southern Sierra - The Needles, Kern River, Domelands, etc. > Southern-Western Sierra > California",https://www.mountainproject.com/route/106110393/imaginary-voyage,3.1,-1,Trad,5.9,4,500,36.10666,-118.47894
"Chicken Pie","Ap. New Diversions > Lower Merced River Canyon > Yosemite Valley > Yosemite National Park > California",https://www.mountainproject.com/route/106655892/chicken-pie,3.1,-1,Trad,5.9,2,200,37.72262,-119.70258
"The Consolation","(d) Northwest Recess > Tahquitz Rock > Tahquitz & Suicide Rocks > California",https://www.mountainproject.com/route/105799993/the-consolation,3.0,-1,Trad,5.9,6,800,33.76079,-116.68392
"North Overhang","Intersection Rock > Hidden Valley Campground > Hidden Valley Area > Joshua Tree National Park > California",https://www.mountainproject.com/route/105721651/north-overhang,3.0,-1,Trad,5.9,1,100,34.0148,-116.163
"Child of Light","Great Wall of China > Central Gorge > Owens River Gorge > Bishop Area > Sierra Eastside > California",https://www.mountainproject.com/route/105897046/child-of-light,3.0,-1,Sport,5.9,1,90,37.51637,-118.57089
Dinkum,"Dinkum Gulley > Bucks Bar Dome > Cosumnes River Gorge > Placerville > Highway 50 Corridor > Lake Tahoe > California",https://www.mountainproject.com/route/105736208/dinkum,3.0,-1,"Trad, TR",5.9,1,40,38.64881,-120.70662
Innersanctum,"The Witch > The Needles > Southern Sierra - The Needles, Kern River, Domelands, etc. > Southern-Western Sierra > California",https://www.mountainproject.com/route/105844260/innersanctum,3.1,-1,Trad,5.9,3,500,36.10721,-118.48021
Paradise,"Banana Belt > Central Gorge > Owens River Gorge > Bishop Area > Sierra Eastside > California",https://www.mountainproject.com/route/105897030/paradise,3.0,-1,Sport,5.9,1,115,37.51085,-118.56962
"Evolution Traverse","Mt. Darwin > 08 - Bishop Pass & Evolution > High Sierra > California",https://www.mountainproject.com/route/107070687/evolution-traverse,3.8,-1,"Trad, Alpine",5.9,5,12000,37.1669,-118.6715
"Dazed and Confused","Lenticular Dome > West Wonderland Valley > Wonderland Valley > Wonderland South > Wonderland of Rocks > Joshua Tree National Park > California",https://www.mountainproject.com/route/105721840/dazed-and-confused,2.9,-1,Trad,"5.9 R",1,160,34.04253,-116.14939
"Invisibility Lessons","Future Games Rock > Split Rocks East > Split Rocks > Pinto Basin > Joshua Tree National Park > California",https://www.mountainproject.com/route/105721627/invisibility-lessons,3.0,-1,Trad,5.9,1,80,34.0117,-116.0533
Kor-Beck,"6. Middle Cathedral Rock > P. Cathedral Area > Valley South Side > Yosemite Valley > Yosemite National Park > California",https://www.mountainproject.com/route/105898685/kor-beck,2.9,-1,Trad,5.9,13,1400,37.7165,-119.6363
Abitafun,"Pub Wall > Central Gorge > Owens River Gorge > Bishop Area > Sierra Eastside > California",https://www.mountainproject.com/route/105969567/abitafun,3.0,-1,Sport,5.9,1,105,37.51096,-118.57058
Intellitoys,"Test Site > Echo Cliffs > Santa Monica Mountains > Los Angeles Basin > California",https://www.mountainproject.com/route/106642000/intellitoys,2.9,-1,Sport,5.9,1,85,34.12537,-118.92629
"Sands of Time","1. Northeast Face > Calaveras Dome > Calaveras Domes > Carson Pass Highway (88) > Lake Tahoe > California",https://www.mountainproject.com/route/106472794/sands-of-time,3.4,-1,Trad,5.9,6,1000,38.48669,-120.22452
"Western Saga","The Sentinel - East Face > The Sentinel > Real Hidden Valley > Hidden Valley Area > Joshua Tree National Park > California",https://www.mountainproject.com/route/105723679/western-saga,2.9,-1,Trad,5.9,1,150,34.01344,-116.1712
"Lena's Lieback","A. Swan Slab > E. Yosemite Falls Area > Valley North Side > Yosemite Valley > Yosemite National Park > California",https://www.mountainproject.com/route/105867066/lenas-lieback,2.9,-1,Trad,5.9,3,190,37.74499,-119.5999
"Yasmine Bleeth","Siberia > Outer Mongolia > The Middle Kingdom > Wonderland North > Wonderland of Rocks > Joshua Tree National Park > California",https://www.mountainproject.com/route/105724492/yasmine-bleeth,2.9,-1,Sport,5.9,1,90,34.06957,-116.16993
"A Little Nukey","West Face > Power Dome > Courtright Reservoir > Hwy 168:Tollhouse, Shaver Lake, Courtright > Southern-Western Sierra > California",https://www.mountainproject.com/route/106078249/a-little-nukey,3.7,-1,"Trad, Alpine",5.9,5,750,37.07266,-118.96683
"Goodrich Pinnacle-Right Side","4. Goodrich Pinnacle Area > I. Glacier Point Apron > Valley South Side > Yosemite Valley > Yosemite National Park > California",https://www.mountainproject.com/route/105964137/goodrich-pinnacle-right-side,2.8,-1,Trad,5.9,8,750,37.7323,-119.56492
"Go with the Flow","The Grotto > Table Mountain > Sonora Pass Highway (108) > California",https://www.mountainproject.com/route/105735689/go-with-the-flow,2.9,-1,Trad,5.9,1,50,37.926,-120.4635
"Apron  Jam","6. GPA - Right Side > I. Glacier Point Apron > Valley South Side > Yosemite Valley > Yosemite National Park > California",https://www.mountainproject.com/route/106588157/apron-jam,2.8,-1,Trad,5.9,1,110,37.7337,-119.56956
"Mouse Maze","Cracked Wall > Bishop Peak > San Luis Obispo > Central Coast > California",https://www.mountainproject.com/route/106268934/mouse-maze,2.8,-1,"Trad, Sport","5.9 PG13",1,40,35.30227,-120.69427
Granted,"The Grotto > Table Mountain > Sonora Pass Highway (108) > California",https://www.mountainproject.com/route/105735701/granted,2.8,-1,Trad,5.9,1,40,37.926,-120.4635
Primer,"1. Black Wall - Left > Black Wall > Donner Summit > I-80 Corridor > Lake Tahoe > California",https://www.mountainproject.com/route/106501604/primer,2.8,-1,Trad,5.9,1,50,39.32485,-120.31463
"Super Roof","Super Roof Wall > Steve Canyon > Steve Canyon Area > The Outback > Hidden Valley Area > Joshua Tree National Park > California",https://www.mountainproject.com/route/105722089/super-roof,2.8,-1,Trad,5.9,1,50,34.01934,-116.16688
"Crack   5","Isles Corridor - Left Side > Isles Corridor > Isles in the Sky > Split Rocks West > Split Rocks > Pinto Basin > Joshua Tree National Park > California",https://www.mountainproject.com/route/105816324/crack-5,2.8,-1,Trad,5.9,1,50,34.00448,-116.05887
Cinderella,"All You Can Eat > Upper Gorge > Owens River Gorge > Bishop Area > Sierra Eastside > California",https://www.mountainproject.com/route/105971555/cinderella,2.8,-1,Sport,5.9,1,60,37.52666,-118.57491
Orphan,"The Old Woman - West Face > The Old Woman > Hidden Valley Campground > Hidden Valley Area > Joshua Tree National Park > California",https://www.mountainproject.com/route/105722182/orphan,2.8,-1,Trad,5.9,1,80,34.01661,-116.16386
"Grant's Crack","A. Swan Slab > E. Yosemite Falls Area > Valley North Side > Yosemite Valley > Yosemite National Park > California",https://www.mountainproject.com/route/105841126/grants-crack,2.7,-1,"Trad, TR",5.9,1,60,37.74499,-119.5999
"Hard Up","Middle Spire > Phantom Spires > Highway 50 Corridor > Lake Tahoe > California",https://www.mountainproject.com/route/105860014/hard-up,2.8,-1,Trad,5.9,1,,38.7875,-120.2441
"Closed For Lunch","The Dollar Store > The Benches > The Emeralds > Bowman/Emeralds > I-80 Corridor > Lake Tahoe > California",https://www.mountainproject.com/route/108439727/closed-for-lunch,2.7,-1,Sport,5.9,1,60,39.325,-120.64942
"Dummy's Delight","Houser Buttress > Houser Buttress Area > Real Hidden Valley Vicinity > Real Hidden Valley > Hidden Valley Area > Joshua Tree National Park > California",https://www.mountainproject.com/route/105722062/dummys-delight,2.8,-1,Trad,5.9,1,80,34.01051,-116.17118
"Sexy Grandma","The Old Woman - West Face > The Old Woman > Hidden Valley Campground > Hidden Valley Area > Joshua Tree National Park > California",https://www.mountainproject.com/route/105723454/sexy-grandma,2.7,-1,Sport,5.9,1,80,34.01661,-116.16386
"Jorgie's Crack","Discovery Wall > East Side > Pinnacles National Park > Central Coast > California",https://www.mountainproject.com/route/106330223/jorgies-crack,2.7,-1,Trad,5.9,1,45,36.4759,-121.18616
Fallout,"90 Foot Wall > Eagle Creek Canyon > West Shore > Lake Tahoe > California",https://www.mountainproject.com/route/105856263/fallout,2.7,-1,"Trad, TR",5.9,1,70,38.9506,-120.1165
"Crowd Pleaser","Warm Up Wall > Central Gorge > Owens River Gorge > Bishop Area > Sierra Eastside > California",https://www.mountainproject.com/route/105897024/crowd-pleaser,2.7,-1,Sport,5.9,1,80,37.51273,-118.57124
"Lean And Mean","Middle Spire > Phantom Spires > Highway 50 Corridor > Lake Tahoe > California",https://www.mountainproject.com/route/105856248/lean-and-mean,2.7,-1,Trad,5.9,2,,38.7875,-120.2441
"Baby Robbins","Jaws Vicinity > Jaws Boulder Area > Mount Woodson > North San Diego County > San Diego County > California",https://www.mountainproject.com/route/105791654/baby-robbins,2.7,-1,"Trad, Boulder","5.9 V0-",1,15,33.00579,-116.96748
"Mon Cherie","Truffle Tower > Western Wall Area > Alabama Hills North > Alabama Hills > Lone Pine Area > Sierra Eastside > California",https://www.mountainproject.com/route/106127137/mon-cherie,2.8,-1,Sport,5.9,1,80,36.6077,-118.13354
"Direct South Face","Moosedog Tower > Indian Cove CG West > Indian Cove Campground > Indian Cove > Joshua Tree National Park > California",https://www.mountainproject.com/route/105721768/direct-south-face,2.7,-1,Trad,5.9,3,200,34.0949,-116.1649
"Center Route","Mozart's Wall > Stoney Point > Los Angeles Basin > California",https://www.mountainproject.com/route/105956855/center-route,2.7,-1,TR,5.9,1,50,34.27129,-118.60359
"Tumbling Rainbow","Tumbling Rainbow Formation > Real Hidden Valley > Hidden Valley Area > Joshua Tree National Park > California",https://www.mountainproject.com/route/105723109/tumbling-rainbow,2.7,-1,Trad,5.9,1,70,34.01232,-116.17133
"The Wet Kiss","Discovery Wall > East Side > Pinnacles National Park > Central Coast > California",https://www.mountainproject.com/route/105735368/the-wet-kiss,2.7,-1,"Sport, TR",5.9,1,60,36.4759,-121.18616
"War Paint","Center Wall > Big Chief Area > Truckee River Canyon > Lake Tahoe > California",https://www.mountainproject.com/route/105735416/war-paint,2.7,-1,Sport,5.9,1,80,39.2451,-120.20291
"Digit Delight","Area 13 - Left Side > Area 13 > Clark Canyon > Mammoth Lakes Area > Sierra Eastside > California",https://www.mountainproject.com/route/105889652/digit-delight,2.7,-1,Sport,5.9,1,,37.78854,-118.91226
"Black Magic Poodle","Coyote Crag > Central Pinnacles > Holcomb Valley Pinnacles > Big Bear City Area > Big Bear North > Big Bear Lake Area > San Bernardino Mountains > California",https://www.mountainproject.com/route/105805488/black-magic-poodle,2.7,-1,Sport,5.9,1,70,34.3078,-116.8781
"War Path","Center Wall > Big Chief Area > Truckee River Canyon > Lake Tahoe > California",https://www.mountainproject.com/route/105735506/war-path,2.7,-1,Sport,5.9,1,90,39.2451,-120.20291
"Split Personality","Rock Garden Valley - Left Side > Rock Garden Valley > Lost Horse Area > Joshua Tree National Park > California",https://www.mountainproject.com/route/105721876/split-personality,2.7,-1,Trad,5.9,1,60,34.0215,-116.1777
"Crooked Dick Spire","Crooked Dick Spire (aka The Finger) > Box Canyon East > New Jack City > Barstow Area > High Desert > California",https://www.mountainproject.com/route/107025424/crooked-dick-spire,2.7,-1,Sport,5.9,1,35,34.66426,-116.97899
Aperitif,"Table Scraps Pinnacle > The Palisades > Mount St. Helena > Wine Country/Northeast Bay > San Francisco Bay Area > California",https://www.mountainproject.com/route/106550126/aperitif,2.7,-1,Sport,5.9,1,60,38.65852,-122.58663
"Suzie's Wild Ride","Main Wall > Mission Gorge > South San Diego County > San Diego County > California",https://www.mountainproject.com/route/105791566/suzies-wild-ride,2.6,-1,Sport,5.9,1,80,32.82665,-117.05071
"Reaching Rayane","Boy Scout Wall > Box Canyon East > New Jack City > Barstow Area > High Desert > California",https://www.mountainproject.com/route/105913303/reaching-rayane,2.7,-1,Sport,5.9,1,70,34.66618,-116.9796
"Nobody Walks in LA","Upper Freeway Wall > Freeway Wall > Lost Horse Area > Joshua Tree National Park > California",https://www.mountainproject.com/route/105722464/nobody-walks-in-la,2.7,-1,Trad,5.9,1,80,34.0233,-116.17866
"Triple Direct","2. Southwest Face > B. El Capitan > Valley North Side > Yosemite Valley > Yosemite National Park > California",https://www.mountainproject.com/route/106141505/triple-direct,3.6,-1,"Trad, Aid","5.9 C2",30,3200,37.73051,-119.63828
"Stolen From Mike","Wheeler Gorge > Hwy 33/Ojai > Central Coast > California",https://www.mountainproject.com/route/108760366/stolen-from-mike,2.6,-1,Sport,5.9,1,65,34.5075,-119.2757
"Corn Flakes","Middle Spire > Phantom Spires > Highway 50 Corridor > Lake Tahoe > California",https://www.mountainproject.com/route/105910688/corn-flakes,2.7,-1,Trad,5.9,1,,38.7875,-120.2441
Morticia,"East Face > Sugarloaf > Sugarloaf Area > Highway 50 Corridor > Lake Tahoe > California",https://www.mountainproject.com/route/105911315/morticia,2.7,-1,Trad,5.9,1,100,38.77622,-120.30784
"Strawberry Jam","Outhouse Rock - East Face > Outhouse Rock > Hidden Valley Campground > Hidden Valley Area > Joshua Tree National Park > California",https://www.mountainproject.com/route/105723565/strawberry-jam,2.6,-1,Trad,5.9,1,70,34.01995,-116.1634
"Car Jacker","Left Side > Mayhem Cove > Eagle Creek Canyon > West Shore > Lake Tahoe > California",https://www.mountainproject.com/route/105735005/car-jacker,2.6,-1,Sport,5.9,1,40,38.95326,-120.11439
"Wild Wind","Hidden Tower > Real Hidden Valley > Hidden Valley Area > Joshua Tree National Park > California",https://www.mountainproject.com/route/105721657/wild-wind,2.6,-1,Trad,5.9,1,60,34.01456,-116.16825
Suds,"Am. Pat and Jack Pinnacle > Lower Merced River Canyon > Yosemite Valley > Yosemite National Park > California",https://www.mountainproject.com/route/105990390/suds,2.6,-1,Trad,5.9,1,120,37.72406,-119.71395
"Just Jerry","Right Hand Spires > Luther Spires > South Shore > Lake Tahoe > California",https://www.mountainproject.com/route/105736061/just-jerry,2.6,-1,"Sport, TR",5.9,1,40,38.79961,-119.99947
"Welcome to the Gorge","Warm Up Wall > Central Gorge > Owens River Gorge > Bishop Area > Sierra Eastside > California",https://www.mountainproject.com/route/105891392/welcome-to-the-gorge,2.6,-1,Sport,5.9,1,,37.51273,-118.57124
"Norwegian Wood","Snickers - North Face > Snickers > Echo Rock Area > Central Joshua Tree > Joshua Tree National Park > California",https://www.mountainproject.com/route/105723646/norwegian-wood,2.6,-1,Trad,5.9,1,90,34.02522,-116.15058
"Doggie Deviations","5. Camp 4 Wall > D. Camp 4 Area > Valley North Side > Yosemite Valley > Yosemite National Park > California",https://www.mountainproject.com/route/105949939/doggie-deviations,2.9,-1,Trad,5.9,1,95,37.74268,-119.60709
"Masochist Crack","Beehive Boulders > Moby Dick Area > Santee Boulders > South San Diego County > San Diego County > California",https://www.mountainproject.com/route/105930392/masochist-crack,2.5,-1,"Trad, Boulder","5.9 V0-",1,10,32.85097,-117.02078
"The Yawn","West Face, Left > Medlicott Dome > Tuolumne Meadows > Yosemite National Park > California",https://www.mountainproject.com/route/105903295/the-yawn,3.6,-1,Trad,5.9,4,600,37.86017,-119.42856
Lemon,"Sunnyside Bench > E. Yosemite Falls Area > Valley North Side > Yosemite Valley > Yosemite National Park > California",https://www.mountainproject.com/route/105943342/lemon,2.5,-1,Trad,5.9,1,40,37.7507,-119.59446
Whiptail,"Motherlode Rock - North Face > Motherlode Rock > Central Pinnacles > Holcomb Valley Pinnacles > Big Bear City Area > Big Bear North > Big Bear Lake Area > San Bernardino Mountains > California",https://www.mountainproject.com/route/105895085/whiptail,2.5,-1,Sport,5.9,1,50,34.30895,-116.87802
"Wall Flower","Warm Up Wall > Central Gorge > Owens River Gorge > Bishop Area > Sierra Eastside > California",https://www.mountainproject.com/route/108613217/wall-flower,2.6,-1,Sport,5.9,1,,37.51273,-118.57124
"Hailstone Arete","Hailstone Rock > Satellite Rocks > Mount St. Helena > Wine Country/Northeast Bay > San Francisco Bay Area > California",https://www.mountainproject.com/route/108644963/hailstone-arete,3.3,-1,Sport,5.9,1,80,38.65311,-122.61376
"Hot Fudge","Dairy Queen Wall - Right Side > Dairy Queen Wall > *Lost Horse Roadside Crags > Lost Horse Area > Joshua Tree National Park > California",https://www.mountainproject.com/route/105724297/hot-fudge,2.5,-1,Trad,"5.9 R",1,70,34.02191,-116.17735
"Count on Your Fingers","The Thin Wall > Real Hidden Valley > Hidden Valley Area > Joshua Tree National Park > California",https://www.mountainproject.com/route/105724180/count-on-your-fingers,2.4,-1,Trad,5.9,1,50,34.01437,-116.17276
"Boulder Dash","Echo Cove - South Side > Echo Cove > Echo Rock Area > Central Joshua Tree > Joshua Tree National Park > California",https://www.mountainproject.com/route/105722575/boulder-dash,2.5,-1,Trad,5.9,1,50,34.02451,-116.15802
"Black Tide","Left Flank > Echo Cliffs > Santa Monica Mountains > Los Angeles Basin > California",https://www.mountainproject.com/route/106568930/black-tide,2.4,-1,Sport,5.9,1,90,34.12525,-118.92725
"Nervous Twitch","Thunderbird Wall > Central Pinnacles > Holcomb Valley Pinnacles > Big Bear City Area > Big Bear North > Big Bear Lake Area > San Bernardino Mountains > California",https://www.mountainproject.com/route/105837591/nervous-twitch,2.5,-1,Sport,5.9,1,50,34.3082,-116.8788
Damper,"Chimney Rock - West Face > Chimney Rock > Hidden Valley Campground > Hidden Valley Area > Joshua Tree National Park > California",https://www.mountainproject.com/route/105721885/damper,2.4,-1,Trad,5.9,1,40,34.01661,-116.16159
"Fun in the Sun","Sunnyside > Box Canyon East > New Jack City > Barstow Area > High Desert > California",https://www.mountainproject.com/route/105913366/fun-in-the-sun,2.4,-1,Sport,5.9,1,45,34.66582,-116.97773
"Looney Tunes","Rock Hudson > The Outback > Hidden Valley Area > Joshua Tree National Park > California",https://www.mountainproject.com/route/105722119/looney-tunes,2.3,-1,Trad,5.9,1,115,34.02117,-116.1629
"Nuke the Whales","Banana Belt > Central Gorge > Owens River Gorge > Bishop Area > Sierra Eastside > California",https://www.mountainproject.com/route/105895883/nuke-the-whales,2.5,-1,Sport,5.9,1,80,37.51085,-118.56962
"Lava Falls","The Balconies > West Side > Pinnacles National Park > Central Coast > California",https://www.mountainproject.com/route/106033052/lava-falls,3.4,-1,Trad,"5.9 R",2,250,36.50052,-121.20317
"Standup Flake","Lower Bulge Buttress > (f) West Face Bulge Routes > Tahquitz Rock > Tahquitz & Suicide Rocks > California",https://www.mountainproject.com/route/106027725/standup-flake,2.6,-1,Trad,5.9,1,165,33.76025,-116.68462
R.M.L.,"Echo Cove - South Face > Echo Cove > Echo Rock Area > Central Joshua Tree > Joshua Tree National Park > California",https://www.mountainproject.com/route/105723937/rml,2.5,-1,Trad,5.9,1,50,34.0242,-116.1582
"White Head","White Face > Entrance Area Crags > New Jack City > Barstow Area > High Desert > California",https://www.mountainproject.com/route/105899387/white-head,2.3,-1,Sport,5.9,1,40,34.67068,-116.98328
"Whisker Biscuit","3 - Donnie G > The Fortress > Woodfords Canyon > Carson Pass Highway (88) > Lake Tahoe > California",https://www.mountainproject.com/route/106363274/whisker-biscuit,3.1,-1,Trad,5.9,1,80,38.76933,-119.85315
"Hair Raiser Buttress","South Face > Granite Basin > Sagehen Summit Area > Eastern Hills > Sierra Eastside > California",https://www.mountainproject.com/route/105881551/hair-raiser-buttress,3.9,-1,"Trad, Sport","5.9 R",3,,37.90842,-118.81541
"Sophie's Choice","The First Corridor > Texas Canyon > Angeles National Forest > Los Angeles Basin > California",https://www.mountainproject.com/route/108068440/sophies-choice,2.6,-1,Sport,5.9,1,60,34.51328,-118.40175
Prow,"Stumbling Blocks > Malibu Creek State Park > Santa Monica Mountains > Los Angeles Basin > California",https://www.mountainproject.com/route/106023804/prow,2.3,-1,Sport,5.9,1,,34.09602,-118.73011
"Pippy the Zenhead","Gorgeous Towers > Upper Gorge > Owens River Gorge > Bishop Area > Sierra Eastside > California",https://www.mountainproject.com/route/106170901/pippy-the-zenhead,2.5,-1,Sport,5.9,1,70,37.52313,-118.57433
"Championship Wrestling","Sports Challenge Rock - East Face > Sports Challenge Rock > Real Hidden Valley > Hidden Valley Area > Joshua Tree National Park > California",https://www.mountainproject.com/route/105721819/championship-wrestling,2.7,-1,Trad,5.9,1,50,34.01415,-116.16906
"5.9 Face","The Bubble > Mount St. Helena > Wine Country/Northeast Bay > San Francisco Bay Area > California",https://www.mountainproject.com/route/105734870/59-face,2.2,-1,"Sport, TR",5.9,1,60,38.65093,-122.61322
"Scooby Snacks","Scale Wall > Cave Valley (aka Auburn Quarry) > Auburn SRA > Auburn and Grass Valley > I-80 Corridor > Lake Tahoe > California",https://www.mountainproject.com/route/107754177/scooby-snacks,2.2,-1,Sport,5.9,1,60,38.91564,-121.01437
Moonshiner,"Stumbling Blocks > Malibu Creek State Park > Santa Monica Mountains > Los Angeles Basin > California",https://www.mountainproject.com/route/106239463/moonshiner,2.2,-1,Sport,5.9,1,70,34.09602,-118.73011
"Crack Direct","Beaver Street Wall > San Francisco > San Francisco Bay Area > California",https://www.mountainproject.com/route/105734864/crack-direct,2.5,-1,TR,"5.9 R",1,60,37.7655,-122.4368
"Ghost Town","Kudos Right > Kudos Cliff > The Benches > The Emeralds > Bowman/Emeralds > I-80 Corridor > Lake Tahoe > California",https://www.mountainproject.com/route/108143910/ghost-town,2.2,-1,Sport,5.9,1,60,39.32704,-120.64695
Gandy,"Siberia > Outer Mongolia > The Middle Kingdom > Wonderland North > Wonderland of Rocks > Joshua Tree National Park > California",https://www.mountainproject.com/route/105725692/gandy,2.2,-1,Sport,5.9,1,50,34.06957,-116.16993
"Dead Bees","Isles in the Sky (Northeast Face) > Isles in the Sky > Split Rocks West > Split Rocks > Pinto Basin > Joshua Tree National Park > California",https://www.mountainproject.com/route/105721804/dead-bees,2.2,-1,Sport,5.9,1,60,34.0047,-116.05874
"Rites of Spring","Isles in the Sky (Northeast Face) > Isles in the Sky > Split Rocks West > Split Rocks > Pinto Basin > Joshua Tree National Park > California",https://www.mountainproject.com/route/105858135/rites-of-spring,2.2,-1,Trad,5.9,1,80,34.0047,-116.05874
"Something Good","North Buttress Base Routes > 7. Lower Cathedral Area > P. Cathedral Area > Valley South Side > Yosemite Valley > Yosemite National Park > California",https://www.mountainproject.com/route/109500119/something-good,2.6,-1,Trad,5.9,1,80,37.71424,-119.64497
Sidesaddle,"Ort Wall > Table Mountain > Sonora Pass Highway (108) > California",https://www.mountainproject.com/route/105734918/sidesaddle,2.1,-1,Sport,5.9,1,30,37.92614,-120.46348
"Pea Soup","1. North Face Main > North Face > Snowshed Wall > Donner Summit > I-80 Corridor > Lake Tahoe > California",https://www.mountainproject.com/route/105734972/pea-soup,2.2,-1,Trad,5.9,1,90,39.31642,-120.31884
Thunderbird,"Thunderbird Wall > Central Pinnacles > Holcomb Valley Pinnacles > Big Bear City Area > Big Bear North > Big Bear Lake Area > San Bernardino Mountains > California",https://www.mountainproject.com/route/105838078/thunderbird,2.1,-1,Sport,5.9,1,45,34.3082,-116.8788
"Hamburger Crack","Hamburger Crack Area > Mount Woodson > North San Diego County > San Diego County > California",https://www.mountainproject.com/route/105796404/hamburger-crack,2.1,-1,"Trad, Boulder","5.9 V0",1,9,33.00713,-116.96811
"Greener Pastures","Southwest Face > Grouse Slab > Donner Summit > I-80 Corridor > Lake Tahoe > California",https://www.mountainproject.com/route/105736384/greener-pastures,2.7,-1,Trad,5.9,1,40,39.32231,-120.31924
"The Grack, Marginal","3. The Grack Area > I. Glacier Point Apron > Valley South Side > Yosemite Valley > Yosemite National Park > California",https://www.mountainproject.com/route/106026270/the-grack-marginal,3.4,-1,Trad,"5.9 R",4,300,37.72993,-119.56355
"Power Ranger","The Power Wall > Century Lake Area > Malibu Creek State Park > Santa Monica Mountains > Los Angeles Basin > California",https://www.mountainproject.com/route/106000613/power-ranger,2.1,-1,Sport,5.9,1,40,34.098,-118.734
"Powder Puff Girls","The Power Wall > Century Lake Area > Malibu Creek State Park > Santa Monica Mountains > Los Angeles Basin > California",https://www.mountainproject.com/route/106000607/powder-puff-girls,2.0,-1,Sport,5.9,1,40,34.098,-118.734
"Blast Furnace","Mustache Wall > Scheelite Canyon / Pratt's Crack Gully > Pine Creek Canyon > Bishop Area > Sierra Eastside > California",https://www.mountainproject.com/route/109405817/blast-furnace,2.1,-1,Sport,5.9,1,80,37.3836,-118.67689
"Rob's Rambunctious Ride","Raven Rocks West (Warm-up Wall) > Raven Rocks > Box Canyon East > New Jack City > Barstow Area > High Desert > California",https://www.mountainproject.com/route/105898357/robs-rambunctious-ride,2.0,-1,Sport,5.9,1,75,34.66502,-116.97738
Bushwhacked,"Left Flank > Echo Cliffs > Santa Monica Mountains > Los Angeles Basin > California",https://www.mountainproject.com/route/105825782/bushwhacked,2.1,-1,Sport,5.9,1,90,34.12525,-118.92725
"Gold Dusty","Scale Wall > Cave Valley (aka Auburn Quarry) > Auburn SRA > Auburn and Grass Valley > I-80 Corridor > Lake Tahoe > California",https://www.mountainproject.com/route/107830132/gold-dusty,2.0,-1,Sport,5.9,1,40,38.91564,-121.01437
"R. A. F.","Echo Cove - North Side > Echo Cove > Echo Rock Area > Central Joshua Tree > Joshua Tree National Park > California",https://www.mountainproject.com/route/105722329/r-a-f,2.0,-1,Trad,5.9,1,70,34.02489,-116.1578
"Shantytown Swing","Motherlode Rock - East Face > Motherlode Rock > Central Pinnacles > Holcomb Valley Pinnacles > Big Bear City Area > Big Bear North > Big Bear Lake Area > San Bernardino Mountains > California",https://www.mountainproject.com/route/105985060/shantytown-swing,2.0,-1,Sport,5.9,1,50,34.30869,-116.87815
Spot,"Arizona Dome > Alabama Hills South > Alabama Hills > Lone Pine Area > Sierra Eastside > California",https://www.mountainproject.com/route/105896533/spot,2.9,-1,Sport,5.9,1,80,36.58589,-118.11239
"Egg Face","The Egg > Mickey's Beach > Marin/Northwest Bay Area > San Francisco Bay Area > California",https://www.mountainproject.com/route/105736339/egg-face,2.0,-1,Sport,5.9,1,30,37.88573,-122.62965
"Times Up","Honeycomb Wall > Big Chief Area > Truckee River Canyon > Lake Tahoe > California",https://www.mountainproject.com/route/106487428/times-up,2.7,-1,Sport,5.9,1,70,39.24428,-120.20265
Grounder,"Isles Corridor - Left Side > Isles Corridor > Isles in the Sky > Split Rocks West > Split Rocks > Pinto Basin > Joshua Tree National Park > California",https://www.mountainproject.com/route/105816299/grounder,2.4,-1,Trad,5.9,1,50,34.00448,-116.05887
"Skyy Pilot","Skyy Slab > Central Pinnacles > Holcomb Valley Pinnacles > Big Bear City Area > Big Bear North > Big Bear Lake Area > San Bernardino Mountains > California",https://www.mountainproject.com/route/105977137/skyy-pilot,2.0,-1,Sport,5.9,1,40,34.308,-116.8781
"Xeno Dance","Corpse Wall > Saddle Peak > Santa Monica Mountains > Los Angeles Basin > California",https://www.mountainproject.com/route/107103512/xeno-dance,2.8,-1,Sport,5.9,1,60,34.07931,-118.65874
"Thumbs Down Left","Star Wars Rock > Virgin Islands Area > Geology Tour Road > Queen Valley Area > Joshua Tree National Park > California",https://www.mountainproject.com/route/105722152/thumbs-down-left,2.1,-1,Trad,5.9,1,60,33.95018,-116.07135
"Captain Kronos","The Brown Wall > Real Hidden Valley > Hidden Valley Area > Joshua Tree National Park > California",https://www.mountainproject.com/route/105722605/captain-kronos,2.3,-1,Trad,"5.9 R",1,70,34.01676,-116.17215
"North Buttress","Mt. Goode > 08 - Bishop Pass & Evolution > High Sierra > California",https://www.mountainproject.com/route/105805914/north-buttress,3.1,-1,"Trad, Alpine",5.9,9,800,37.1231,-118.568
Leia,"Jabba > Tatooine > Fairview Mountain > Apple Valley Area > High Desert > California",https://www.mountainproject.com/route/107118732/leia,2.7,-1,Sport,5.9,1,30,34.56358,-117.12058
"Patio Cracks - Right","A. Swan Slab > E. Yosemite Falls Area > Valley North Side > Yosemite Valley > Yosemite National Park > California",https://www.mountainproject.com/route/107356372/patio-cracks-right,1.9,-1,,5.9,1,50,37.74499,-119.5999
"Grape Ape","Planet of the Apes Wall > Malibu Creek State Park > Santa Monica Mountains > Los Angeles Basin > California",https://www.mountainproject.com/route/105924029/grape-ape,1.9,-1,TR,5.9,1,,34.09765,-118.72905
"South Face Center","Headstone Rock > Ryan Campground > Sheep Pass Area > Central Joshua Tree > Joshua Tree National Park > California",https://www.mountainproject.com/route/105724294/south-face-center,2.5,-1,TR,5.9,1,40,33.98437,-116.15237
"Ledges to Lawndale","West Wall Outer (Buckets to Burbank Area) > Hall of Horrors > Hall of Horrors Area > Sheep Pass Area > Central Joshua Tree > Joshua Tree National Park > California",https://www.mountainproject.com/route/105723457/ledges-to-lawndale,2.1,-1,Trad,"5.9 R",1,40,34.00097,-116.14794
Fingers,"Toprope Wall > Ortega Falls > Santa Ana Mountains > Los Angeles Basin > California",https://www.mountainproject.com/route/106004899/fingers,2.4,-1,"Trad, TR",5.9,1,60,33.62607,-117.42796
"Sitting Here in Limbo","Echo Cove - South Face > Echo Cove > Echo Rock Area > Central Joshua Tree > Joshua Tree National Park > California",https://www.mountainproject.com/route/105722533/sitting-here-in-limbo,2.5,-1,Trad,5.9,1,50,34.0242,-116.1582
"Black is Brown","G. Church Bowl > Valley North Side > Yosemite Valley > Yosemite National Park > California",https://www.mountainproject.com/route/105874694/black-is-brown,1.8,-1,Trad,5.9,1,145,37.74908,-119.58015
"Lady Luck","Claim Jumper Wall > Central Pinnacles > Holcomb Valley Pinnacles > Big Bear City Area > Big Bear North > Big Bear Lake Area > San Bernardino Mountains > California",https://www.mountainproject.com/route/105823585/lady-luck,1.8,-1,Sport,5.9,1,40,34.3079,-116.8786
"Double Flipper","Gotham City > Upper Gorge > Owens River Gorge > Bishop Area > Sierra Eastside > California",https://www.mountainproject.com/route/106446245/double-flipper,2.1,-1,Sport,5.9,1,80,37.52751,-118.57443
"Cleaning Lady","Spring Wall > Horseshoe Piles > Lake George > Mammoth Lakes Area > Sierra Eastside > California",https://www.mountainproject.com/route/105913173/cleaning-lady,2.5,-1,"Sport, Alpine",5.9,1,50,37.60217,-119.01851
"Super Chicken","West Face, Left > Medlicott Dome > Tuolumne Meadows > Yosemite National Park > California",https://www.mountainproject.com/route/106007588/super-chicken,3.2,-1,Trad,5.9,2,200,37.86017,-119.42856
"Scoop Ejector","The Pistachio > Western Wall Area > Alabama Hills North > Alabama Hills > Lone Pine Area > Sierra Eastside > California",https://www.mountainproject.com/route/105897830/scoop-ejector,2.8,-1,Sport,5.9,1,60,36.6066,-118.132
"Phantom Staircase Middle","Green Phantom Rock > Donner Summit > I-80 Corridor > Lake Tahoe > California",https://www.mountainproject.com/route/105836199/phantom-staircase-middle,2.5,-1,TR,5.9,1,70,39.31955,-120.31851
"The Wind Through the Keyhole","1st Tier > The Tiers > Cloudburst Canyon > Woodfords Canyon > Carson Pass Highway (88) > Lake Tahoe > California",https://www.mountainproject.com/route/108210759/the-wind-through-the-keyhole,2.6,-1,Trad,5.9,1,60,38.7621,-119.86144
"M & Ms Plain","Little Rock Candy Mountain > Echo Rock Area > Central Joshua Tree > Joshua Tree National Park > California",https://www.mountainproject.com/route/105725341/m-ms-plain,1.9,-1,Trad,5.9,1,50,34.02386,-116.15132
"Coyote Ugly","Tiburcio's X > East Side > Pinnacles National Park > Central Coast > California",https://www.mountainproject.com/route/105952623/coyote-ugly,3.0,-1,Trad,5.9,1,150,36.47318,-121.18722
"Quack of Ducks","Main Wall > Mission Gorge > South San Diego County > San Diego County > California",https://www.mountainproject.com/route/106149645/quack-of-ducks,2.7,-1,Trad,5.9,1,40,32.82665,-117.05071
"Evil Bolt Greeboo","Waterfall Cliff > Castle Rock Area > South Bay Area > San Francisco Bay Area > California",https://www.mountainproject.com/route/105736055/evil-bolt-greeboo,2.0,-1,Sport,5.9,1,50,37.2265,-122.1053
Deimos,"Phobos/Deimos Cliff > Tuolumne Meadows > Yosemite National Park > California",https://www.mountainproject.com/route/106876106/deimos,3.2,-1,Trad,5.9,3,250,37.84976,-119.44817
Potholes,"Back Wall > Stoney Point > Los Angeles Basin > California",https://www.mountainproject.com/route/106066936/potholes,2.8,-1,TR,5.9,1,50,34.27101,-118.60312
"Psycho Groove","Playhouse Rock > *Lost Horse Roadside Crags > Lost Horse Area > Joshua Tree National Park > California",https://www.mountainproject.com/route/105724636/psycho-groove,2.1,-1,Trad,5.9,1,110,34.02195,-116.17567
"The Owl","The Owl > Middle Earth > Fairview Mountain > Apple Valley Area > High Desert > California",https://www.mountainproject.com/route/108190081/the-owl,2.8,-1,Sport,5.9,1,75,34.56176,-117.1218
"God of Thunder (5.9 corner variation)","Dear John Buttress > Lover's Leap > Highway 50 Corridor > Lake Tahoe > California",https://www.mountainproject.com/route/105973623/god-of-thunder-59-corner-variation,2.5,-1,Trad,5.9,1,40,38.79911,-120.137
"Bread Line","Area 13 - Center > Area 13 > Clark Canyon > Mammoth Lakes Area > Sierra Eastside > California",https://www.mountainproject.com/route/105882058/bread-line,2.7,-1,Sport,5.9,1,70,37.78867,-118.91166
"Paul's Paradise","Paul's Backyard > Paul's Paradise > Alabama Hills North > Alabama Hills > Lone Pine Area > Sierra Eastside > California",https://www.mountainproject.com/route/105881086/pauls-paradise,2.8,-1,Sport,5.9,1,,36.60417,-118.125
Hedgehog,"Sunshine Wall > Horseshoe Lake Area > Mammoth Lakes Area > Sierra Eastside > California",https://www.mountainproject.com/route/108331586/hedgehog,3.0,-1,Sport,5.9,1,100,37.6058,-119.0235
"Black Panther","[Redacted] > Central Gorge > Owens River Gorge > Bishop Area > Sierra Eastside > California",https://www.mountainproject.com/route/118034917/black-panther,3.2,-1,Sport,5.9,1,100,37.51235,-118.57119
"For Whom the Poodle Tolls","Hemingway Buttress (East Face Right) > Hemingway Buttress > *Lost Horse Roadside Crags > Lost Horse Area > Joshua Tree National Park > California",https://www.mountainproject.com/route/105723490/for-whom-the-poodle-tolls,2.3,-1,Trad,5.9,1,90,34.02459,-116.17916
"Plague of Flies","Exploding Energy Boulder > Promontory > Northwest California > California",https://www.mountainproject.com/route/109969736/plague-of-flies,3.7,-1,Sport,5.9,1,60,41.60628,-124.10492
"The Good, the Bad, and the Ugly","Crag Full of Dynamite > Santa Barbara > Central Coast > California",https://www.mountainproject.com/route/105816707/the-good-the-bad-and-the-ugly,2.9,-1,Sport,5.9,1,70,34.4786,-119.6029
"American Express","Bullet Hole Wall > Moby Dick Area > Santee Boulders > South San Diego County > San Diego County > California",https://www.mountainproject.com/route/105930596/american-express,2.7,-1,TR,5.9,1,15,32.85081,-117.02107
"John's Crack","Left Side of the Road > The Cave Area > Mount Woodson > North San Diego County > San Diego County > California",https://www.mountainproject.com/route/105829402/johns-crack,2.1,-1,"Trad, TR",5.9,1,18,33.00766,-116.96946
"A Bull with Gas","Siberia > Outer Mongolia > The Middle Kingdom > Wonderland North > Wonderland of Rocks > Joshua Tree National Park > California",https://www.mountainproject.com/route/106044947/a-bull-with-gas,2.3,-1,Sport,5.9,1,100,34.06957,-116.16993
Fandango,"East Wall > Main Formation > Lover's Leap > Highway 50 Corridor > Lake Tahoe > California",https://www.mountainproject.com/route/106490102/fandango,3.1,-1,Trad,5.9,2,350,38.80261,-120.13204
Macallan,"Highlands Wall > Crystal Crag > Lake George > Mammoth Lakes Area > Sierra Eastside > California",https://www.mountainproject.com/route/105984671/macallan,2.8,-1,"Sport, Alpine",5.9,1,100,37.5925,-119.0138
"Standard Route","Karen Rock > Moonstone Beach > Northwest California > California",https://www.mountainproject.com/route/105882248/standard-route,2.8,-1,TR,5.9,1,60,41.03019,-124.11231
Apostrophe,"Limbo Area > Mission Gorge > South San Diego County > San Diego County > California",https://www.mountainproject.com/route/105794225/apostrophe,2.8,-1,"Trad, TR",5.9,1,45,32.8255,-117.051
"Kibbles and Bits","Lower Flumes Formation > Flumes Formation > West Side > Pinnacles National Park > Central Coast > California",https://www.mountainproject.com/route/106985679/kibbles-and-bits,2.3,-1,Sport,5.9,1,70,36.49795,-121.2038
PG13,"Warning Signs > Lower Gorge > Owens River Gorge > Bishop Area > Sierra Eastside > California",https://www.mountainproject.com/route/105947447/pg13,2.4,-1,Sport,5.9,1,75,37.50873,-118.56781
"Jump for Joy","5. Manure Pile Buttress (aka Ranger Rock) > C. El Cap Picnic Area (Eagle Creek) > Valley North Side > Yosemite Valley > Yosemite National Park > California",https://www.mountainproject.com/route/105866381/jump-for-joy,2.3,-1,"Trad, TR","5.9 R",1,70,37.73059,-119.619
"Pinkpoint Panther","Supreme Wizard Formation > Inner Gorge > Owens River Gorge > Bishop Area > Sierra Eastside > California",https://www.mountainproject.com/route/118154572/pinkpoint-panther,3.3,-1,Sport,5.9,1,120,37.52246,-118.57309
"Thin Man","Shadow Rock > Bishop Peak > San Luis Obispo > Central Coast > California",https://www.mountainproject.com/route/105737426/thin-man,3.2,-1,Sport,"5.9 R",1,150,35.3037,-120.69618
"Tangerine Trip","3. Southeast Face > B. El Capitan > Valley North Side > Yosemite Valley > Yosemite National Park > California",https://www.mountainproject.com/route/106096762/tangerine-trip,3.0,-1,Aid,"5.9 C3+",18,2500,37.72954,-119.63438
"Welcome to Courtright","West Face > Power Dome > Courtright Reservoir > Hwy 168:Tollhouse, Shaver Lake, Courtright > Southern-Western Sierra > California",https://www.mountainproject.com/route/107737771/welcome-to-courtright,3.8,-1,"Trad, Alpine",5.9,5,700,37.07266,-118.96683
Overhanger,"VD (Very Direct) Wall > South Area > Devil's Punchbowl > Antelope Valley Area > High Desert > California",https://www.mountainproject.com/route/106407336/overhanger,3.3,-1,Sport,5.9,1,90,34.412,-117.8573
"Road to Cala Gonone","Gorgeous Towers > Upper Gorge > Owens River Gorge > Bishop Area > Sierra Eastside > California",https://www.mountainproject.com/route/108094463/road-to-cala-gonone,2.4,-1,Sport,5.9,1,90,37.52313,-118.57433
Rat-A-Puss,"Platypus > Castle Rock Area > South Bay Area > San Francisco Bay Area > California",https://www.mountainproject.com/route/106686058/rat-a-puss,2.3,-1,Sport,5.9,1,35,37.22678,-122.10071
"Get Right or Get Left (aka Addams Family)","Dairy Queen Wall - Left Side > Dairy Queen Wall > *Lost Horse Roadside Crags > Lost Horse Area > Joshua Tree National Park > California",https://www.mountainproject.com/route/105725650/get-right-or-get-left-aka-addams-family,2.6,-1,Trad,5.9,1,100,34.02158,-116.17704
"Pork Chop","Boy Scout Wall > Bowman Valley > Bowman/Emeralds > I-80 Corridor > Lake Tahoe > California",https://www.mountainproject.com/route/108368342/pork-chop,3.0,-1,Sport,5.9,1,70,39.44587,-120.65838
"Southwest Face","F. Liberty Cap > Valley South Side > Yosemite Valley > Yosemite National Park > California",https://www.mountainproject.com/route/106077489/southwest-face,3.1,-1,Aid,"5.9 C2+",11,1200,37.7275,-119.53364
"Nice Marmot","Little Lebowski Urban Achievers Crag > The Playground > Santa Barbara > Central Coast > California",https://www.mountainproject.com/route/105801113/nice-marmot,2.3,-1,"Sport, TR",5.9,1,50,34.4965,-119.85233
"Senior Prom","3. Upper - Right > School Rock > Donner Summit > I-80 Corridor > Lake Tahoe > California",https://www.mountainproject.com/route/106495468/senior-prom,3.2,-1,"Trad, TR",5.9,1,,39.31977,-120.32243
"Tall People Reach Short People Climb","2nd Tier > The Tiers > Cloudburst Canyon > Woodfords Canyon > Carson Pass Highway (88) > Lake Tahoe > California",https://www.mountainproject.com/route/108213257/tall-people-reach-short-people-climb,2.6,-1,Trad,5.9,1,80,38.7618,-119.86175
"Banana Split","The Tall Wall > Western Wall Area > Alabama Hills North > Alabama Hills > Lone Pine Area > Sierra Eastside > California",https://www.mountainproject.com/route/106121561/banana-split,2.3,-1,Trad,5.9,1,,36.6071,-118.1328
"South Face","The Warlock > The Needles > Southern Sierra - The Needles, Kern River, Domelands, etc. > Southern-Western Sierra > California",https://www.mountainproject.com/route/106235958/south-face,3.4,-1,Trad,"5.9 PG13",8,800,36.10666,-118.47894
Spitwad,"Rock Garden Valley - Left Side > Rock Garden Valley > Lost Horse Area > Joshua Tree National Park > California",https://www.mountainproject.com/route/105844716/spitwad,2.5,-1,Trad,5.9,1,80,34.0215,-116.1777
"Short Cake","East Face > Grouse Slab > Donner Summit > I-80 Corridor > Lake Tahoe > California",https://www.mountainproject.com/route/105736432/short-cake,2.9,-1,"Trad, Sport",5.9,1,150,39.32288,-120.31851
"Bourbon Street","Katrina Wall > Voodoo Garden > Pinnacles North > Holcomb Valley Pinnacles > Big Bear City Area > Big Bear North > Big Bear Lake Area > San Bernardino Mountains > California",https://www.mountainproject.com/route/106470123/bourbon-street,2.8,-1,Sport,5.9,1,60,34.314,-116.87958
"La Reina","Feudal Wall (Left Side) > Feudal Wall > Indian Cove CG East > Indian Cove Campground > Indian Cove > Joshua Tree National Park > California",https://www.mountainproject.com/route/105722452/la-reina,2.4,-1,Trad,5.9,1,30,34.09302,-116.15404
"Silence of the Poodles","Cracked Towers > Upper Gorge > Owens River Gorge > Bishop Area > Sierra Eastside > California",https://www.mountainproject.com/route/105843529/silence-of-the-poodles,3.0,-1,"Trad, Sport",5.9,1,50,37.52785,-118.57454
"Route 4","Corpse Wall > Saddle Peak > Santa Monica Mountains > Los Angeles Basin > California",https://www.mountainproject.com/route/107103525/route-4,2.3,-1,Sport,5.9,1,60,34.07931,-118.65874
"Jugs Revisited","Upper Spire > Phantom Spires > Highway 50 Corridor > Lake Tahoe > California",https://www.mountainproject.com/route/105862238/jugs-revisited,3.0,-1,Trad,5.9,2,,38.78867,-120.24518
Sweetie,"(g) Slander Sector > Riverside Quarry > Riverside Area > Inland Empire > California",https://www.mountainproject.com/route/108591000/sweetie,2.4,-1,Sport,5.9,1,70,34.0169,-117.4166
Unnamed,"Aq.  Knob Hill > Lower Merced River Canyon > Yosemite Valley > Yosemite National Park > California",https://www.mountainproject.com/route/106155792/unnamed,2.2,-1,"Trad, TR",5.9,1,50,37.72796,-119.71201
"April Fools","West Wall > Main Formation > Lover's Leap > Highway 50 Corridor > Lake Tahoe > California",https://www.mountainproject.com/route/105875719/april-fools,3.2,-1,Trad,5.9,1,,38.7991,-120.1361
"Witch of the West","West Face > DAFF Dome > DAFF Area > Tuolumne Meadows > Yosemite National Park > California",https://www.mountainproject.com/route/105990876/witch-of-the-west,2.1,-1,Sport,5.9,1,80,37.8795,-119.41345
Infra-Red,"Light Deprivation Buttress > Big Chief Area > Truckee River Canyon > Lake Tahoe > California",https://www.mountainproject.com/route/109010648/infra-red,2.6,-1,Sport,5.9,1,65,39.24013,-120.19339
"2 Hour 2 Tecate Challenge","Cracked Wall > Bishop Peak > San Luis Obispo > Central Coast > California",https://www.mountainproject.com/route/107034500/2-hour-2-tecate-challenge,2.9,-1,Trad,5.9,9,800,35.30227,-120.69427
"Trash Compactor","Inner Sanctum > Tatooine > Fairview Mountain > Apple Valley Area > High Desert > California",https://www.mountainproject.com/route/116382233/trash-compactor,3.6,-1,Trad,5.9,1,55,34.56338,-117.12068
"Go Left Old Man","PSOM Slab > Scheelite Crags / PSOM Slab > Pine Creek Canyon > Bishop Area > Sierra Eastside > California",https://www.mountainproject.com/route/108528338/go-left-old-man,2.3,-1,Sport,5.9,1,40,37.38788,-118.6742
"The Fang-Left Side","East Face > Sugarloaf > Sugarloaf Area > Highway 50 Corridor > Lake Tahoe > California",https://www.mountainproject.com/route/105914673/the-fang-left-side,2.4,-1,Trad,5.9,1,,38.77622,-120.30784
"Green Book","Lowenbrau Pinnacle > McCain Valley > South San Diego County > San Diego County > California",https://www.mountainproject.com/route/106198998/green-book,3.1,-1,Trad,5.9,1,30,32.75225,-116.28029
Supercalibelgolistic,"Stone Wall > Pinnacles North > Holcomb Valley Pinnacles > Big Bear City Area > Big Bear North > Big Bear Lake Area > San Bernardino Mountains > California",https://www.mountainproject.com/route/109467208/supercalibelgolistic,2.7,-1,Sport,5.9,1,85,34.31131,-116.87943
"Alice in Wonderjam","Alice Rock > Comic Book Area > Central Joshua Tree > Joshua Tree National Park > California",https://www.mountainproject.com/route/105721996/alice-in-wonderjam,2.8,-1,Trad,5.9,1,50,34.01244,-116.14202
Kola,"Kola Spire > The Far Side > Mount St. Helena > Wine Country/Northeast Bay > San Francisco Bay Area > California",https://www.mountainproject.com/route/105735548/kola,2.9,-1,Sport,5.9,1,50,38.65153,-122.61885
"Eye Of The Tiger","Tiger Cage > Courtright Reservoir > Hwy 168:Tollhouse, Shaver Lake, Courtright > Southern-Western Sierra > California",https://www.mountainproject.com/route/113293351/eye-of-the-tiger,3.1,-1,"Trad, TR, Alpine",5.9,1,,37.07354,-118.97155
Tissiack,"Half Dome Boulder > Joe Brown and Half Dome Area > Mount Rubidoux > Riverside Area > Inland Empire > California",https://www.mountainproject.com/route/106121624/tissiack,2.8,-1,"TR, Boulder","5.9 V0 PG13",1,25,33.98281,-117.39353
"The Cookie-Right","The Cookie Cliff > Aj. Cookie Area > Lower Merced River Canyon > Yosemite Valley > Yosemite National Park > California",https://www.mountainproject.com/route/105874680/the-cookie-right,2.7,-1,Trad,5.9,2,170,37.71772,-119.71881
StrikeSlip,"Three Hour Buttress > Pine Creek Canyon > Bishop Area > Sierra Eastside > California",https://www.mountainproject.com/route/107136457/strikeslip,2.7,-1,"Trad, Sport",5.9,4,320,37.3759,-118.681
"Rebecca's Sailing","Lower Flumes Formation > Flumes Formation > West Side > Pinnacles National Park > Central Coast > California",https://www.mountainproject.com/route/106985698/rebeccas-sailing,2.8,-1,Sport,5.9,1,80,36.49795,-121.2038
"Chouinard's Crack","Upper Tier > Boy Scout Rocks > Mount Diablo State Park > East Bay Area > San Francisco Bay Area > California",https://www.mountainproject.com/route/105734741/chouinards-crack,2.0,-1,"Trad, TR",5.9,1,50,37.8467,-121.92671
"Slant Crack","Tower Two Area > Mount Woodson > North San Diego County > San Diego County > California",https://www.mountainproject.com/route/105802883/slant-crack,2.3,-1,"Trad, Boulder","5.9 V0",1,10,33.0053,-116.96449
"Game Boy","The Grotto > Echo Cliffs > Santa Monica Mountains > Los Angeles Basin > California",https://www.mountainproject.com/route/105825738/game-boy,1.9,-1,Sport,5.9,1,40,34.1254,-118.92762
"Lesbian Lust","Zsa Zsa Gabor Memorial Boulder > North Hollywood > Hollywood Area > OZ Area > Pinto Basin > Joshua Tree National Park > California",https://www.mountainproject.com/route/105725866/lesbian-lust,3.2,-1,Sport,5.9,1,40,34.03514,-116.05199
"South Face","N. Mount Watkins > Valley North Side > Yosemite Valley > Yosemite National Park > California",https://www.mountainproject.com/route/110179339/south-face,3.8,-1,"Trad, Aid","5.9 C2+ PG13",18,2200,37.78289,-119.51727
"90's Chick","Middle Tier (Right Side) > Middle Tier > (c) Frustration Creek > Highway 38 Crags > San Bernardino Mountains > California",https://www.mountainproject.com/route/108343667/90s-chick,3.2,-1,Sport,5.9,1,80,34.10247,-116.96456
"Head Wound","Easy Street > Echo Cliffs > Santa Monica Mountains > Los Angeles Basin > California",https://www.mountainproject.com/route/106056603/head-wound,2.3,-1,Sport,5.9,2,180,34.12531,-118.92429
"The Shroud","Main Slab - Lower > Main Slab > Big Rock Area > Perris Area > Inland Empire > California",https://www.mountainproject.com/route/115414882/the-shroud,3.2,-1,Trad,5.9,1,95,33.83793,-117.17307
"Potholes Crack","Back Wall > Stoney Point > Los Angeles Basin > California",https://www.mountainproject.com/route/106093523/potholes-crack,2.6,-1,"Trad, TR",5.9,1,35,34.27101,-118.60312
"Friendly Faces Everywhere","Armando's Stilletto / Rites of Spring > Scheelite Canyon / Pratt's Crack Gully > Pine Creek Canyon > Bishop Area > Sierra Eastside > California",https://www.mountainproject.com/route/105909009/friendly-faces-everywhere,2.6,-1,Trad,5.9,1,90,37.38403,-118.67725
"Migrating Coconuts (aka Zyzzxx)","Potrero John > Hwy 33/Ojai > Central Coast > California",https://www.mountainproject.com/route/105806727/migrating-coconuts-aka-zyzzxx,2.4,-1,Sport,5.9,1,,34.5825,-119.26159
"Planet Y","Planet X Pinnacle > Planet X Area > Sheep Pass Area > Central Joshua Tree > Joshua Tree National Park > California",https://www.mountainproject.com/route/105725239/planet-y,2.1,-1,Trad,5.9,1,40,33.99607,-116.15558
"Flawless Fissure","Lloyd's Rock > Lost Horse Area > Joshua Tree National Park > California",https://www.mountainproject.com/route/105722950/flawless-fissure,2.6,-1,Trad,5.9,1,50,34.01748,-116.17877
Felsic,"Dozier Dome > Tuolumne Meadows > Yosemite National Park > California",https://www.mountainproject.com/route/107764132/felsic,3.1,-1,Sport,5.9,1,160,37.84942,-119.43165
"Enchanted Stairway","Disneyland Dome > Central Wonderland > Wonderland South > Wonderland of Rocks > Joshua Tree National Park > California",https://www.mountainproject.com/route/105724948/enchanted-stairway,2.9,-1,Trad,"5.9 R",1,150,34.0462,-116.1445
"X- Wing","Murphy Creek > Murphy Creek Area > Tuolumne Meadows > Yosemite National Park > California",https://www.mountainproject.com/route/107244438/x-wing,2.3,-1,Trad,5.9,1,60,37.85203,-119.46983
"Trevor's Crack","East End > The Corridors > Cattle Pocket and Corridors Area > Alabama Hills North > Alabama Hills > Lone Pine Area > Sierra Eastside > California",https://www.mountainproject.com/route/106808666/trevors-crack,2.5,-1,Trad,5.9,1,,36.60538,-118.12774
Elmo,"Muppets Wall > Lower Gorge > Owens River Gorge > Bishop Area > Sierra Eastside > California",https://www.mountainproject.com/route/112416925/elmo,2.8,-1,Sport,5.9,1,85,37.48991,-118.56666
"East Side Daze","Al's Garage > Mammoth Lakes Area > Sierra Eastside > California",https://www.mountainproject.com/route/105983769/east-side-daze,2.8,-1,Sport,5.9,1,90,37.77473,-118.92509
Roseanne,"West Face > Fairview Dome > Tuolumne Meadows > Yosemite National Park > California",https://www.mountainproject.com/route/106025380/roseanne,3.6,-1,Trad,"5.9 R",4,600,37.87012,-119.40627
Desire,"Southwest Face > Grouse Slab > Donner Summit > I-80 Corridor > Lake Tahoe > California",https://www.mountainproject.com/route/105736381/desire,2.0,-1,Sport,5.9,1,40,39.32231,-120.31924
"Keeps Me Out of Rusty's (KMOOR)","Diamond Face > Lower Gorge > Owens River Gorge > Bishop Area > Sierra Eastside > California",https://www.mountainproject.com/route/112529488/keeps-me-out-of-rustys-kmoor,2.8,-1,Sport,5.9,2,115,37.50342,-118.56721
"Flex Your Bazooka","Health Club > Central Gorge > Owens River Gorge > Bishop Area > Sierra Eastside > California",https://www.mountainproject.com/route/105897645/flex-your-bazooka,2.8,-1,Sport,5.9,1,100,37.5137,-118.5702
Inconceivable,"Cliffs of Insanity > Box Canyon West > New Jack City > Barstow Area > High Desert > California",https://www.mountainproject.com/route/111679054/inconceivable,2.8,-1,Sport,5.9,2,120,34.6638,-116.97777
"Face Down In The Muck","Little Lebowski Urban Achievers Crag > The Playground > Santa Barbara > Central Coast > California",https://www.mountainproject.com/route/105800750/face-down-in-the-muck,2.2,-1,"Sport, TR",5.9,1,40,34.4965,-119.85233
"Bits and Pieces","Lower Flumes Formation > Flumes Formation > West Side > Pinnacles National Park > Central Coast > California",https://www.mountainproject.com/route/105735461/bits-and-pieces,2.2,-1,Sport,5.9,1,70,36.49795,-121.2038
"Tiger Tiers","Tiger Cage > Courtright Reservoir > Hwy 168:Tollhouse, Shaver Lake, Courtright > Southern-Western Sierra > California",https://www.mountainproject.com/route/108035457/tiger-tiers,2.7,-1,"Trad, Sport, TR, Alpine",5.9,1,40,37.07354,-118.97155
"The Jungle (aka Apocalypse Now)","Conrad Rock - Heart of Darkness Corridor > Conrad Rock > Oyster Bar Area > Sheep Pass Area > Central Joshua Tree > Joshua Tree National Park > California",https://www.mountainproject.com/route/106173514/the-jungle-aka-apocalypse-now,2.1,-1,Trad,5.9,1,40,33.98946,-116.14351
"Peanut Brittle","The Alcove > Main Island > Clark Canyon > Mammoth Lakes Area > Sierra Eastside > California",https://www.mountainproject.com/route/105913221/peanut-brittle,2.5,-1,Sport,5.9,1,85,37.78916,-118.91371
"Tyrannosaurus Debt","(o) Schoolhouse Rock > Riverside Quarry > Riverside Area > Inland Empire > California",https://www.mountainproject.com/route/106440086/tyrannosaurus-debt,2.0,-1,Sport,5.9,1,50,34.0169,-117.4166
"The Gift","GOT > Pine Creek Canyon > Bishop Area > Sierra Eastside > California",https://www.mountainproject.com/route/108874979/the-gift,2.9,-1,Sport,5.9,1,90,37.37163,-118.68405
"Best Laid Plans","Ghetto Wall > Malibu Creek State Park > Santa Monica Mountains > Los Angeles Basin > California",https://www.mountainproject.com/route/107744841/best-laid-plans,2.0,-1,Sport,5.9,1,50,34.09524,-118.73109
"The Bee's Knees","Isles in the Sky (Northeast Face) > Isles in the Sky > Split Rocks West > Split Rocks > Pinto Basin > Joshua Tree National Park > California",https://www.mountainproject.com/route/105723532/the-bees-knees,2.0,-1,Sport,5.9,1,60,34.0047,-116.05874
"Joke Book","Attitude Wall > North Area > Devil's Punchbowl > Antelope Valley Area > High Desert > California",https://www.mountainproject.com/route/106675041/joke-book,2.8,-1,Sport,5.9,1,60,34.41832,-117.857
"The Enigma","The Cookie Cliff > Aj. Cookie Area > Lower Merced River Canyon > Yosemite Valley > Yosemite National Park > California",https://www.mountainproject.com/route/106452787/the-enigma,2.6,-1,Trad,5.9,4,300,37.71772,-119.71881
"Hair Dresser","Underworld Rock > Castle Rock Area > South Bay Area > San Francisco Bay Area > California",https://www.mountainproject.com/route/105735374/hair-dresser,2.1,-1,"Trad, Sport, TR",5.9,1,80,37.2257,-122.0984
"Senior Daredevil","East End > The Corridors > Cattle Pocket and Corridors Area > Alabama Hills North > Alabama Hills > Lone Pine Area > Sierra Eastside > California",https://www.mountainproject.com/route/106808660/senior-daredevil,2.2,-1,Sport,5.9,1,,36.60538,-118.12774
"Hillary Step","Everest Boulder > Mt. Woodson South > North San Diego County > San Diego County > California",https://www.mountainproject.com/route/109880146/hillary-step,3.2,-1,"Trad, TR",5.9,1,70,32.99669,-116.96206
"Mare's Tail","Lost Horse Wall - Right Side > Lost Horse Wall > Lost Horse Area > Joshua Tree National Park > California",https://www.mountainproject.com/route/105722404/mares-tail,2.7,-1,Trad,5.9,3,300,34.02166,-116.1788
Unknown,"2nd Tier > The Tiers > Cloudburst Canyon > Woodfords Canyon > Carson Pass Highway (88) > Lake Tahoe > California",https://www.mountainproject.com/route/108993644/unknown,2.3,-1,Trad,5.9,1,80,38.7618,-119.86175
"Hello Kitty","The Cathouse - Middle > The Cathouse > *Lost Horse Roadside Crags > Lost Horse Area > Joshua Tree National Park > California",https://www.mountainproject.com/route/105945855/hello-kitty,2.3,-1,Trad,5.9,1,50,34.02032,-116.1755
"Hang A Louie","Faulty Tower > Central Gorge > Owens River Gorge > Bishop Area > Sierra Eastside > California",https://www.mountainproject.com/route/108456872/hang-a-louie,2.4,-1,Sport,5.9,1,115,37.51367,-118.57129
"Entrance Exam","Ad. Arch Rock > Lower Merced River Canyon > Yosemite Valley > Yosemite National Park > California",https://www.mountainproject.com/route/106112719/entrance-exam,3.1,-1,Trad,5.9,3,200,37.6893,-119.7334
"Bat Roof","Main Area > Bucks Bar Dome > Cosumnes River Gorge > Placerville > Highway 50 Corridor > Lake Tahoe > California",https://www.mountainproject.com/route/106596707/bat-roof,2.6,-1,"Trad, TR",5.9,1,30,38.64891,-120.70634
"Friend Eater","Lloyd's Rock > Lost Horse Area > Joshua Tree National Park > California",https://www.mountainproject.com/route/105722953/friend-eater,2.4,-1,Trad,5.9,1,50,34.01748,-116.17877
Boogaloo,"Main Slab - Lower > Main Slab > Big Rock Area > Perris Area > Inland Empire > California",https://www.mountainproject.com/route/105801197/boogaloo,2.1,-1,Trad,5.9,1,95,33.83793,-117.17307
"Grand Central Station Crack","Grand Central Station > Mount Woodson > North San Diego County > San Diego County > California",https://www.mountainproject.com/route/106760704/grand-central-station-crack,2.9,-1,"Trad, TR",5.9,1,17,33.00475,-116.96798
"Alvin's Route","2. Gully - Left Side > North Face > Snowshed Wall > Donner Summit > I-80 Corridor > Lake Tahoe > California",https://www.mountainproject.com/route/105947672/alvins-route,2.7,-1,Trad,5.9,1,65,39.31615,-120.31908
"South Seas","3. Southeast Face > B. El Capitan > Valley North Side > Yosemite Valley > Yosemite National Park > California",https://www.mountainproject.com/route/112196417/south-seas,4.0,-1,"Trad, Aid","5.9 A3+",23,2500,37.72954,-119.63438
"What a Woman","Wilbur's Tombstone > Central Pinnacles > Holcomb Valley Pinnacles > Big Bear City Area > Big Bear North > Big Bear Lake Area > San Bernardino Mountains > California",https://www.mountainproject.com/route/105954222/what-a-woman,2.3,-1,Sport,5.9,1,60,34.3094,-116.8787
"The Regular Route (Castle Rock Spire)","Castle Rock Spire > Castle Rocks > Sequoia & Kings Canyon NP > California",https://www.mountainproject.com/route/106501642/the-regular-route-castle-rock-spire,3.9,-1,"Trad, Aid, Alpine","5.9 A2",8,1000,36.50861,-118.71848
"Iceberg II","Lower Elbow Room > Upper Gorge > Owens River Gorge > Bishop Area > Sierra Eastside > California",https://www.mountainproject.com/route/106764768/iceberg-ii,1.8,-1,Sport,5.9,1,,37.52328,-118.57385
Unknown,"Grand Central Station > Mount Woodson > North San Diego County > San Diego County > California",https://www.mountainproject.com/route/106760695/unknown,2.7,-1,"Trad, TR",5.9,1,15,33.00475,-116.96798
Ruination,"Stone Wall > Pinnacles North > Holcomb Valley Pinnacles > Big Bear City Area > Big Bear North > Big Bear Lake Area > San Bernardino Mountains > California",https://www.mountainproject.com/route/109520526/ruination,2.4,-1,Sport,5.9,1,85,34.31131,-116.87943
"The Pincher","Ben Dover Face > Echo Cove > Echo Rock Area > Central Joshua Tree > Joshua Tree National Park > California",https://www.mountainproject.com/route/106544607/the-pincher,2.0,-1,Sport,5.9,1,30,34.02545,-116.15859
Overexposure,"Gong Show Wall > Rock Creek > Mammoth Lakes Area > Sierra Eastside > California",https://www.mountainproject.com/route/106838048/overexposure,2.5,-1,Trad,5.9,2,300,37.5096,-118.7179
Calfsmoke,"Fictitioua Tree Rock > Fictitioua Tree > Angeles National Forest > Los Angeles Basin > California",https://www.mountainproject.com/route/112938394/calfsmoke,3.1,-1,"Trad, TR",5.9,1,40,34.34024,-117.98041
"Pennies On The Patio","West Face > Moro Rock (SEKI) > Sequoia & Kings Canyon NP > California",https://www.mountainproject.com/route/106056853/pennies-on-the-patio,3.0,-1,"Trad, TR",5.9,1,100,36.54275,-118.76663
"Santa Cruz","Saddle Rocks - Skirt  (West Face) > (a) Saddle Rocks - Skirt > Saddle Rocks > Saddle Rocks Area > Sheep Pass Area > Central Joshua Tree > Joshua Tree National Park > California",https://www.mountainproject.com/route/105725194/santa-cruz,2.5,-1,Trad,5.9,1,100,33.99446,-116.14002
"Lost and Found","Lost and Found Crag (West Face) > Lost and Found Crag > Pinnacles West > Holcomb Valley Pinnacles > Big Bear City Area > Big Bear North > Big Bear Lake Area > San Bernardino Mountains > California",https://www.mountainproject.com/route/119265250/lost-and-found,3.5,-1,Trad,5.9,1,50,34.31253,-116.88631
"Doesn't Suck","45 Wall > Lover's Leap (Limestone) > Northwest California > California",https://www.mountainproject.com/route/110093529/doesnt-suck,3.1,-1,Sport,5.9,1,70,41.3629,-122.6921
"The Roof","Main Slab - Lower > Main Slab > Big Rock Area > Perris Area > Inland Empire > California",https://www.mountainproject.com/route/105964619/the-roof,2.6,-1,Trad,5.9,1,100,33.83793,-117.17307
"Partially Newt","Kombucha Crag > Vent 5 > Mickey's Beach > Marin/Northwest Bay Area > San Francisco Bay Area > California",https://www.mountainproject.com/route/121440355/partially-newt,2.5,-1,Sport,5.9,1,50,37.87718,-122.61805
"A Farewell to Poodles","Hemingway Buttress (East Face Right) > Hemingway Buttress > *Lost Horse Roadside Crags > Lost Horse Area > Joshua Tree National Park > California",https://www.mountainproject.com/route/105725581/a-farewell-to-poodles,2.1,-1,Trad,5.9,1,60,34.02459,-116.17916
"Tri-tip Split Roast","Split Rock > Sugarloaf Area > Highway 50 Corridor > Lake Tahoe > California",https://www.mountainproject.com/route/108444950/tri-tip-split-roast,2.9,-1,Sport,5.9,1,150,38.77567,-120.30876
"Lost and Found","The Green Tongue Area > Cloudburst Canyon > Woodfords Canyon > Carson Pass Highway (88) > Lake Tahoe > California",https://www.mountainproject.com/route/109349215/lost-and-found,3.0,-1,Trad,5.9,1,60,38.7607,-119.86163
Goldmember,"West Face, Center > Medlicott Dome > Tuolumne Meadows > Yosemite National Park > California",https://www.mountainproject.com/route/106007882/goldmember,3.0,-1,Trad,5.9,1,150,37.85919,-119.42859
"Surfin' Safari","Locals Only Rock > Benton Crags > Eastern Hills > Sierra Eastside > California",https://www.mountainproject.com/route/107289630/surfin-safari,3.1,-1,Trad,5.9,1,110,37.73217,-118.56843
"Betty Ford's Route","Detox Wall > Luther Rock > South Shore > Lake Tahoe > California",https://www.mountainproject.com/route/106817409/betty-fords-route,2.5,-1,Sport,5.9,1,95,38.80482,-120.00376
"Triple Overhang","Goat Rock > Castle Rock Area > South Bay Area > San Francisco Bay Area > California",https://www.mountainproject.com/route/105734690/triple-overhang,2.5,-1,TR,5.9,1,50,37.2282,-122.1079
Jitters,"The Arena > Deep Creek Crags > Truckee River Canyon > Lake Tahoe > California",https://www.mountainproject.com/route/108174463/jitters,3.5,-1,Sport,5.9,1,70,39.25901,-120.23213
"Why Go Left","The Spire > Split Rock > Cold Springs > Northwest California > California",https://www.mountainproject.com/route/113532301/why-go-left,3.2,-1,Sport,5.9,1,45,40.8347,-123.71783
"Deep Throat","Mounds > Echo Rock Area > Central Joshua Tree > Joshua Tree National Park > California",https://www.mountainproject.com/route/105725374/deep-throat,2.9,-1,Trad,5.9,1,40,34.0258,-116.1522
"You Insolent Peasant","Hummingbird Wall > Third Buttress > Chipmunk Flat > Sonora Pass Highway (108) > California",https://www.mountainproject.com/route/114425702/you-insolent-peasant,3.6,-1,Trad,5.9,2,,38.32311,-119.67414
"Nothing, Honey","The Walnut > Western Wall Area > Alabama Hills North > Alabama Hills > Lone Pine Area > Sierra Eastside > California",https://www.mountainproject.com/route/105897754/nothing-honey,2.4,-1,Sport,5.9,1,60,36.6068,-118.1319
"All American Finger Crack","Emerald Point > Eagle Creek Canyon > West Shore > Lake Tahoe > California",https://www.mountainproject.com/route/108419563/all-american-finger-crack,3.8,-1,Trad,5.9,2,180,38.95473,-120.1228
"Bath Water","Beak Boulder Area > Loveland > Pinto Basin > Joshua Tree National Park > California",https://www.mountainproject.com/route/116794251/bath-water,3.4,-1,Sport,5.9,1,40,34.02597,-116.0511
"Gold Mind","Ellery Dam Spillway Crag > Lee Vining Canyon / Tioga Road > Sierra Eastside > California",https://www.mountainproject.com/route/108400834/gold-mind,3.0,-1,"Trad, TR",5.9,1,70,37.93656,-119.22827
Fred,"Bedrock Wall > The Land That Time Forgot > New Jack City > Barstow Area > High Desert > California",https://www.mountainproject.com/route/111683066/fred,2.5,-1,Sport,5.9,1,65,34.66667,-116.98513
"Truckin' Drive","West Face > Lembert Dome > Tuolumne Meadows > Yosemite National Park > California",https://www.mountainproject.com/route/105931714/truckin-drive,2.9,-1,Trad,"5.9 R",3,300,37.87812,-119.35278
"Vanadium Miner's Daughter","Gateway Slab > Scheelite Canyon / Pratt's Crack Gully > Pine Creek Canyon > Bishop Area > Sierra Eastside > California",https://www.mountainproject.com/route/116984953/vanadium-miners-daughter,2.6,-1,Sport,5.9,1,50,37.38349,-118.6758
"Regular Route","Elderberry Buttress > Scheelite Crags / PSOM Slab > Pine Creek Canyon > Bishop Area > Sierra Eastside > California",https://www.mountainproject.com/route/112793303/regular-route,3.7,-1,Trad,5.9,5,600,37.389,-118.6744
"Working Overtime","Labor Dome > The Outback > Hidden Valley Area > Joshua Tree National Park > California",https://www.mountainproject.com/route/105836743/working-overtime,1.8,-1,Trad,5.9,1,50,34.02111,-116.16682
"Sunrise Service","Heart Rock > New Directions > Southern Sierra - The Needles, Kern River, Domelands, etc. > Southern-Western Sierra > California",https://www.mountainproject.com/route/112835070/sunrise-service,3.5,-1,Sport,5.9,1,100,35.82193,-118.45733
"WMD's and Tinker Toys","Twin Towers > Cave Valley (aka Auburn Quarry) > Auburn SRA > Auburn and Grass Valley > I-80 Corridor > Lake Tahoe > California",https://www.mountainproject.com/route/108092920/wmds-and-tinker-toys,2.3,-1,Sport,5.9,1,40,38.91376,-121.01472
Amsterdam,"Apparition Rock (Rear) > Apparition Rock > Indian Cove CG West > Indian Cove Campground > Indian Cove > Joshua Tree National Park > California",https://www.mountainproject.com/route/108281593/amsterdam,2.4,-1,Sport,5.9,1,60,34.09215,-116.16403
Frank,"Upper Elbow Room > Upper Gorge > Owens River Gorge > Bishop Area > Sierra Eastside > California",https://www.mountainproject.com/route/106127646/frank,2.5,-1,Sport,5.9,1,80,37.52442,-118.57388
"Boogaloo Direct","Main Slab - Lower > Main Slab > Big Rock Area > Perris Area > Inland Empire > California",https://www.mountainproject.com/route/105964613/boogaloo-direct,2.6,-1,Trad,5.9,1,100,33.83793,-117.17307
"Regular Route","4. Lower Cathedral Spire > P. Cathedral Area > Valley South Side > Yosemite Valley > Yosemite National Park > California",https://www.mountainproject.com/route/105915825/regular-route,2.6,-1,Trad,5.9,5,600,37.7147,-119.63078
"Betty Does Brownsville","The First Corridor > Texas Canyon > Angeles National Forest > Los Angeles Basin > California",https://www.mountainproject.com/route/109522518/betty-does-brownsville,2.6,-1,Sport,5.9,1,88,34.51328,-118.40175
"Hippo Paradise","Indian Palisades Corridor > Indian Cove CG East > Indian Cove Campground > Indian Cove > Joshua Tree National Park > California",https://www.mountainproject.com/route/114030268/hippo-paradise,2.3,-1,Sport,5.9,1,40,34.09365,-116.15436
"Sand Trap","Sunday Matinee Wall > The Corridors > Cattle Pocket and Corridors Area > Alabama Hills North > Alabama Hills > Lone Pine Area > Sierra Eastside > California",https://www.mountainproject.com/route/106730350/sand-trap,2.1,-1,Sport,5.9,1,25,36.60506,-118.12842
Perhaps,"South Horror Rock > Hall of Horrors > Hall of Horrors Area > Sheep Pass Area > Central Joshua Tree > Joshua Tree National Park > California",https://www.mountainproject.com/route/105725269/perhaps,2.0,-1,Trad,5.9,1,70,33.99771,-116.14665
"It's All in the Genes","North Face > Dike Wall > Lake George > Mammoth Lakes Area > Sierra Eastside > California",https://www.mountainproject.com/route/108294011/its-all-in-the-genes,2.6,-1,"Trad, Alpine",5.9,1,45,37.59625,-119.0136
"Pot Belly (left variation)","Aq.  Knob Hill > Lower Merced River Canyon > Yosemite Valley > Yosemite National Park > California",https://www.mountainproject.com/route/110838386/pot-belly-left-variation,2.5,-1,Trad,5.9,1,60,37.72796,-119.71201
"Lechlinski Cracks","Lechlinski Crack Formation > Virgin Islands Area > Geology Tour Road > Queen Valley Area > Joshua Tree National Park > California",https://www.mountainproject.com/route/105722254/lechlinski-cracks,2.5,-1,Trad,5.9,1,80,33.94356,-116.07787
"West Buttress","2. Southwest Face > B. El Capitan > Valley North Side > Yosemite Valley > Yosemite National Park > California",https://www.mountainproject.com/route/121681353/west-buttress,4.0,-1,"Trad, Aid","5.9 A3",21,2100,37.73051,-119.63828
Greedo,"Greedo > Tatooine > Fairview Mountain > Apple Valley Area > High Desert > California",https://www.mountainproject.com/route/107022313/greedo,2.5,-1,Sport,5.9,1,35,34.56338,-117.12069
"Daddy's Little Devil","Pinch Me Wall > Land Of The Lost > Northwest California > California",https://www.mountainproject.com/route/110921660/daddys-little-devil,2.9,-1,Sport,5.9,1,50,40.85307,-123.71114
"Fire in the Hole","Guntower Wall > Meyers Area > South Shore > Lake Tahoe > California",https://www.mountainproject.com/route/113186107/fire-in-the-hole,2.5,-1,Sport,5.9,1,90,38.84407,-120.04437
"Spooky Spike","(u) Northeast Buttress > Suicide Rock > Tahquitz & Suicide Rocks > California",https://www.mountainproject.com/route/105790394/spooky-spike,2.5,-1,Trad,5.9,2,200,33.77158,-116.69558
NutUp,"Snow Pile Area > McCain Valley > South San Diego County > San Diego County > California",https://www.mountainproject.com/route/122026819/nutup,4.0,-1,Trad,5.9,1,40,32.75011,-116.27048
"Quiet Desperation","Stately Pleasure Dome > Tuolumne Meadows > Yosemite National Park > California",https://www.mountainproject.com/route/114652050/quiet-desperation,3.6,-1,"Trad, Alpine","5.9 R",7,600,37.83546,-119.4577
"Quoia the Destroya","4 - Second Alcove > The Fortress > Woodfords Canyon > Carson Pass Highway (88) > Lake Tahoe > California",https://www.mountainproject.com/route/106608214/quoia-the-destroya,3.0,-1,Trad,5.9,1,80,38.76946,-119.85281
"Orange Sunshine","Eagle Lake Buttress > Eagle Creek Canyon > West Shore > Lake Tahoe > California",https://www.mountainproject.com/route/105875958/orange-sunshine,3.2,-1,"Trad, Alpine",5.9,2,260,38.94693,-120.13266
"Exilis Dihedral","Derrydale Cliff > Hwy 33/Ojai > Central Coast > California",https://www.mountainproject.com/route/106230909/exilis-dihedral,3.2,-1,"Trad, Sport",5.9,1,75,34.58618,-119.27428
Facial,"Jugs Over the Sand > Spy Mountain Area > Landers Area > High Desert > California",https://www.mountainproject.com/route/120237027/facial,3.7,-1,Sport,5.9,1,50,34.32158,-116.39314
"Crack Attack","Bald Mountain > Shaver Lake Area > Hwy 168:Tollhouse, Shaver Lake, Courtright > Southern-Western Sierra > California",https://www.mountainproject.com/route/121811868/crack-attack,4.0,-1,Trad,5.9,1,140,37.10208,-119.20777
"Crown Jewels","Feudal Wall (Left Side) > Feudal Wall > Indian Cove CG East > Indian Cove Campground > Indian Cove > Joshua Tree National Park > California",https://www.mountainproject.com/route/105721738/crown-jewels,2.2,-1,Trad,5.9,2,100,34.09302,-116.15404
"Three Feathers","Melting Wall > Lost Eagle > Shuteye Ridge > Hwy 41: Fresno Dome, Shuteye Ridge > Southern-Western Sierra > California",https://www.mountainproject.com/route/117377012/three-feathers,4.0,-1,Trad,"5.9 PG13",1,90,37.41366,-119.44848
"Alternate Ending","Big Tower > Lower Gorge > Owens River Gorge > Bishop Area > Sierra Eastside > California",https://www.mountainproject.com/route/111665637/alternate-ending,3.0,-1,Sport,5.9,1,60,37.502,-118.56771
"Paul's Hole (aka George's Overhang)","South Buttress 3 > Stoney Point > Los Angeles Basin > California",https://www.mountainproject.com/route/106092806/pauls-hole-aka-georges-overhang,4.0,-1,TR,5.9,1,50,34.27052,-118.60373
"Native Son","3. Southeast Face > B. El Capitan > Valley North Side > Yosemite Valley > Yosemite National Park > California",https://www.mountainproject.com/route/107968002/native-son,3.9,-1,Aid,"5.9 A4",17,2300,37.72954,-119.63438
Bifurcate,"Mount San Antonio (Mt. Baldy) > Mount Baldy Road > Angeles National Forest > Los Angeles Basin > California",https://www.mountainproject.com/route/121852263/bifurcate,4.0,-1,"Trad, Mixed, Ice, Snow","5.9 AI1-2 M5 Mod. Snow",4,300,34.28891,-117.64673
"Stone Fist","Reed's Pinnacle > At. Reed's Pinnacle Area > Lower Merced River Canyon > Yosemite Valley > Yosemite National Park > California",https://www.mountainproject.com/route/112276901/stone-fist,2.5,-1,Trad,5.9,1,75,37.72439,-119.70063
"Crotch Rocket Joy Ride","West Face > DAFF Dome > DAFF Area > Tuolumne Meadows > Yosemite National Park > California",https://www.mountainproject.com/route/123130484/crotch-rocket-joy-ride,4.0,-1,Trad,"5.9 PG13",3,400,37.8795,-119.41345
"Sunset Face Left","Ram Rock > Sunset Boulders > Goat Rock > Sonoma Coast State Park > Wine Country/Northeast Bay > San Francisco Bay Area > California",https://www.mountainproject.com/route/105735176/sunset-face-left,2.5,-1,"TR, Boulder","5.9 V0 R",1,30,38.42937,-123.11571
"Fine Line","San Ysidro > Santa Barbara > Central Coast > California",https://www.mountainproject.com/route/105798484/fine-line,2.6,-1,Trad,5.9,1,105,34.45379,-119.62329
"Wandering Taoist","Main Wall > Tollhouse Rock > Hwy 168:Tollhouse, Shaver Lake, Courtright > Southern-Western Sierra > California",https://www.mountainproject.com/route/105814282/wandering-taoist,3.1,-1,"Trad, Sport",5.9,4,350,37.02938,-119.38526
"Spud Launcher","Potato  2 > Potato Patch > Clark Canyon > Mammoth Lakes Area > Sierra Eastside > California",https://www.mountainproject.com/route/106068384/spud-launcher,2.2,-1,Sport,5.9,1,40,37.78984,-118.91431
M.U.,"Meyers Multipitch > Meyers Area > South Shore > Lake Tahoe > California",https://www.mountainproject.com/route/113186180/mu,2.7,-1,Sport,5.9,3,300,38.84175,-120.04551
"Tan in November","Santa Cruz Dome > Tokopah Valley > Sequoia & Kings Canyon NP > California",https://www.mountainproject.com/route/109072019/tan-in-november,4.0,-1,Trad,5.9,4,500,36.62543,-118.70302
"Dark Dihedral","West Bernardo Hills > North San Diego County > San Diego County > California",https://www.mountainproject.com/route/112827025/dark-dihedral,4.0,-1,Trad,5.9,1,20,33.04988,-117.09425
"Altar Boy","Holy Hands > South San Diego County > San Diego County > California",https://www.mountainproject.com/route/120235052/altar-boy,4.0,-1,Trad,5.9,1,30,32.73077,-116.79337
MG1,"Main Wall Right > Squarenail > Hwy 168:Tollhouse, Shaver Lake, Courtright > Southern-Western Sierra > California",https://www.mountainproject.com/route/118224075/mg1,4.0,-1,Trad,5.9,1,75,37.03685,-119.40718
"Panic Pillar","Panic Pillar > Cathedral Peak > Cathedral Range > Tuolumne Meadows > Yosemite National Park > California",https://www.mountainproject.com/route/108207471/panic-pillar,3.5,-1,"Trad, Alpine","5.9 R",1,50,37.84761,-119.40551
"Center route","Outhouse Wall > Kings Canyon > Sequoia & Kings Canyon NP > California",https://www.mountainproject.com/route/115168280/center-route,4.0,-1,Trad,5.9,1,95,36.7983,-118.68436
Hoss,"Quarter Day Dome > Chilkoot Lake > Shuteye Ridge > Hwy 41: Fresno Dome, Shuteye Ridge > Southern-Western Sierra > California",https://www.mountainproject.com/route/119006008/hoss,3.9,-1,Trad,5.9,1,80,37.41569,-119.47282
Powerline,"The Perch > Donner Summit > I-80 Corridor > Lake Tahoe > California",https://www.mountainproject.com/route/117557930/powerline,4.0,-1,Trad,5.9,1,50,39.32958,-120.31503
"Clean Slate","The Ridge > Base Area > Lake Ramona > North San Diego County > San Diego County > California",https://www.mountainproject.com/route/116198435/clean-slate,4.0,-1,"Trad, TR",5.9,1,20,33.03084,-116.99537
"Hummingbird Arete","South Face > North Eagle Beak > The Eagle Beaks > Shuteye Ridge > Hwy 41: Fresno Dome, Shuteye Ridge > Southern-Western Sierra > California",https://www.mountainproject.com/route/118944308/hummingbird-arete,4.0,-1,Sport,5.9,1,90,37.33382,-119.39864
"South Eagle Beak Arete","South Eagle Beak > The Eagle Beaks > Shuteye Ridge > Hwy 41: Fresno Dome, Shuteye Ridge > Southern-Western Sierra > California",https://www.mountainproject.com/route/118991835/south-eagle-beak-arete,4.0,-1,Sport,5.9,1,120,37.33147,-119.39665
"Sleep Now in the Fire","Sundial > Shuteye Ridge > Hwy 41: Fresno Dome, Shuteye Ridge > Southern-Western Sierra > California",https://www.mountainproject.com/route/119006493/sleep-now-in-the-fire,4.0,-1,Trad,5.9,2,330,37.35352,-119.41682
"Gang Green","Green Rock > Cerro Romauldo > San Luis Obispo > Central Coast > California",https://www.mountainproject.com/route/122815202/gang-green,4.0,-1,Sport,5.9,1,80,35.3141,-120.7269
"3-Star Lieback","Star Boulder > Western Belt > Geology Tour Road Bouldering > Queen Valley Area Bouldering > *Joshua Tree Bouldering* > Joshua Tree National Park > California",https://www.mountainproject.com/route/114338783/3-star-lieback,3.4,-1,Boulder,"5.9 V0-",1,25,33.95522,-116.09084
"Conjunction Junction","(o) Schoolhouse Rock > Riverside Quarry > Riverside Area > Inland Empire > California",https://www.mountainproject.com/route/106456117/conjunction-junction,1.9,-1,Sport,5.9,1,60,34.0169,-117.4166
"Bite the Bullet","Bart Dome > Domeland Wilderness > Southern Sierra - The Needles, Kern River, Domelands, etc. > Southern-Western Sierra > California",https://www.mountainproject.com/route/123436926/bite-the-bullet,4.0,-1,"Trad, Alpine",5.9,5,500,35.92591,-118.26283
"Skyline Arete","Trilogy Rock > Southern Sierra - The Needles, Kern River, Domelands, etc. > Southern-Western Sierra > California",https://www.mountainproject.com/route/123445619/skyline-arete,4.0,-1,Trad,5.9,2,200,36.17324,-118.59684
"Moro Oro","East Face > Moro Rock (SEKI) > Sequoia & Kings Canyon NP > California",https://www.mountainproject.com/route/123447000/moro-oro,4.0,-1,"Trad, Aid","5.9 A3 R",9,1600,36.54357,-118.76373
"Fantastic Delusion","Hermit Spires > Southern Sierra - The Needles, Kern River, Domelands, etc. > Southern-Western Sierra > California",https://www.mountainproject.com/route/123441958/fantastic-delusion,4.0,-1,Trad,5.9,8,900,36.1689,-118.5133
"Tangled Web","Scodie Spire > Southern Sierra - The Needles, Kern River, Domelands, etc. > Southern-Western Sierra > California",https://www.mountainproject.com/route/123444857/tangled-web,4.0,-1,"Trad, Aid","5.9 A3",5,500,35.69786,-118.12885
"Wild Kingdom","Elephant Knob > Southern Sierra - The Needles, Kern River, Domelands, etc. > Southern-Western Sierra > California",https://www.mountainproject.com/route/123443430/wild-kingdom,4.0,-1,Trad,"5.9 PG13",1,170,35.99762,-118.51264
Jaws,"Parker Bluff > Southern Sierra - The Needles, Kern River, Domelands, etc. > Southern-Western Sierra > California",https://www.mountainproject.com/route/123441503/jaws,4.0,-1,"Trad, Alpine",5.9,2,300,35.97769,-118.55727
"Laughing at the Void","5. Ribbon Falls Amphitheater > A. Ribbon Falls Area > Valley North Side > Yosemite Valley > Yosemite National Park > California",https://www.mountainproject.com/route/108066204/laughing-at-the-void,3.6,-1,Aid,"5.9 C3+",6,1000,37.73456,-119.64807
"Coonyard Pinnacle","5. Monday Morning Slab > I. Glacier Point Apron > Valley South Side > Yosemite Valley > Yosemite National Park > California",https://www.mountainproject.com/route/109750229/coonyard-pinnacle,3.3,-1,Trad,"5.9 R",5,400,37.73295,-119.56601
Brewser,"Pillar of Hope > The Cemetery > Horsemen's Center > Apple Valley Area > High Desert > California",https://www.mountainproject.com/route/106075405/brewser,2.1,-1,Sport,5.9,1,30,34.4813,-117.1294
"Fear No Evil","East Wall > Main Formation > Lover's Leap > Highway 50 Corridor > Lake Tahoe > California",https://www.mountainproject.com/route/105857727/fear-no-evil,3.5,-1,Trad,"5.9 R",4,,38.80261,-120.13204
"Middle Earth","The First Corridor > Texas Canyon > Angeles National Forest > Los Angeles Basin > California",https://www.mountainproject.com/route/107207325/middle-earth,2.6,-1,Sport,5.9,2,170,34.51328,-118.40175
"Ugly Duckling","Rattlesnake Canyon Crags (including Upper and Lower Alchemist) > Santa Barbara > Central Coast > California",https://www.mountainproject.com/route/111782491/ugly-duckling,3.0,-1,Sport,5.9,2,170,34.47098,-119.68953
Duet,"Chimney Spire > Chimney Rocks > Sequoia & Kings Canyon NP > California",https://www.mountainproject.com/route/107880599/duet,3.1,-1,Trad,5.9,3,200,36.65368,-118.86742
"Poop Deck","Abyss Boulder > Promontory > Northwest California > California",https://www.mountainproject.com/route/109796975/poop-deck,2.1,-1,Sport,"5.9 PG13",1,40,41.60635,-124.10481
"Indian Springs","Lower Cliffs, Lower Tier > Indian Springs > I-80 Corridor > Lake Tahoe > California",https://www.mountainproject.com/route/105736345/indian-springs,2.1,-1,Sport,5.9,1,50,39.3281,-120.5654
"Gorge Corner","Triple Play Cliff > Upper Gorge > Owens River Gorge > Bishop Area > Sierra Eastside > California",https://www.mountainproject.com/route/106142365/gorge-corner,2.6,-1,Sport,5.9,1,50,37.52319,-118.57505
"High Plains Drifter","Corral Wall - Left Side > Corral Wall > Rattlesnake Canyon > Indian Cove > Joshua Tree National Park > California",https://www.mountainproject.com/route/105723778/high-plains-drifter,2.1,-1,Trad,5.9,1,40,34.08348,-116.14258
"Orange Zig Zag","Zigzag Cliff > The Stumps > Mammoth Lakes Area > Sierra Eastside > California",https://www.mountainproject.com/route/105932871/orange-zig-zag,3.0,-1,Trad,5.9,1,,37.77632,-118.96599
"Burrito Bandito","Melting Wall > Lost Eagle > Shuteye Ridge > Hwy 41: Fresno Dome, Shuteye Ridge > Southern-Western Sierra > California",https://www.mountainproject.com/route/116518510/burrito-bandito,3.7,-1,Trad,5.9,1,105,37.41366,-119.44848
Nuts,"The Pistachio > Western Wall Area > Alabama Hills North > Alabama Hills > Lone Pine Area > Sierra Eastside > California",https://www.mountainproject.com/route/105897817/nuts,2.4,-1,Sport,5.9,1,60,36.6066,-118.132
"Crystal Wall Route","Crystal Wall Area > Slick Rock Dome > Highway 50 Corridor > Lake Tahoe > California",https://www.mountainproject.com/route/111951103/crystal-wall-route,3.6,-1,Sport,"5.9 R",2,300,38.8802,-120.2893
"Horn Blended","Uptown Rock - Lower Tier (aka Delta Wall) > Uptown Rock > Pine Creek Canyon > Bishop Area > Sierra Eastside > California",https://www.mountainproject.com/route/113218752/horn-blended,3.3,-1,Sport,5.9,1,235,37.36811,-118.68809
"Diagonal Left","Midway Rock > Sugarloaf Area > Highway 50 Corridor > Lake Tahoe > California",https://www.mountainproject.com/route/108447125/diagonal-left,2.7,-1,Trad,5.9,1,60,38.7751,-120.3095
"Branch Out!","(g) Onyx Summit Crag > Highway 38 Crags > San Bernardino Mountains > California",https://www.mountainproject.com/route/115325829/branch-out,2.8,-1,Sport,5.9,1,40,34.1963,-116.7227
"The Rift","Limbo Area > Mission Gorge > South San Diego County > San Diego County > California",https://www.mountainproject.com/route/105843884/the-rift,2.1,-1,Trad,5.9,1,40,32.8255,-117.051
"Sword of Damocles","Buttress of Cracks - Left Side > (l) Buttress of Cracks > Suicide Rock > Tahquitz & Suicide Rocks > California",https://www.mountainproject.com/route/105790410/sword-of-damocles,2.0,-1,Trad,5.9,1,160,33.76989,-116.69427
"Thumb One","Tom's Thumb > Susanville Area > Northeast California > California",https://www.mountainproject.com/route/111866590/thumb-one,3.8,-1,Sport,5.9,1,90,40.25375,-120.53431
"Cosmic Followers","Candy Land > Bowman Valley > Bowman/Emeralds > I-80 Corridor > Lake Tahoe > California",https://www.mountainproject.com/route/112043555/cosmic-followers,2.5,-1,"Sport, TR",5.9,2,200,39.44101,-120.65802
[Redacted],"Mini Buttress > Big Chief Area > Truckee River Canyon > Lake Tahoe > California",https://www.mountainproject.com/route/105735566/redacted,2.4,-1,Sport,5.9,1,90,39.24478,-120.20282
"Six Pitch","Bald Rock Dome > Bald Rock > The Lost Sierra > Northeast California > California",https://www.mountainproject.com/route/112401452/six-pitch,3.6,-1,Trad,5.9,6,700,39.65376,-121.30749
"Polish Princess","Tinka Dome > Upper Bear River Reservoir > Carson Pass Highway (88) > Lake Tahoe > California",https://www.mountainproject.com/route/119335394/polish-princess,3.6,-1,"Trad, TR",5.9,1,90,38.58711,-120.21822
"Ice House Roof","Crystal Wall Area > Slick Rock Dome > Highway 50 Corridor > Lake Tahoe > California",https://www.mountainproject.com/route/111951204/ice-house-roof,3.1,-1,Sport,5.9,3,450,38.8802,-120.2893
"West Face","Mount Starr King > Mount Starr King Area > Southern Yosemite > Yosemite National Park > California",https://www.mountainproject.com/route/108178106/west-face,3.1,-1,"Trad, Alpine",5.9,7,,37.7027,-119.51766
"Southern Man","Alabama Dome > Alabama Hills South > Alabama Hills > Lone Pine Area > Sierra Eastside > California",https://www.mountainproject.com/route/109065547/southern-man,2.4,-1,Sport,5.9,1,80,36.58615,-118.11438
"Never Never Land","2. Southwest Face > B. El Capitan > Valley North Side > Yosemite Valley > Yosemite National Park > California",https://www.mountainproject.com/route/108082293/never-never-land,3.3,-1,Aid,"5.9 A3",20,2000,37.73051,-119.63828
"Hairy Airy","The Y Crack Area > Dixon Lake > North San Diego County > San Diego County > California",https://www.mountainproject.com/route/105807999/hairy-airy,2.4,-1,Trad,5.9,1,35,33.16204,-117.05318
Klingon,"Gibraltar Rock > Gibraltar Area > Santa Barbara > Central Coast > California",https://www.mountainproject.com/route/105804234/klingon,2.4,-1,Trad,"5.9 R",1,100,34.4771,-119.6802
"The Poodle Chews It","The Poodle Wall > Paul's Paradise > Alabama Hills North > Alabama Hills > Lone Pine Area > Sierra Eastside > California",https://www.mountainproject.com/route/108490262/the-poodle-chews-it,3.0,-1,Sport,5.9,1,60,36.60367,-118.12646
"Wall of Early Morning Fright","Chimney Spire > Chimney Rocks > Sequoia & Kings Canyon NP > California",https://www.mountainproject.com/route/107889390/wall-of-early-morning-fright,3.2,-1,Trad,5.9,2,300,36.65368,-118.86742
"First Stage","Berkeley Camp Rocks > Echo Lakes > Echo Summit > Highway 50 Corridor > Lake Tahoe > California",https://www.mountainproject.com/route/109197270/first-stage,2.3,-1,"Sport, TR",5.9,1,50,38.83003,-120.0368
"Muppet Show","Pink Face > Lower Gorge > Owens River Gorge > Bishop Area > Sierra Eastside > California",https://www.mountainproject.com/route/111706709/muppet-show,2.1,-1,Sport,5.9,1,50,37.50247,-118.56786
"Mauna Loa","Lava Dome > Towers of Uncertainty > Geology Tour Road > Queen Valley Area > Joshua Tree National Park > California",https://www.mountainproject.com/route/106313920/mauna-loa,2.6,-1,Trad,5.9,1,50,33.96615,-116.08673
"Captain Cheese Dog","Lower Cliffs, Lower Tier > Indian Springs > I-80 Corridor > Lake Tahoe > California",https://www.mountainproject.com/route/105736348/captain-cheese-dog,2.1,-1,Sport,5.9,1,40,39.3281,-120.5654
"Doggie Style","Garden Wall > Bishop Peak > San Luis Obispo > Central Coast > California",https://www.mountainproject.com/route/107971069/doggie-style,2.4,-1,Sport,5.9,1,60,35.30246,-120.69563
