Route,Location,URL,"Avg Stars","Your Stars","Route Type",Rating,Pitches,Length,"Area Latitude","Area Longitude"
"Baba Fats","Greg's Cliff > Ptarmigan Creek Area > Independence Pass > Colorado",https://www.mountainproject.com/route/105760542/baba-fats,3.7,-1,Sport,5.11-,1,,39.12609,-106.68079
Roadrunner,"Wall of the '90s > Clear Creek Canyon > Golden > Colorado",https://www.mountainproject.com/route/105762180/roadrunner,3.5,-1,Trad,5.11-,2,105,39.7388,-105.3222
"No Opportunity Missed","Upper Tan Corridor > Tan Corridor > Meadow Dome > Staunton Rocks > Staunton State Park > South Platte > Colorado",https://www.mountainproject.com/route/109209914/no-opportunity-missed,3.4,-1,Sport,5.11-,1,70,39.51669,-105.39578
"Northwest Corner","The Bastille - N Face > The Bastille > Eldorado Canyon State Park > Boulder > Colorado",https://www.mountainproject.com/route/105753265/northwest-corner,3.1,-1,Trad,5.11-,1,,39.9307,-105.283
"Standard Route","Sunshine Wall > Cathedral Spires Area > South Platte > Colorado",https://www.mountainproject.com/route/105753304/standard-route,3.6,-1,Trad,"5.11- R",5,400,39.42096,-105.25683
"Porkus Non Grata","Contest Wall > Sand Gulch > Shelf Road > Canon City > Colorado",https://www.mountainproject.com/route/105749116/porkus-non-grata,2.9,-1,Sport,5.11-,1,55,38.62148,-105.23217
"Long Dong Wall (aka Bell Tower)","Kissing Couple > Kissing Couple area > Colorado National Monument > Grand Junction Area > Colorado",https://www.mountainproject.com/route/105750316/long-dong-wall-aka-bell-tower,3.7,-1,Trad,5.11-,5,,39.08928,-108.71813
"Zip Code","West Ridge - part D - Xanadu to Pony Express > The West Ridge > Eldorado Canyon State Park > Boulder > Colorado",https://www.mountainproject.com/route/105751408/zip-code,2.7,-1,Trad,5.11-,1,130,39.93239,-105.28874
"Bozo No No","The Grocery Store Walls > Castlewood Canyon SP > Denver South > Colorado",https://www.mountainproject.com/route/105751996/bozo-no-no,3.0,-1,"Sport, TR",5.11-,1,45,39.35285,-104.76871
"Aurora Sports Park","East Colfax > Clear Creek Canyon > Golden > Colorado",https://www.mountainproject.com/route/109290129/aurora-sports-park,2.4,-1,Sport,5.11-,1,70,39.74058,-105.41393
"Direct North Face","The Bastille - N Face > The Bastille > Eldorado Canyon State Park > Boulder > Colorado",https://www.mountainproject.com/route/105749743/direct-north-face,3.7,-1,Trad,"5.11- R",1,,39.9307,-105.283
Dune,"J. Jabba Buttress > East  Animas > Durango > Colorado",https://www.mountainproject.com/route/106652827/dune,2.8,-1,Sport,5.11-,1,60,37.31974,-107.83343
Stranglehold,"The Post Office > Thunder Ridge > West Creek > South Platte > Colorado",https://www.mountainproject.com/route/106387476/stranglehold,3.6,-1,Trad,5.11-,1,,39.1986,-105.21935
Superspar,"Redgarden - Tower One > Redgarden Wall > Eldorado Canyon State Park > Boulder > Colorado",https://www.mountainproject.com/route/105748810/superspar,3.6,-1,Trad,5.11-,4,,39.93194,-105.28603
Stroh's,"Lower Capitalist Crag > Capitalist Crag > Clear Creek Canyon > Golden > Colorado",https://www.mountainproject.com/route/105758730/strohs,2.5,-1,Sport,5.11-,1,60,39.73948,-105.32756
"Gay Blade","The Brown Wall > Thunder Ridge > West Creek > South Platte > Colorado",https://www.mountainproject.com/route/106126032/gay-blade,2.7,-1,Sport,"5.11- PG13",1,50,39.1994,-105.21801
"Training Day","Ra > Empire > Colorado",https://www.mountainproject.com/route/105762375/training-day,2.9,-1,Sport,5.11-,3,250,39.76827,-105.74296
"The Ukrainian Challenge","Chimney Rock > Elk Creek Spires > Staunton State Park > South Platte > Colorado",https://www.mountainproject.com/route/113431376/the-ukrainian-challenge,4.0,-1,Trad,5.11-,1,90,39.50653,-105.4142
"Relative To Standing","Primo Wall > Clear Creek Canyon > Golden > Colorado",https://www.mountainproject.com/route/106633355/relative-to-standing,1.9,-1,Sport,5.11-,1,45,39.73929,-105.41527
Javelin,"Cracked Canyon > Ophir > Telluride/Norwood area > Colorado",https://www.mountainproject.com/route/106016272/javelin,3.9,-1,Trad,5.11-,1,65,37.8605,-107.86263
"East Colfax","East Colfax > Clear Creek Canyon > Golden > Colorado",https://www.mountainproject.com/route/107221945/east-colfax,2.0,-1,"Trad, Sport","5.11- PG13",1,110,39.74058,-105.41393
"Big Bro's Watchin' (Luebben Memorial Route)","Creek Side > Clear Creek Canyon > Golden > Colorado",https://www.mountainproject.com/route/106540431/big-bros-watchin-luebben-memorial-route,3.1,-1,Trad,5.11-,6,450,39.74102,-105.41042
"Cool Breeze","Liberty Cap > Colorado National Monument > Grand Junction Area > Colorado",https://www.mountainproject.com/route/105816885/cool-breeze,3.2,-1,Trad,5.11-,1,75,39.05649,-108.66603
"No Vacancy (submitted as No Math Required)","Free Form Wall > Sand Gulch > Shelf Road > Canon City > Colorado",https://www.mountainproject.com/route/107711074/no-vacancy-submitted-as-no-math-required,2.4,-1,Sport,5.11-,1,60,38.6218,-105.23101
"The Chaser","The Twilight Zone > Clear Creek Canyon > Golden > Colorado",https://www.mountainproject.com/route/106310756/the-chaser,2.4,-1,Sport,5.11-,1,80,39.7499,-105.2478
"Heartbreaker [aka Never Cry Wolf]","Cadillac Crag > Eldorado Canyon State Park > Boulder > Colorado",https://www.mountainproject.com/route/105752047/heartbreaker-aka-never-cry-wolf,2.9,-1,"Trad, Sport",5.11-,1,,39.93617,-105.2911
Crystalvision,"South Rim Routes > Black Canyon of the Gunnison > Gunnison > Colorado",https://www.mountainproject.com/route/106178147/crystalvision,3.0,-1,Trad,"5.11- R",12,,38.5811,-107.71539
AstroGote,"Phantom Spire > Devil's Canyon > McInnis Canyons > Grand Junction Area > Colorado",https://www.mountainproject.com/route/122292509/astrogote,4.0,-1,Trad,5.11-,1,120,39.1185,-108.76722
"Drop The Mic","Camp Bird Road > Ouray (Ice/Mixed) > CO Ice & Mixed > Colorado",https://www.mountainproject.com/route/121725828/drop-the-mic,4.0,-1,"Trad, Mixed","5.11- M8 R",10,1400,37.98459,-107.70051
"Lucky Time Piece (submitted as Primate Highway)","I. Watch Crystal > East  Animas > Durango > Colorado",https://www.mountainproject.com/route/105821214/lucky-time-piece-submitted-as-primate-highway,3.0,-1,Trad,5.11-,2,250,37.32033,-107.83351
"Oneg Shabbat","Oneg Shabbat Block > Wigwam Creek/Lost Creek Wilderness > South Platte > Colorado",https://www.mountainproject.com/route/107516336/oneg-shabbat,4.0,-1,Trad,5.11-,1,60,39.2368,-105.361
"We the Sheeple","East Side > Black Rock > Westwater Area > Grand Junction Area > Colorado",https://www.mountainproject.com/route/119895877/we-the-sheeple,4.0,-1,Trad,5.11-,1,70,39.1492,-108.99488
"Jagged Edge","Middle Mother's > Mother's Buttress > Main Canyon: Unaweep Granite > Unaweep Canyon > Grand Junction Area > Colorado",https://www.mountainproject.com/route/105946493/jagged-edge,3.5,-1,Trad,5.11-,1,80,38.81392,-108.61899
"High H20","Ripple Wall > Red Rock Canyon Open Space > Colorado Springs > Colorado",https://www.mountainproject.com/route/105860223/high-h20,2.0,-1,Sport,5.11-,1,65,38.8449,-104.88099
"Doctor Doolittle","I. Watch Crystal > East  Animas > Durango > Colorado",https://www.mountainproject.com/route/105821633/doctor-doolittle,2.7,-1,Sport,5.11-,1,50,37.32033,-107.83351
"The Terror and The Joy","Terror Boulder > Upper Chaos Canyon > Chaos Canyon Bouldering > RMNP Bouldering Areas > RMNP - Rock > Alpine Rock > Colorado",https://www.mountainproject.com/route/109322941/the-terror-and-the-joy,4.0,-1,"Trad, Alpine","5.11- X",1,30,40.30419,-105.67015
"5. 1000 Headed Dragon","Upper Mighty Mouse Wall > Mighty Mouse Wall > Main Canyon: Unaweep Granite > Unaweep Canyon > Grand Junction Area > Colorado",https://www.mountainproject.com/route/106392451/5-1000-headed-dragon,4.0,-1,"Trad, Sport",5.11-,1,95,38.81765,-108.59822
"Cool Hand Luke","Divide Wall > Main Canyon: Unaweep Granite > Unaweep Canyon > Grand Junction Area > Colorado",https://www.mountainproject.com/route/108162125/cool-hand-luke,4.0,-1,Trad,5.11-,1,70,38.81658,-108.60438
"Tim's Finn","Humming Bird Boulder No.  2 (Tim's Finn) > Hummingbird Boulders > Keystone a.k.a. Montezuma > Colorado",https://www.mountainproject.com/route/108280298/tims-finn,4.0,-1,"Trad, TR","5.11- PG13",1,50,39.60869,-105.91752
"Wine and Roses","Middle Animal World > Animal World > Boulder Canyon > Boulder > Colorado",https://www.mountainproject.com/route/106157377/wine-and-roses,2.6,-1,Trad,5.11-,1,60,39.99812,-105.41479
"Dark Star","South Rim Routes > Black Canyon of the Gunnison > Gunnison > Colorado",https://www.mountainproject.com/route/107338772/dark-star,3.2,-1,Trad,5.11-,13,,38.5811,-107.71539
"Coffin Crack","Coffin Crack Crag > Taylor Canyon > Gunnison > Colorado",https://www.mountainproject.com/route/106547084/coffin-crack,3.6,-1,Trad,5.11-,1,60,38.72652,-106.76942
"Chaos Spider","Porcelain Wall > Red Rocks > Naturita and Paradox Valley > Colorado",https://www.mountainproject.com/route/107838711/chaos-spider,3.5,-1,Sport,5.11-,1,100,38.2769,-108.71957
Superfresh,"Cracked Canyon > Ophir > Telluride/Norwood area > Colorado",https://www.mountainproject.com/route/106239267/superfresh,3.6,-1,Trad,5.11-,1,90,37.8605,-107.86263
"Pow Wow Canal","Wigwam Dome > Wigwam Creek/Lost Creek Wilderness > South Platte > Colorado",https://www.mountainproject.com/route/106145785/pow-wow-canal,3.7,-1,Trad,"5.11- PG13",4,,39.26137,-105.36789
"Med Crack","Pearl Street > City of Boulder Buildering > Boulder > Colorado",https://www.mountainproject.com/route/116369429/med-crack,3.8,-1,"Trad, Boulder","5.11- V2-3",1,45,40.01867,-105.27626
"Nameless Face","Psycho Tower > Big Gypsum - Dolores > Naturita and Paradox Valley > Colorado",https://www.mountainproject.com/route/107081240/nameless-face,2.8,-1,Sport,5.11-,1,,38.1349,-108.8731
TDS,"Horseshead > Palisade Mountain > Big Thompson Canyon > Estes Park Valley > Colorado",https://www.mountainproject.com/route/107281940/tds,3.4,-1,Trad,5.11-,1,90,40.43698,-105.31733
"Annie's Knotty Fingers","Mikey's Island > Palisade Mountain > Big Thompson Canyon > Estes Park Valley > Colorado",https://www.mountainproject.com/route/107277602/annies-knotty-fingers,3.5,-1,Trad,5.11-,1,80,40.43666,-105.31171
Specter,"Black Widow Slab > Boulder Canyon > Boulder > Colorado",https://www.mountainproject.com/route/105764433/specter,2.8,-1,Trad,5.11-,1,80,39.9966,-105.4147
"Heart of the Sunrise","The Maiden > South > Flatirons > Boulder > Colorado",https://www.mountainproject.com/route/117860491/heart-of-the-sunrise,3.1,-1,Sport,5.11-,2,190,39.95002,-105.28719
"Ankar Gate","Land That Time Forgot > Sheeprock > Goose Creek/Molly Gulch Campground > South Platte > Colorado",https://www.mountainproject.com/route/105926089/ankar-gate,3.1,-1,Sport,5.11-,3,,39.18999,-105.33063
"Fine Whine","Left Hand > First Buttress > Taylor Canyon > Gunnison > Colorado",https://www.mountainproject.com/route/106416658/fine-whine,3.1,-1,Sport,5.11-,1,135,38.72589,-106.77013
Aeronaut,"Rincon - L of Center Route > Rincon > Eldorado Canyon State Park > Boulder > Colorado",https://www.mountainproject.com/route/105760941/aeronaut,3.0,-1,"Trad, Sport",5.11-,1,80,39.93435,-105.28993
"Back From The Dead","The Front Porch > The Narrows > Carbondale Area > Colorado",https://www.mountainproject.com/route/106158293/back-from-the-dead,2.9,-1,Sport,5.11-,1,70,39.23226,-107.22854
"Smausser Traverse Thing...","The Brown Wall > Thunder Ridge > West Creek > South Platte > Colorado",https://www.mountainproject.com/route/106781259/smausser-traverse-thing,3.1,-1,"Trad, Sport",5.11-,1,90,39.1994,-105.21801
"Corky's Rumpet","The Upper Wall > First Buttress > Taylor Canyon > Gunnison > Colorado",https://www.mountainproject.com/route/105762207/corkys-rumpet,3.4,-1,Trad,5.11-,1,120,38.72589,-106.77013
"Highway 61 Revisited","North Chasm View Wall > North Rim Routes > Black Canyon of the Gunnison > Gunnison > Colorado",https://www.mountainproject.com/route/107140288/highway-61-revisited,2.7,-1,Trad,5.11-,11,1600,38.582,-107.70883
"Sea of Sorrow","Land That Time Forgot > Sheeprock > Goose Creek/Molly Gulch Campground > South Platte > Colorado",https://www.mountainproject.com/route/117675953/sea-of-sorrow,3.3,-1,Sport,5.11-,1,100,39.18999,-105.33063
Kokopelli,"Kokopelli > Manassa > San Luis Valley > Colorado",https://www.mountainproject.com/route/109465943/kokopelli,3.5,-1,Sport,5.11-,2,125,37.18985,-105.79994
Denouement,"Middle Mother's > Mother's Buttress > Main Canyon: Unaweep Granite > Unaweep Canyon > Grand Junction Area > Colorado",https://www.mountainproject.com/route/108890018/denouement,3.3,-1,"Trad, Sport",5.11-,4,375,38.81392,-108.61899
"Unknown (High-Steptopolis)","Upper Tier (Bocco Area) > Wolcott Crags and Boulders > Eagle/Vail/Minturn/Red Cliff > Colorado",https://www.mountainproject.com/route/116956822/unknown-high-steptopolis,3.3,-1,Sport,5.11-,1,45,39.71525,-106.70244
"Witness the Thiccness","Central Bouldering Area > Asshole Rock Bouldering > Buffalo Creek Bouldering > Buffalo Creek > South Platte > Colorado",https://www.mountainproject.com/route/119842359/witness-the-thiccness,4.0,-1,"Trad, Boulder","5.11- V1-2",1,30,39.37301,-105.26034
"Crimson Behelit","Chalcopyrite Wall > Main Canyon: Unaweep Granite > Unaweep Canyon > Grand Junction Area > Colorado",https://www.mountainproject.com/route/106578782/crimson-behelit,3.5,-1,Trad,5.11-,1,100,38.81658,-108.60438
"Last Payment","South Rim Routes > Black Canyon of the Gunnison > Gunnison > Colorado",https://www.mountainproject.com/route/105763752/last-payment,2.4,-1,Trad,5.11-,4,400,38.5811,-107.71539
"Cleanup Hitter","The Front Porch > The Narrows > Carbondale Area > Colorado",https://www.mountainproject.com/route/106058259/cleanup-hitter,2.8,-1,Sport,5.11-,1,70,39.23226,-107.22854
Hymanizer,"West Side > Lemon Reservoir > Durango > Colorado",https://www.mountainproject.com/route/106241609/hymanizer,2.6,-1,"Trad, Sport",5.11-,1,80,37.46485,-107.67834
"Three Blocks","Cabin Wall > Escalante Canyon > Grand Junction Area > Colorado",https://www.mountainproject.com/route/107916949/three-blocks,2.9,-1,Trad,5.11-,1,100,38.68073,-108.31363
"Zoo York Kitty","The Zoo at the Far Side > The Gallery > Shelf Road > Canon City > Colorado",https://www.mountainproject.com/route/111726345/zoo-york-kitty,2.6,-1,Sport,5.11-,1,70,38.61673,-105.23705
"London Dungeon","The Misfits Wall > Ouray vicinity (rock) > Colorado",https://www.mountainproject.com/route/108234387/london-dungeon,3.1,-1,Sport,5.11-,1,50,37.9768,-107.6588
"Hemp Seeds Sowed","3. Trailhead Wall > Monitor Rock > Independence Pass > Colorado",https://www.mountainproject.com/route/106522086/hemp-seeds-sowed,2.6,-1,Sport,5.11-,1,100,39.0726,-106.4513
"Whip or Will","Pipeline Wall > Telluride/Norwood area > Colorado",https://www.mountainproject.com/route/106214155/whip-or-will,2.8,-1,Sport,5.11-,1,,37.92354,-107.76635
"Good Tidings","C. Middle and West Walls > C. Lower Tier > Tiers of Zion > Lookout Mountain Road > Golden > Colorado",https://www.mountainproject.com/route/117510567/good-tidings,2.3,-1,Sport,5.11-,1,50,39.74393,-105.24208
"Days of Wine and Roses","Middle Mother's > Mother's Buttress > Main Canyon: Unaweep Granite > Unaweep Canyon > Grand Junction Area > Colorado",https://www.mountainproject.com/route/106141510/days-of-wine-and-roses,3.0,-1,Trad,5.11-,1,160,38.81392,-108.61899
"With Teeth","Other Mothers > Mother's Buttress > Main Canyon: Unaweep Granite > Unaweep Canyon > Grand Junction Area > Colorado",https://www.mountainproject.com/route/118719604/with-teeth,3.1,-1,Trad,5.11-,1,100,38.8136,-108.6215
"Suzy Creamcheese","The Shield > Sarvis Creek Domes > Steamboat Springs > Colorado",https://www.mountainproject.com/route/106328164/suzy-creamcheese,3.0,-1,"Trad, Sport",5.11-,1,110,40.2831,-106.6113
"Han Solo","The Dark Side > Vallecito Crags > Durango > Colorado",https://www.mountainproject.com/route/107277323/han-solo,3.0,-1,Trad,5.11-,2,200,37.48089,-107.53457
"Feline Grace","Tiger Wall > Hartman Rocks > Gunnison > Colorado",https://www.mountainproject.com/route/106782995/feline-grace,2.6,-1,Sport,5.11-,1,40,38.49612,-106.94726
"The Glass Menagerie","Kaleidoscope Wall > Land's End Area > Grand Mesa > Grand Junction Area > Colorado",https://www.mountainproject.com/route/109688656/the-glass-menagerie,3.8,-1,Sport,5.11-,1,80,38.99968,-108.18159
"Lunch Bucket A.K.A. Romper Room","The Alcove > The Pool Wall > Ouray vicinity (rock) > Colorado",https://www.mountainproject.com/route/106466390/lunch-bucket-aka-romper-room,2.3,-1,Sport,5.11-,1,40,38.03114,-107.67124
"Bumper to Bumper","Titanic > Hardscrabble Pass > The Wet Mountains > Colorado",https://www.mountainproject.com/route/105758215/bumper-to-bumper,3.0,-1,Sport,5.11-,1,90,38.17375,-105.17279
"The Ripe Stuff","Aretes > North Rim Routes > Black Canyon of the Gunnison > Gunnison > Colorado",https://www.mountainproject.com/route/123110993/the-ripe-stuff,3.0,-1,Trad,"5.11- R",9,1800,38.5874,-107.71815
"Black And Blue","Lover's Leap on Beaver Brook > Lookout Mountain Road > Golden > Colorado",https://www.mountainproject.com/route/107621348/black-and-blue,2.2,-1,Sport,5.11-,1,50,39.73478,-105.26476
"Kneel Armstrong","Lincoln Lake Slabs > Mt. Blue Sky (formerly Mt. Evans) > Alpine Rock > Colorado",https://www.mountainproject.com/route/109275464/kneel-armstrong,2.7,-1,"Trad, Alpine",5.11-,1,60,39.6178,-105.6056
"Wiffle Ball Bat","The Upper Great Face > The Crags > CO Hwy 7 & Tributaries > Estes Park Valley > Colorado",https://www.mountainproject.com/route/107674310/wiffle-ball-bat,3.0,-1,Sport,5.11-,2,200,40.30342,-105.52275
"Dot Matrix","Space Balls Wall > Mighty Mouse Wall > Main Canyon: Unaweep Granite > Unaweep Canyon > Grand Junction Area > Colorado",https://www.mountainproject.com/route/107574897/dot-matrix,3.0,-1,"Trad, Sport",5.11-,1,60,38.81808,-108.59761
3-D,"Upper Mother's Buttress > Mother's Buttress > Main Canyon: Unaweep Granite > Unaweep Canyon > Grand Junction Area > Colorado",https://www.mountainproject.com/route/106080157/3-d,3.0,-1,Trad,5.11-,1,50,38.81382,-108.6192
"Surrender to the Air","Dead Horse Crag > Glenwood Canyon > Glenwood Springs > Colorado",https://www.mountainproject.com/route/106075249/surrender-to-the-air,3.0,-1,"Trad, Sport",5.11-,1,50,39.57474,-107.22249
"The Great Gazoo","East Side > Lemon Reservoir > Durango > Colorado",https://www.mountainproject.com/route/114590068/the-great-gazoo,2.7,-1,Sport,5.11-,1,45,37.46507,-107.67783
"New Squid In Town","3. Trailhead Wall > Monitor Rock > Independence Pass > Colorado",https://www.mountainproject.com/route/119288888/new-squid-in-town,2.8,-1,Trad,5.11-,1,90,39.0726,-106.4513
"Spicy Meat Ball","Main Wall > Buoux Montana > Eldorado Mountain > Boulder > Colorado",https://www.mountainproject.com/route/111664945/spicy-meat-ball,3.0,-1,Sport,"5.11- R",1,50,39.90249,-105.28722
"Orange You Lichen It?","The Loft > Boulder Canyon > Boulder > Colorado",https://www.mountainproject.com/route/107592162/orange-you-lichen-it,3.0,-1,Trad,"5.11- PG13",1,60,40.0024,-105.4102
"Black Slabbath","Porcelain Wall > Red Rocks > Naturita and Paradox Valley > Colorado",https://www.mountainproject.com/route/107846313/black-slabbath,3.0,-1,Sport,5.11-,1,80,38.2769,-108.71957
"Can't Touch This","Pipeline Wall > Telluride/Norwood area > Colorado",https://www.mountainproject.com/route/106278223/cant-touch-this,2.8,-1,Sport,5.11-,2,170,37.92354,-107.76635
"Skittles to the Wall","Right Side > Dry Creek Crag > Montrose > Colorado",https://www.mountainproject.com/route/113745460/skittles-to-the-wall,2.7,-1,Sport,5.11-,1,40,38.49753,-108.05949
Babushka,"The Nest > Clear Creek Canyon > Golden > Colorado",https://www.mountainproject.com/route/122566865/babushka,2.0,-1,Sport,5.11-,1,90,39.73926,-105.41377
"Am I Right?","Lost Rock > Boulder Canyon > Boulder > Colorado",https://www.mountainproject.com/route/121524102/am-i-right,4.0,-1,Sport,5.11-,1,30,39.9967,-105.4183
"Thanks Mom","Lower Mother's Buttress > Mother's Buttress > Main Canyon: Unaweep Granite > Unaweep Canyon > Grand Junction Area > Colorado",https://www.mountainproject.com/route/118893588/thanks-mom,3.0,-1,Trad,"5.11- PG13",1,60,38.81351,-108.61807
"Papa Chalk","Moss Wall > Box Canyon Crags > Long Draw Road > West of Rustic > Poudre Canyon > Fort Collins > Colorado",https://www.mountainproject.com/route/122774268/papa-chalk,3.0,-1,Sport,5.11-,1,55,40.56693,-105.83184
Misericorde,"The Stiletto > RMNP - Rock > Alpine Rock > Colorado",https://www.mountainproject.com/route/108195886/misericorde,3.0,-1,"Trad, Alpine","5.11- R",5,1200,40.3753,-105.616
"Pay Attention","Vulture Walls > Castlewood Canyon SP > Denver South > Colorado",https://www.mountainproject.com/route/105754843/pay-attention,2.5,-1,Sport,5.11-,1,,39.34536,-104.75589
"Hoop Snake","Watchtower Crag > Independence Pass > Colorado",https://www.mountainproject.com/route/106863744/hoop-snake,3.0,-1,TR,5.11-,1,70,39.123,-106.725
"Unknown 2","Zone 3 > Beyer's Walls > The Access Fund Trailhead > Main Canyon: Unaweep Granite > Unaweep Canyon > Grand Junction Area > Colorado",https://www.mountainproject.com/route/105965219/unknown-2,3.0,-1,"Trad, Sport",5.11-,1,90,38.81716,-108.61106
"Baroque Down Palace / Free Gothic Pillar","Aretes > North Rim Routes > Black Canyon of the Gunnison > Gunnison > Colorado",https://www.mountainproject.com/route/122333227/baroque-down-palace-free-gothic-pillar,3.0,-1,Trad,"5.11- R",8,1500,38.5874,-107.71815
"Ciao Bella (pitch 1) aka Pit of Despair","Seal Rock > South > Flatirons > Boulder > Colorado",https://www.mountainproject.com/route/119941535/ciao-bella-pitch-1-aka-pit-of-despair,2.0,-1,Sport,5.11-,1,85,39.9683,-105.288
"Panda Rigolo","Third Flatiron > North > Flatirons > Boulder > Colorado",https://www.mountainproject.com/route/117511577/panda-rigolo,2.9,-1,Sport,5.11-,1,,39.9874,-105.29196
"Kama Sutra","North Chasm View Wall > North Rim Routes > Black Canyon of the Gunnison > Gunnison > Colorado",https://www.mountainproject.com/route/121384761/kama-sutra,3.0,-1,Trad,"5.11- PG13",5,400,38.582,-107.70883
"Three's a Party","Technicolor Wall aka Techno Crag > Ouray vicinity (rock) > Colorado",https://www.mountainproject.com/route/107679575/threes-a-party,2.8,-1,Sport,5.11-,1,80,37.98033,-107.6535
"Power Of the Schwartz","Space Balls Wall > Mighty Mouse Wall > Main Canyon: Unaweep Granite > Unaweep Canyon > Grand Junction Area > Colorado",https://www.mountainproject.com/route/107574533/power-of-the-schwartz,3.0,-1,"Trad, Sport",5.11-,1,110,38.81808,-108.59761
"Peter Terbush Tower","Below Checkerboard Wall > North Rim Routes > Black Canyon of the Gunnison > Gunnison > Colorado",https://www.mountainproject.com/route/106927198/peter-terbush-tower,2.7,-1,Trad,5.11-,5,,38.57939,-107.70252
Shackleton,"Adventure Wall > Stanley Canyon > Air Force Academy > Colorado Springs > Colorado",https://www.mountainproject.com/route/120706845/shackleton,3.0,-1,Sport,5.11-,2,190,38.99026,-104.91005
"10,000 Leagues","Redgarden - Tower Two > Redgarden Wall > Eldorado Canyon State Park > Boulder > Colorado",https://www.mountainproject.com/route/107922187/10000-leagues,3.0,-1,Trad,"5.11- R",3,400,39.9312,-105.28518
"ROW (Right OffWidth)","V-Mountain aka V Rock > Pagosa Springs > Colorado",https://www.mountainproject.com/route/119726442/row-right-offwidth,3.0,-1,Trad,5.11-,1,90,37.1248,-106.7909
"Demetrious ""Mighty Mouse"" Johnson","UFC Wall > Devil's Canyon > McInnis Canyons > Grand Junction Area > Colorado",https://www.mountainproject.com/route/120479122/demetrious-mighty-mouse-johnson,3.0,-1,Trad,5.11-,1,90,39.10625,-108.76447
"The Closed Box Position","Kama Sutra Wall > Bang's Canyon > Grand Junction Area > Colorado",https://www.mountainproject.com/route/122949968/the-closed-box-position,3.0,-1,Trad,5.11-,1,70,39.03134,-108.61014
"Hot, Moist, Soft Bread","Kama Sutra Wall > Bang's Canyon > Grand Junction Area > Colorado",https://www.mountainproject.com/route/122996512/hot-moist-soft-bread,3.0,-1,"Trad, Aid","5.11- C0",1,70,39.03134,-108.61014
"Unknown Route","Quarry Wall at the Bank > The Bank > Shelf Road > Canon City > Colorado",https://www.mountainproject.com/route/120261986/unknown-route,3.0,-1,Sport,5.11-,1,70,38.64085,-105.24069
"Sticks and Dicks and Finer Things","Sticks and Dicks Tower > Hank's World > Mother's Buttress > Main Canyon: Unaweep Granite > Unaweep Canyon > Grand Junction Area > Colorado",https://www.mountainproject.com/route/119070605/sticks-and-dicks-and-finer-things,3.0,-1,Trad,5.11-,1,40,38.81393,-108.62313
"High Noon and Hour Passed","Sentinel Rock > Sentinel and Specimen Rocks > Colorado Springs > Colorado",https://www.mountainproject.com/route/110992054/high-noon-and-hour-passed,3.0,-1,Trad,"5.11- R",3,250,38.8269,-104.793
"Rick Ross Big Bosch","Bionut Wall > Flowing Park > Grand Mesa > Grand Junction Area > Colorado",https://www.mountainproject.com/route/114575037/rick-ross-big-bosch,3.0,-1,"Sport, Alpine",5.11-,1,50,38.95315,-108.09749
"Power Tools Are People Too","Wasatch Mountain Walls > Bear Creek > Telluride/Norwood area > Colorado",https://www.mountainproject.com/route/114805135/power-tools-are-people-too,3.0,-1,"Sport, Alpine",5.11-,1,60,37.92194,-107.81579
"Mind Bender","Billboard Wall > North Bank > Taylor Canyon > Gunnison > Colorado",https://www.mountainproject.com/route/115315130/mind-bender,3.0,-1,Trad,5.11-,1,70,38.72844,-106.76214
"Unknown 4","The Swimming Hole > Grand Junction Area > Colorado",https://www.mountainproject.com/route/111894534/unknown-4,3.0,-1,Sport,5.11-,1,70,39.16519,-108.8303
"Moose Whisperer","Other Rose Dome > Rose Domes > Steamboat Springs > Colorado",https://www.mountainproject.com/route/112037356/moose-whisperer,3.0,-1,Trad,5.11-,1,50,40.29755,-106.63882
"Real Men Don't Eat Quiche","The Matron > South > Flatirons > Boulder > Colorado",https://www.mountainproject.com/route/105761280/real-men-dont-eat-quiche,3.0,-1,Trad,"5.11- PG13",1,110,39.94304,-105.2884
Parkview,"Sinking Sun > Palisade Mountain > Big Thompson Canyon > Estes Park Valley > Colorado",https://www.mountainproject.com/route/110044454/parkview,3.0,-1,Trad,5.11-,1,60,40.43841,-105.31748
"Date Night","The Inertia Wall > The Narrows > Carbondale Area > Colorado",https://www.mountainproject.com/route/110691448/date-night,3.0,-1,Sport,5.11-,2,,39.23886,-107.2347
"Snowplow of Destiny","Christmas Crag > Buena Vista > Colorado",https://www.mountainproject.com/route/108619302/snowplow-of-destiny,3.0,-1,Trad,"5.11- PG13",1,60,38.89867,-106.0917
"Beyer 4","Zone 1 > Beyer's Walls > The Access Fund Trailhead > Main Canyon: Unaweep Granite > Unaweep Canyon > Grand Junction Area > Colorado",https://www.mountainproject.com/route/107500885/beyer-4,3.0,-1,"Trad, Sport",5.11-,1,80,38.81787,-108.60908
"Sun Dogs","East Buttress > Empire > Colorado",https://www.mountainproject.com/route/106519551/sun-dogs,3.0,-1,"Trad, Sport",5.11-,1,120,39.7603,-105.683
"Upper 1","Zone 2 > Beyer's Walls > The Access Fund Trailhead > Main Canyon: Unaweep Granite > Unaweep Canyon > Grand Junction Area > Colorado",https://www.mountainproject.com/route/108036730/upper-1,3.0,-1,Sport,5.11-,1,60,38.81755,-108.61016
"One and a Half Hours of Power","Redgarden - Tower One > Redgarden Wall > Eldorado Canyon State Park > Boulder > Colorado",https://www.mountainproject.com/route/106648422/one-and-a-half-hours-of-power,2.5,-1,Trad,"5.11- PG13",2,190,39.93194,-105.28603
"Dihedral aka Collins' Corner","Engineering Center > CU Campus > City of Boulder Buildering > Boulder > Colorado",https://www.mountainproject.com/route/106868860/dihedral-aka-collins-corner,2.7,-1,Boulder,"5.11- V2",1,16,40.00726,-105.26267
"Rosy II - (In Memory Of Layton Kor)","Redgarden - Tower One > Redgarden Wall > Eldorado Canyon State Park > Boulder > Colorado",https://www.mountainproject.com/route/108544330/rosy-ii-in-memory-of-layton-kor,2.6,-1,Trad,"5.11- PG13",2,200,39.93194,-105.28603
"Quarter of a Century","Sewemup Mesa > Gateway Vicinity aka The West End > Unaweep Canyon > Grand Junction Area > Colorado",https://www.mountainproject.com/route/114443130/quarter-of-a-century,3.5,-1,Trad,5.11-,1,50,38.49259,-108.88521
"Wings of Steel","The Dome > Sarvis Creek Domes > Steamboat Springs > Colorado",https://www.mountainproject.com/route/107075646/wings-of-steel,3.0,-1,"Trad, Sport",5.11-,1,70,40.2752,-106.63817
"Bearded Lunch Lady","G. Pumphouse Right > Dolores River Canyon (Dove Creek) > Four Corners Area > Colorado",https://www.mountainproject.com/route/109591390/bearded-lunch-lady,2.8,-1,Trad,5.11-,1,150,37.81082,-108.81875
"Not Your Cup of Certain Tea","V-Mountain aka V Rock > Pagosa Springs > Colorado",https://www.mountainproject.com/route/117249241/not-your-cup-of-certain-tea,2.7,-1,Trad,5.11-,1,80,37.1248,-106.7909
"After School","Overlook Cliff > Ouray vicinity (rock) > Colorado",https://www.mountainproject.com/route/109264046/after-school,2.5,-1,Sport,5.11-,1,90,38.0138,-107.6771
"Climb of the Anonymous Coward (Var)","December Wall > South Fork of St. Vrain Canyon > St. Vrain Canyons > Lyons > Colorado",https://www.mountainproject.com/route/105763542/climb-of-the-anonymous-coward-var,2.5,-1,Sport,5.11-,1,70,40.19871,-105.33055
"Gray Block Left (submitted as Blue Route 2)","The Punchbowl > Lime Park (a.k.a. Lime Creek) > Eagle/Vail/Minturn/Red Cliff > Colorado",https://www.mountainproject.com/route/108357934/gray-block-left-submitted-as-blue-route-2,2.0,-1,Sport,5.11-,1,30,39.4058,-106.6547
"Sesame Street Extension","Ouray Rotary Park-Rink Wall > Ouray vicinity (rock) > Colorado",https://www.mountainproject.com/route/110893898/sesame-street-extension,2.4,-1,Sport,5.11-,1,100,38.0436,-107.6802
"Cape Point","West Side > Lemon Reservoir > Durango > Colorado",https://www.mountainproject.com/route/108120065/cape-point,2.4,-1,"Trad, Sport",5.11-,1,90,37.46485,-107.67834
"Pete & Bob's","West Face > North Gateway Rock > Garden of the Gods > Colorado Springs > Colorado",https://www.mountainproject.com/route/105883070/pete-bobs,2.2,-1,Trad,5.11-,4,,38.88,-104.88146
"Jay's Newer Route AKA Not Dead Yet","Overlook Cliff > Ouray vicinity (rock) > Colorado",https://www.mountainproject.com/route/110960949/jays-newer-route-aka-not-dead-yet,2.1,-1,Sport,5.11-,1,65,38.0138,-107.6771
"Outer Range","Officer's Wall > The Diamond /Officer's Wall Massif > 10 Mile Canyon > Colorado",https://www.mountainproject.com/route/117354772/outer-range,2.5,-1,Sport,5.11-,1,80,39.5378,-106.13801
"Getcher' Feet Up","Red Rocks (Boulder) > Mount Sanitas > Boulder > Colorado",https://www.mountainproject.com/route/120666928/getcher-feet-up,2.5,-1,"TR, Boulder","5.11- V3-",1,28,40.01742,-105.29671
"Water World","Castle Rock > Boulder Canyon > Boulder > Colorado",https://www.mountainproject.com/route/105838180/water-world,2.5,-1,"Trad, Sport",5.11-,1,90,39.9787,-105.4551
"I Should Have Done Yoga","Blob Rock > Fish Creek Falls > Steamboat Springs > Colorado",https://www.mountainproject.com/route/113402612/i-should-have-done-yoga,2.6,-1,"Sport, TR","5.11- PG13",1,40,40.48647,-106.77543
Scalamander,"Swamp Corridor > Thunder Ridge > West Creek > South Platte > Colorado",https://www.mountainproject.com/route/107930874/scalamander,2.5,-1,Trad,5.11-,1,70,39.20115,-105.22041
"Ron's Tower - Playing the Flute","Black Rock Towers > Black Rock > Westwater Area > Grand Junction Area > Colorado",https://www.mountainproject.com/route/106556622/rons-tower-playing-the-flute,3.3,-1,"Trad, Aid","5.11- A1",1,165,39.1413,-108.998
Despondent,"Pump Station > Buena Vista > Colorado",https://www.mountainproject.com/route/106427674/despondent,2.5,-1,Sport,5.11-,1,,38.95314,-106.19216
"Shoe Fetish","The Stiletto > RMNP - Rock > Alpine Rock > Colorado",https://www.mountainproject.com/route/108206645/shoe-fetish,2.4,-1,"Trad, Alpine",5.11-,5,1200,40.3753,-105.616
"Clear Lycra","North Face > Java Dome > Deckers > South Platte > Colorado",https://www.mountainproject.com/route/106833788/clear-lycra,2.3,-1,"Trad, Sport","5.11- PG13",1,150,39.38173,-105.16531
"Peanut Butter Whiskey","Whiskey Rocks West > Whiskey Rocks > Goose Creek/Molly Gulch Campground > South Platte > Colorado",https://www.mountainproject.com/route/120339115/peanut-butter-whiskey,2.5,-1,"Trad, TR",5.11-,1,30,39.20967,-105.33679
"Chhipakalee Mandir","The Slabs > Devil's Canyon > McInnis Canyons > Grand Junction Area > Colorado",https://www.mountainproject.com/route/117752871/chhipakalee-mandir,2.5,-1,TR,5.11-,1,70,39.12668,-108.7645
Sleepwalkin',"Lost Highway Area > Sleeping Beauty > Boulder Canyon > Boulder > Colorado",https://www.mountainproject.com/route/113377991/sleepwalkin,2.5,-1,Sport,5.11-,1,,39.9969,-105.41707
"First Arete","Toby Crag > Hillside Drive in San Juan National Forest > Four Corners Area > Colorado",https://www.mountainproject.com/route/122655605/first-arete,2.5,-1,Trad,5.11-,1,65,37.54469,-108.13111
"Definite Article","Middle Mother's > Mother's Buttress > Main Canyon: Unaweep Granite > Unaweep Canyon > Grand Junction Area > Colorado",https://www.mountainproject.com/route/109520779/definite-article,2.5,-1,Trad,5.11-,1,120,38.81392,-108.61899
"When in Doubt","Trundle Wall > Dumont vicinity > Colorado",https://www.mountainproject.com/route/108314508/when-in-doubt,2.5,-1,Sport,5.11-,1,35,39.75469,-105.55843
"Dam Route Left","Stagecoach Dam Area > Steamboat Springs > Colorado",https://www.mountainproject.com/route/107603896/dam-route-left,2.5,-1,Sport,5.11-,1,50,40.29096,-106.6293
"Bungi Man","Block Tower > Cathedral Spires Area > South Platte > Colorado",https://www.mountainproject.com/route/106641404/bungi-man,2.5,-1,Trad,"5.11- PG13",1,100,39.42165,-105.25384
"Early Bird Special","Retirement Rock > Boulder Canyon > Boulder > Colorado",https://www.mountainproject.com/route/105794887/early-bird-special,2.1,-1,Sport,5.11-,1,50,39.985,-105.4413
Lead,"The Shaft > Devil's Head > South Platte > Colorado",https://www.mountainproject.com/route/105958538/lead,2.1,-1,Sport,5.11-,1,55,39.25653,-105.10211
"Uncle Puffy","Lincoln Lake Slabs > Mt. Blue Sky (formerly Mt. Evans) > Alpine Rock > Colorado",https://www.mountainproject.com/route/108294908/uncle-puffy,2.1,-1,"Sport, Alpine",5.11-,1,100,39.6178,-105.6056
"Breakfast Of Champions","Redgarden - Below Lower Ramp > Redgarden Wall > Eldorado Canyon State Park > Boulder > Colorado",https://www.mountainproject.com/route/105752716/breakfast-of-champions,2.2,-1,"Trad, TR","5.11- R",1,,39.9309,-105.28548
"West Face Directissma","The Bastille - W Face > The Bastille > Eldorado Canyon State Park > Boulder > Colorado",https://www.mountainproject.com/route/117830053/west-face-directissma,2.3,-1,Trad,"5.11- R",1,,39.9304,-105.283
"The Second Wave","Pandemic Rock > The Crags > CO Hwy 7 & Tributaries > Estes Park Valley > Colorado",https://www.mountainproject.com/route/120794357/the-second-wave,2.3,-1,Sport,5.11-,1,95,40.3067,-105.52446
Windy,"Rincon - L of Center Route > Rincon > Eldorado Canyon State Park > Boulder > Colorado",https://www.mountainproject.com/route/105756460/windy,2.2,-1,Trad,"5.11- R",3,,39.93435,-105.28993
"Dragons in the Desert","Kaleidoscope Wall > Land's End Area > Grand Mesa > Grand Junction Area > Colorado",https://www.mountainproject.com/route/109688525/dragons-in-the-desert,3.0,-1,Trad,5.11-,1,60,38.99968,-108.18159
"New Minds","Beyond Civilization Wall > Land's End Area > Grand Mesa > Grand Junction Area > Colorado",https://www.mountainproject.com/route/107685872/new-minds,3.0,-1,"Trad, Sport",5.11-,1,50,39.0195,-108.2138
"Obsesssive Compulsive Climbing Disorder","Stone Rock > Stone Point > Big Thompson Canyon > Estes Park Valley > Colorado",https://www.mountainproject.com/route/105898479/obsesssive-compulsive-climbing-disorder,2.3,-1,Sport,5.11-,1,100,40.41136,-105.37886
Guantastic,"Rough Canyon > Grand Junction Area > Colorado",https://www.mountainproject.com/route/106808026/guantastic,3.0,-1,Trad,5.11-,1,90,38.98025,-108.62147
"Joke Crack to Superstone","West Ridge - part E - top to Xanadu > The West Ridge > Eldorado Canyon State Park > Boulder > Colorado",https://www.mountainproject.com/route/105753055/joke-crack-to-superstone,2.0,-1,Trad,"5.11- R",2,,39.93325,-105.28897
Disappear/Reappear,"Tiara Rado > Colorado National Monument > Grand Junction Area > Colorado",https://www.mountainproject.com/route/106447393/disappearreappear,2.3,-1,Trad,5.11-,1,100,39.07632,-108.68464
Brevitata,"Rincon - L of Center Route > Rincon > Eldorado Canyon State Park > Boulder > Colorado",https://www.mountainproject.com/route/105760323/brevitata,2.0,-1,Trad,5.11-,1,60,39.93435,-105.28993
Melkor,"Vatoville > The Palace > Poudre Canyon > Fort Collins > Colorado",https://www.mountainproject.com/route/106033569/melkor,1.8,-1,Sport,5.11-,1,40,40.6923,-105.379
"Guard Your Dingy","The Sail > Triple Tier Area > Poudre Canyon > Fort Collins > Colorado",https://www.mountainproject.com/route/107881948/guard-your-dingy,2.0,-1,Sport,5.11-,1,60,40.6924,-105.3755
"The Queen is Dead","Castle Rock > Boulder Canyon > Boulder > Colorado",https://www.mountainproject.com/route/108315973/the-queen-is-dead,1.9,-1,Trad,5.11-,1,30,39.9787,-105.4551
Cutter,"Main Wall > Marina Ridge > Horsetooth Reservoir > Fort Collins > Colorado",https://www.mountainproject.com/route/113059616/cutter,2.0,-1,"Trad, TR",5.11-,1,,40.5465,-105.14893
"Family Guy","Boulder Slips > Boulder Canyon > Boulder > Colorado",https://www.mountainproject.com/route/106024420/family-guy,2.0,-1,"Trad, Sport",5.11-,1,70,40.0046,-105.4065
"Rowing Against the Wind","Lakeview > Vallecito Crags > Durango > Colorado",https://www.mountainproject.com/route/122074004/rowing-against-the-wind,2.0,-1,Sport,5.11-,1,35,37.40414,-107.5267
"Fragile X","Crater Crag of North Quarry > North Table Mountain/Golden Cliffs > Golden > Colorado",https://www.mountainproject.com/route/108368164/fragile-x,2.0,-1,TR,5.11-,1,40,39.77473,-105.22439
"Do or Do Not","Lower Peanuts > Peanuts Walls > Eldorado Canyon State Park > Boulder > Colorado",https://www.mountainproject.com/route/105993858/do-or-do-not,2.0,-1,Trad,"5.11- PG13",1,50,39.92885,-105.28656
Unknown,"B. Box Elder Crag > Dolores River Canyon (Dove Creek) > Four Corners Area > Colorado",https://www.mountainproject.com/route/121883118/unknown,3.0,-1,Trad,5.11-,1,,37.80138,-108.82611
"The Life Aquatic","Guppy Gully > North Rim Routes > Black Canyon of the Gunnison > Gunnison > Colorado",https://www.mountainproject.com/route/107194693/the-life-aquatic,2.0,-1,Trad,5.11-,5,,38.58822,-107.71891
"Rough Rider (thanks d-ron)","Rough Canyon > Grand Junction Area > Colorado",https://www.mountainproject.com/route/107410195/rough-rider-thanks-d-ron,3.0,-1,Trad,5.11-,1,80,38.98025,-108.62147
"Bambi's Belly","Bambi's Trail > Hartman Rocks > Gunnison > Colorado",https://www.mountainproject.com/route/107780346/bambis-belly,2.0,-1,Sport,5.11-,1,45,38.49712,-106.94757
"Turn the Page","J-Crack Slab Area > The Book > Lumpy Ridge > Estes Park Valley > Colorado",https://www.mountainproject.com/route/105763944/turn-the-page,2.0,-1,Trad,"5.11- R",1,80,40.40556,-105.53398
"Jolly Kicks","Tiara Rado > Colorado National Monument > Grand Junction Area > Colorado",https://www.mountainproject.com/route/109081505/jolly-kicks,4.0,-1,Trad,5.11-,1,100,39.07632,-108.68464
"Casual Misandry","Phantom Spire > Devil's Canyon > McInnis Canyons > Grand Junction Area > Colorado",https://www.mountainproject.com/route/122298374/casual-misandry,2.0,-1,"Trad, Aid","5.11- C1",1,60,39.1185,-108.76722
"Kitty Kat Skat","Inferno Slab > Goose Creek/Molly Gulch Campground > South Platte > Colorado",https://www.mountainproject.com/route/120540677/kitty-kat-skat,2.0,-1,Sport,5.11-,1,50,39.21141,-105.32192
"Unknown aka Birthday Crack","Before Rock of Ages > Fern Canyon Rocks > RMNP - Rock > Alpine Rock > Colorado",https://www.mountainproject.com/route/115131410/unknown-aka-birthday-crack,2.0,-1,Trad,5.11-,2,200,40.35372,-105.64264
Unknown,"South-southwest Face (aka Santa Rita Wall) > Piz Badille > Middle Fork of St. Vrain Canyon > St. Vrain Canyons > Lyons > Colorado",https://www.mountainproject.com/route/115331680/unknown,2.0,-1,"Sport, TR",5.11-,1,100,40.13894,-105.48341
"Cool Corner","Bionut Wall > Flowing Park > Grand Mesa > Grand Junction Area > Colorado",https://www.mountainproject.com/route/114576451/cool-corner,2.0,-1,"Sport, Alpine",5.11-,1,50,38.95315,-108.09749
Bioturbation,"Paleosol Wall > Land's End Area > Grand Mesa > Grand Junction Area > Colorado",https://www.mountainproject.com/route/107880863/bioturbation,4.0,-1,Trad,5.11-,1,60,39.0055,-108.2005
Orange,"The North Gym > Shelf Road > Canon City > Colorado",https://www.mountainproject.com/route/112259049/orange,2.3,-1,Sport,5.11-,1,70,38.6395,-105.215
"Flying Purple People Eater","Kaleidoscope Wall > Land's End Area > Grand Mesa > Grand Junction Area > Colorado",https://www.mountainproject.com/route/109688651/flying-purple-people-eater,4.0,-1,Trad,5.11-,1,80,38.99968,-108.18159
"Dirty Sanchez","The Deep End > The Pool Wall > Ouray vicinity (rock) > Colorado",https://www.mountainproject.com/route/110199733/dirty-sanchez,2.0,-1,Sport,5.11-,1,60,38.02922,-107.67012
Connotation,"Middle Mother's > Mother's Buttress > Main Canyon: Unaweep Granite > Unaweep Canyon > Grand Junction Area > Colorado",https://www.mountainproject.com/route/108890245/connotation,2.0,-1,"Trad, Sport",5.11-,1,70,38.81392,-108.61899
"Slab-o-Death Crack","The Monument > Devil's Head > South Platte > Colorado",https://www.mountainproject.com/route/107319080/slab-o-death-crack,2.0,-1,Trad,"5.11- R",1,,39.2577,-105.10465
"Woober's Day Out","Dead Horse Crag > Glenwood Canyon > Glenwood Springs > Colorado",https://www.mountainproject.com/route/106075287/woobers-day-out,2.0,-1,"Trad, Sport",5.11-,1,50,39.57474,-107.22249
"The Grample Humf","Sunday Wall > The Access Fund Trailhead > Main Canyon: Unaweep Granite > Unaweep Canyon > Grand Junction Area > Colorado",https://www.mountainproject.com/route/122437556/the-grample-humf,3.0,-1,Sport,5.11-,1,60,38.81832,-108.60765
Golden,"Trout Climbing in America > Buena Vista > Colorado",https://www.mountainproject.com/route/123102509/golden,3.0,-1,Sport,5.11-,1,60,38.85839,-105.98654
"The Chargers Pick is In!","Peter Wall > Nine Mile Roped > Nine Mile Hill > Unaweep Canyon > Grand Junction Area > Colorado",https://www.mountainproject.com/route/122320472/the-chargers-pick-is-in,2.0,-1,"Sport, TR",5.11-,1,45,38.95605,-108.4785
"Roughneck Odyssey","Main Wall > Roughneck Area > Old Mill Area > Staunton State Park > South Platte > Colorado",https://www.mountainproject.com/route/121610214/roughneck-odyssey,2.0,-1,Trad,5.11-,2,200,39.52249,-105.39054
"Snitches Get Stitches","Get-away Wall > Unaweep Wall > Main Canyon: Unaweep Granite > Unaweep Canyon > Grand Junction Area > Colorado",https://www.mountainproject.com/route/118790704/snitches-get-stitches,2.0,-1,Trad,5.11-,3,260,38.81658,-108.60438
"Fukitake Express","The Wild Westerlies > The Dark Side > Ophir > Telluride/Norwood area > Colorado",https://www.mountainproject.com/route/123038845/fukitake-express,2.0,-1,Sport,5.11-,1,120,37.85639,-107.86738
Moderna,"COVID Castle > Devil's Canyon > McInnis Canyons > Grand Junction Area > Colorado",https://www.mountainproject.com/route/121787243/moderna,2.0,-1,Trad,5.11-,1,40,39.10693,-108.76431
"Shoobertapotamai Feathers","Turkey Tail > Turkey Rocks > South Platte > Colorado",https://www.mountainproject.com/route/112087335/shoobertapotamai-feathers,2.0,-1,Trad,5.11-,1,60,39.11911,-105.23949
"Split Hand","Slab Ramp > Quarry Wall Complex > Main Canyon: Unaweep Granite > Unaweep Canyon > Grand Junction Area > Colorado",https://www.mountainproject.com/route/119831359/split-hand,2.0,-1,"Trad, TR",5.11-,1,45,38.83373,-108.57793
"Fluffy Bunny","Mickey Mouse Wall > Eldorado Mountain > Boulder > Colorado",https://www.mountainproject.com/route/112244665/fluffy-bunny,2.0,-1,Trad,"5.11- R",1,90,39.91728,-105.28551
"Flight School","Pilot Mtn. > RMNP - Rock > Alpine Rock > Colorado",https://www.mountainproject.com/route/111663536/flight-school,2.0,-1,"Trad, Alpine","5.11- R",5,700,40.23038,-105.65798
"Black Brow","C-Section > Castlewood Canyon SP > Denver South > Colorado",https://www.mountainproject.com/route/112124859/black-brow,2.0,-1,TR,5.11-,1,50,39.34672,-104.75724
"Lost Your Mind","Lost Highway Area > Sleeping Beauty > Boulder Canyon > Boulder > Colorado",https://www.mountainproject.com/route/113348073/lost-your-mind,2.0,-1,TR,5.11-,1,,39.9969,-105.41707
"Parallel Development","Aquarium Wall > Bell Buttress Massif > Boulder Canyon > Boulder > Colorado",https://www.mountainproject.com/route/107749095/parallel-development,2.0,-1,Trad,"5.11- PG13",1,70,40.0012,-105.413
"Death Card (aka Ace of Spades)","Hawk-Eagle Ridge > Eldorado Canyon State Park > Boulder > Colorado",https://www.mountainproject.com/route/108104962/death-card-aka-ace-of-spades,2.0,-1,Trad,"5.11- R",1,70,39.9314,-105.2879
"Prickly Pair Left","The Cactus Garden > Stove Prairie Road Areas > Poudre Canyon > Fort Collins > Colorado",https://www.mountainproject.com/route/111309740/prickly-pair-left,2.0,-1,Sport,5.11-,1,80,40.6873,-105.39039
"Nocturnal Leg Muscle Cramp","The Main Pinecliffe Crag > Pinecliffe > Coal Creek Canyon > Colorado",https://www.mountainproject.com/route/105755755/nocturnal-leg-muscle-cramp,2.0,-1,Sport,5.11-,1,,39.9314,-105.4209
"Mode I Failure","Television Wall > The Access Fund Trailhead > Main Canyon: Unaweep Granite > Unaweep Canyon > Grand Junction Area > Colorado",https://www.mountainproject.com/route/109574082/mode-i-failure,2.0,-1,Trad,5.11-,1,100,38.81507,-108.60882
"Orange Crank","The Secret Stash > Ouray vicinity (rock) > Colorado",https://www.mountainproject.com/route/108128994/orange-crank,2.0,-1,Sport,5.11-,1,55,37.9825,-107.6449
Wanderer,"Zone 3 > Beyer's Walls > The Access Fund Trailhead > Main Canyon: Unaweep Granite > Unaweep Canyon > Grand Junction Area > Colorado",https://www.mountainproject.com/route/108036773/wanderer,2.0,-1,"Trad, Sport",5.11-,1,120,38.81716,-108.61106
"Warm Up","Warm Up Rock > Eldorado Mountain > Boulder > Colorado",https://www.mountainproject.com/route/108600068/warm-up,2.0,-1,"Trad, Sport","5.11- PG13",1,40,39.92003,-105.28238
"Funky, Cold Patina","Wall of The Ancients > Red Rocks > Naturita and Paradox Valley > Colorado",https://www.mountainproject.com/route/107846348/funky-cold-patina,2.0,-1,Sport,5.11-,1,80,38.27075,-108.72217
"No Name 4","Middle Mother's > Mother's Buttress > Main Canyon: Unaweep Granite > Unaweep Canyon > Grand Junction Area > Colorado",https://www.mountainproject.com/route/107940159/no-name-4,2.0,-1,"Trad, Sport",5.11-,1,100,38.81392,-108.61899
Trundlemaster,"Trundle Wall > Vallecito Crags > Durango > Colorado",https://www.mountainproject.com/route/106563870/trundlemaster,2.0,-1,Sport,5.11-,1,80,37.48822,-107.52691
"Goat Food","The Tan Buttresses > Mt. Blue Sky (formerly Mt. Evans) > Alpine Rock > Colorado",https://www.mountainproject.com/route/106249561/goat-food,2.0,-1,"Trad, Alpine",5.11-,5,600,39.61101,-105.65243
"The Last Caress","The Long Walk Wall > Lumpy Ridge > Estes Park Valley > Colorado",https://www.mountainproject.com/route/106268844/the-last-caress,2.0,-1,Trad,5.11-,1,60,40.4032,-105.5182
"Western Web","The Long Walk Wall > Lumpy Ridge > Estes Park Valley > Colorado",https://www.mountainproject.com/route/106269202/western-web,2.0,-1,Trad,5.11-,1,90,40.4032,-105.5182
Reacharound,"Common Courtesy Crag > Lumpy Ridge > Estes Park Valley > Colorado",https://www.mountainproject.com/route/105791767/reacharound,2.0,-1,Trad,5.11-,1,45,40.4032,-105.5182
"Murder Train","Kaleidoscope Wall > Land's End Area > Grand Mesa > Grand Junction Area > Colorado",https://www.mountainproject.com/route/109688662/murder-train,3.0,-1,Trad,5.11-,1,70,38.99968,-108.18159
"Rollercoaster of Love","Misspent Youth Wall > Land's End Area > Grand Mesa > Grand Junction Area > Colorado",https://www.mountainproject.com/route/107813211/rollercoaster-of-love,3.0,-1,Trad,5.11-,1,35,39.0054,-108.2014
"External Validation","The Pot Holes Area > Escalante Canyon > Grand Junction Area > Colorado",https://www.mountainproject.com/route/118242337/external-validation,2.0,-1,"Trad, Aid","5.11- C0-1",1,65,38.68026,-108.31231
"Somewhat Damaged","Misspent Youth Wall > Land's End Area > Grand Mesa > Grand Junction Area > Colorado",https://www.mountainproject.com/route/107813246/somewhat-damaged,2.0,-1,Trad,5.11-,1,35,39.0054,-108.2014
"Sandstone Entertainment","Bikini Buttress Area > Escalante Canyon > Grand Junction Area > Colorado",https://www.mountainproject.com/route/106600026/sandstone-entertainment,2.0,-1,Trad,5.11-,1,80,38.66658,-108.3416
"Straight Edge","Redgarden - Tower Two > Redgarden Wall > Eldorado Canyon State Park > Boulder > Colorado",https://www.mountainproject.com/route/123658525/straight-edge,3.0,-1,Trad,"5.11- R",1,80,39.9312,-105.28518
"Everything is B-Roll","4. Sector Mojito > Jacob's Hill > San Luis Valley > Colorado",https://www.mountainproject.com/route/123968542/everything-is-b-roll,2.0,-1,Trad,5.11-,1,70,37.33649,-106.26418
Weeze,"Cave Buttress > Mother's Buttress > Main Canyon: Unaweep Granite > Unaweep Canyon > Grand Junction Area > Colorado",https://www.mountainproject.com/route/124096145/weeze,2.5,-1,Trad,5.11-,1,90,38.81414,-108.61771
"Unknown (3rd bolt line from the left)","The Jumbotron > The Narrows > Carbondale Area > Colorado",https://www.mountainproject.com/route/124303951/unknown-3rd-bolt-line-from-the-left,3.0,-1,Sport,5.11-,1,90,39.23384,-107.23033
Boa,"Rattler Cliff Routes > Rattler Cliff > San Luis Valley > Colorado",https://www.mountainproject.com/route/124369949/boa,3.0,-1,Trad,5.11-,1,50,37.59716,-106.31588
"The Entertainment Center","Television Wall > The Access Fund Trailhead > Main Canyon: Unaweep Granite > Unaweep Canyon > Grand Junction Area > Colorado",https://www.mountainproject.com/route/124451949/the-entertainment-center,2.0,-1,Trad,5.11-,1,130,38.81507,-108.60882
"Mormon Tea","Sewemup Mesa > Gateway Vicinity aka The West End > Unaweep Canyon > Grand Junction Area > Colorado",https://www.mountainproject.com/route/124834992/mormon-tea,3.0,-1,Trad,5.11-,1,50,38.49259,-108.88521
