Route,Location,URL,"Avg Stars","Your Stars","Route Type",Rating,Pitches,Length,"Area Latitude","Area Longitude"
"The Naked Edge","Redgarden - Tower Two > Redgarden Wall > Eldorado Canyon State Park > Boulder > Colorado",https://www.mountainproject.com/route/105748786/the-naked-edge,3.9,-1,Trad,5.11b,6,460,39.9312,-105.28518
"Death and Transfiguration","Green Mountain Pinnacle > North > Flatirons > Boulder > Colorado",https://www.mountainproject.com/route/105750424/death-and-transfiguration,4.0,-1,Trad,5.11b,1,75,39.98318,-105.29422
"Yellow Wall","The Diamond > Long's Peak > RMNP - Rock > Alpine Rock > Colorado",https://www.mountainproject.com/route/105748493/yellow-wall,3.9,-1,"Trad, Alpine","5.11b R",8,1000,40.25617,-105.61384
"Whimsical Dreams","Turkey Tail > Turkey Rocks > South Platte > Colorado",https://www.mountainproject.com/route/105753136/whimsical-dreams,3.9,-1,Trad,5.11b,1,,39.11911,-105.23949
Vertigo,"Redgarden - Tower One > Redgarden Wall > Eldorado Canyon State Park > Boulder > Colorado",https://www.mountainproject.com/route/105748771/vertigo,3.8,-1,Trad,5.11b,4,,39.93194,-105.28603
"Devil Dog","Devil's Gate > Devil's Gate Sector > Devil's Head > South Platte > Colorado",https://www.mountainproject.com/route/110344979/devil-dog,3.9,-1,Sport,5.11b,1,80,39.34946,-105.08443
Silverado,"Contest Wall > Sand Gulch > Shelf Road > Canon City > Colorado",https://www.mountainproject.com/route/105755704/silverado,3.7,-1,Sport,5.11b,1,,38.62148,-105.23217
"Ddong Chim!","Upper Tan Corridor > Tan Corridor > Meadow Dome > Staunton Rocks > Staunton State Park > South Platte > Colorado",https://www.mountainproject.com/route/109210084/ddong-chim,3.7,-1,Sport,5.11b,1,65,39.51669,-105.39578
Feline,"Upper Ice Caves (Feline area) > Ice Cave Walls > Rifle Mountain Park > Rifle > Colorado",https://www.mountainproject.com/route/105756046/feline,3.7,-1,Sport,5.11b,1,,39.71269,-107.69257
Curvaceous,"Wall of the '90s > Clear Creek Canyon > Golden > Colorado",https://www.mountainproject.com/route/105750487/curvaceous,3.6,-1,Sport,5.11b,1,100,39.7388,-105.3222
"Lime Street","10. 2150 Wall > The Bank > Shelf Road > Canon City > Colorado",https://www.mountainproject.com/route/105752587/lime-street,3.6,-1,Sport,5.11b,1,,38.63179,-105.22852
"Illegal Smile","A. Cactus Cliff Far Left (left of Muscle Beach) > Cactus Cliff > Shelf Road > Canon City > Colorado",https://www.mountainproject.com/route/105929386/illegal-smile,3.6,-1,Sport,5.11b,1,80,38.6324,-105.22269
"Rumor Has It","The Sapper Cave > Rifle Mountain Park > Rifle > Colorado",https://www.mountainproject.com/route/105985455/rumor-has-it,3.5,-1,Sport,5.11b,1,100,39.71953,-107.69026
"Pansee Sauvage","Redgarden - S Buttress > Redgarden Wall > Eldorado Canyon State Park > Boulder > Colorado",https://www.mountainproject.com/route/105753511/pansee-sauvage,3.6,-1,"Trad, Sport","5.11b R",1,85,39.93119,-105.28395
Crystal,"The Gym > Shelf Road > Canon City > Colorado",https://www.mountainproject.com/route/105758512/crystal,3.5,-1,Sport,5.11b,1,60,38.6329,-105.2165
Regroovable,"Contest Wall > Sand Gulch > Shelf Road > Canon City > Colorado",https://www.mountainproject.com/route/105748690/regroovable,3.5,-1,Sport,5.11b,1,,38.62148,-105.23217
"Tales of Power","Dream Dome > Upper Dream Canyon > Boulder > Colorado",https://www.mountainproject.com/route/105748547/tales-of-power,3.5,-1,Sport,5.11b,2,150,40.00952,-105.40892
"Howdy Doody Time","Dude's Throne > Golden Gate Canyon SP > Golden > Colorado",https://www.mountainproject.com/route/106958759/howdy-doody-time,3.4,-1,Sport,5.11b,1,80,39.86231,-105.41224
"Dear Slabby","The Palace Pages > The Palace > Poudre Canyon > Fort Collins > Colorado",https://www.mountainproject.com/route/105916773/dear-slabby,3.5,-1,Sport,5.11b,1,50,40.69444,-105.37934
"Night Stick","G. Right Side > Left Wire > Clear Creek Canyon > Golden > Colorado",https://www.mountainproject.com/route/106328578/night-stick,3.3,-1,Sport,5.11b,1,60,39.7378,-105.3202
"Sunset Boulevard","The Bastille - W Face > The Bastille > Eldorado Canyon State Park > Boulder > Colorado",https://www.mountainproject.com/route/105756595/sunset-boulevard,3.3,-1,Sport,5.11b,1,,39.9304,-105.283
"Muted by Reality","The Dark Side > Shelf Road > Canon City > Colorado",https://www.mountainproject.com/route/105754711/muted-by-reality,3.4,-1,Sport,5.11b,1,,38.6281,-105.2239
"Hanging Judge","Wall of Justice > Clear Creek Canyon > Golden > Colorado",https://www.mountainproject.com/route/105752059/hanging-judge,3.3,-1,Sport,5.11b,1,,39.7374,-105.3202
Suparete,"Redgarden - Below Lower Ramp > Redgarden Wall > Eldorado Canyon State Park > Boulder > Colorado",https://www.mountainproject.com/route/105749953/suparete,3.3,-1,"Trad, Sport",5.11b,1,,39.9309,-105.28548
Divination,"Lost Angel > Upper Dream Canyon > Boulder > Colorado",https://www.mountainproject.com/route/105748571/divination,3.3,-1,Sport,5.11b,3,,40.0089,-105.41
"80 Feet of Meat","Meat Wall > Rifle Mountain Park > Rifle > Colorado",https://www.mountainproject.com/route/105753391/80-feet-of-meat,3.2,-1,Sport,5.11b,1,,39.72096,-107.6897
"Ballet of the Bulge","Southwest Alcove > Crystal Wall > Poudre Canyon > Fort Collins > Colorado",https://www.mountainproject.com/route/105972263/ballet-of-the-bulge,3.2,-1,Sport,5.11b,1,40,40.69322,-105.3765
"Hunky Monkey","Lost Angel > Upper Dream Canyon > Boulder > Colorado",https://www.mountainproject.com/route/105762177/hunky-monkey,3.1,-1,Sport,5.11b,4,300,40.0089,-105.41
"Regular Route","Practice Rock > Boulder Canyon > Boulder > Colorado",https://www.mountainproject.com/route/105748466/regular-route,3.1,-1,"Trad, TR",5.11b,1,,40.0017,-105.4133
"Arch Crack","The Vestibule > The Monastery > Big Thompson Canyon > Estes Park Valley > Colorado",https://www.mountainproject.com/route/105756655/arch-crack,3.0,-1,Sport,5.11b,1,,40.45334,-105.36914
"Tsunami Of Charisma","Little Eiger > Clear Creek Canyon > Golden > Colorado",https://www.mountainproject.com/route/105829983/tsunami-of-charisma,3.0,-1,Sport,5.11b,1,115,39.7432,-105.2991
Dynamometer,"The Fin > Jurassic Park - Lily Lake > CO Hwy 7 & Tributaries > Estes Park Valley > Colorado",https://www.mountainproject.com/route/105762162/dynamometer,3.0,-1,"Trad, Sport",5.11b,1,90,40.3127,-105.5411
"Hot Dog","The Dog House > Clear Creek Canyon > Golden > Colorado",https://www.mountainproject.com/route/105749167/hot-dog,3.0,-1,Sport,5.11b,1,,39.7436,-105.40788
Evangeline,"Redgarden - Roof Routes > Redgarden Wall > Eldorado Canyon State Park > Boulder > Colorado",https://www.mountainproject.com/route/105763740/evangeline,3.1,-1,"Sport, Aid","5.11b A1",3,,39.93112,-105.2846
"Uplift Mofo Party Plan","Dude's Throne > Golden Gate Canyon SP > Golden > Colorado",https://www.mountainproject.com/route/107293986/uplift-mofo-party-plan,2.9,-1,Sport,5.11b,1,60,39.86231,-105.41224
"Touch Monkey","Der Zerkle > Central > Flatirons > Boulder > Colorado",https://www.mountainproject.com/route/105755617/touch-monkey,2.9,-1,"Sport, TR",5.11b,1,40,39.9741,-105.2881
"Dereliction Affliction","B. Cactus Cliff Left (Muscle Beach & right) > Cactus Cliff > Shelf Road > Canon City > Colorado",https://www.mountainproject.com/route/105754837/dereliction-affliction,3.0,-1,Sport,5.11b,1,75,38.6318,-105.22196
"Morning Stretch","The Gym > Shelf Road > Canon City > Colorado",https://www.mountainproject.com/route/105758482/morning-stretch,2.9,-1,Sport,5.11b,1,80,38.6329,-105.2165
"Sleepless in Boulder","Left Side > Plotinus Wall > Lower Dream Canyon > Boulder Canyon > Boulder > Colorado",https://www.mountainproject.com/route/105756106/sleepless-in-boulder,2.9,-1,Sport,5.11b,1,,40.00668,-105.40689
"The Nordwand","Little Eiger > Clear Creek Canyon > Golden > Colorado",https://www.mountainproject.com/route/105748244/the-nordwand,2.8,-1,Sport,5.11b,2,,39.7432,-105.2991
"Stained Glass","Dream Dome > Upper Dream Canyon > Boulder > Colorado",https://www.mountainproject.com/route/105748544/stained-glass,2.8,-1,Sport,5.11b,2,180,40.00952,-105.40892
Herb-A-Med-Veg-A-Matic,"The Highlands aka Highlander > Clear Creek Canyon > Golden > Colorado",https://www.mountainproject.com/route/105759783/herb-a-med-veg-a-matic,2.8,-1,Sport,5.11b,1,95,39.73821,-105.3164
"Owl On The Prowl","Owl Prow > The Sport Park > Boulder Canyon > Boulder > Colorado",https://www.mountainproject.com/route/105755044/owl-on-the-prowl,2.8,-1,Sport,5.11b,1,,39.9728,-105.4636
"Pile Driver","Skull Cave > Rifle Mountain Park > Rifle > Colorado",https://www.mountainproject.com/route/105753502/pile-driver,2.7,-1,Sport,5.11b,1,,39.71129,-107.69144
"Dude's Dihedral","Dude's Throne > Golden Gate Canyon SP > Golden > Colorado",https://www.mountainproject.com/route/107660432/dudes-dihedral,2.7,-1,Sport,5.11b,1,60,39.86231,-105.41224
"Choss Temple Pilots","Bauhaus Wall > Rifle Mountain Park > Rifle > Colorado",https://www.mountainproject.com/route/105753628/choss-temple-pilots,2.7,-1,Sport,5.11b,1,,39.71552,-107.69174
"Absolution (submitted as Hot if You're Not aka The Brown Eye Wall)","Der Zerkle > Central > Flatirons > Boulder > Colorado",https://www.mountainproject.com/route/105751339/absolution-submitted-as-hot-if-youre-not-aka-the-brown-eye-wall,2.7,-1,Sport,5.11b,1,45,39.9741,-105.2881
Requiem,"South Facing > Lower Tier > Rifle Mountain Park > Rifle > Colorado",https://www.mountainproject.com/route/111016186/requiem,3.5,-1,Sport,5.11b,1,70,39.71049,-107.69133
"Village Idiot","Free Form Wall > Sand Gulch > Shelf Road > Canon City > Colorado",https://www.mountainproject.com/route/105753565/village-idiot,2.6,-1,Sport,5.11b,1,30,38.6218,-105.23101
"Jules Verne","Redgarden - Tower Two > Redgarden Wall > Eldorado Canyon State Park > Boulder > Colorado",https://www.mountainproject.com/route/105757420/jules-verne,3.6,-1,Trad,"5.11b R",6,700,39.9312,-105.28518
Borat,"The Funny Face > Ice Cave Walls > Rifle Mountain Park > Rifle > Colorado",https://www.mountainproject.com/route/107207724/borat,2.6,-1,Sport,5.11b,1,60,39.71141,-107.69251
"Tierra Del Fuego","Little Eiger > Clear Creek Canyon > Golden > Colorado",https://www.mountainproject.com/route/105763815/tierra-del-fuego,2.6,-1,Sport,5.11b,1,100,39.7432,-105.2991
"Bad Girls Get Spanked","Main Crag > The Bowling Alley > Boulder Canyon > Boulder > Colorado",https://www.mountainproject.com/route/105752563/bad-girls-get-spanked,2.6,-1,"Sport, TR",5.11b,1,,40.00238,-105.41307
"It's Miller Time","Contest Wall > Sand Gulch > Shelf Road > Canon City > Colorado",https://www.mountainproject.com/route/105748699/its-miller-time,2.5,-1,Sport,5.11b,1,60,38.62148,-105.23217
"Bottom Feeder","Project Wall > Rifle Mountain Park > Rifle > Colorado",https://www.mountainproject.com/route/105762201/bottom-feeder,2.4,-1,Sport,5.11b,1,70,39.71873,-107.69094
"Winter's End","The Sno-Cone Cave > Rifle Mountain Park > Rifle > Colorado",https://www.mountainproject.com/route/108159481/winters-end,2.4,-1,Sport,5.11b,1,50,39.70651,-107.69446
Conehead,"Little Eiger > Clear Creek Canyon > Golden > Colorado",https://www.mountainproject.com/route/105752596/conehead,2.4,-1,Sport,5.11b,1,,39.7432,-105.2991
"Slender Fungus","Menses Prow > The Gallery > Shelf Road > Canon City > Colorado",https://www.mountainproject.com/route/105752905/slender-fungus,2.4,-1,Sport,5.11b,2,,38.6199,-105.2371
Primer,"Ruckman Cave > Rifle Mountain Park > Rifle > Colorado",https://www.mountainproject.com/route/105753757/primer,2.4,-1,Sport,5.11b,1,,39.72098,-107.69019
"Deutsches Blut","Upper Ice Caves (Feline area) > Ice Cave Walls > Rifle Mountain Park > Rifle > Colorado",https://www.mountainproject.com/route/108290565/deutsches-blut,2.3,-1,Sport,5.11b,1,60,39.71269,-107.69257
"Father Figure","Lower Right Side > The Bowling Alley > Boulder Canyon > Boulder > Colorado",https://www.mountainproject.com/route/105760224/father-figure,2.4,-1,Sport,5.11b,1,50,40.0021,-105.4127
"Free Up The Weed","Little Eiger > Clear Creek Canyon > Golden > Colorado",https://www.mountainproject.com/route/105764232/free-up-the-weed,2.3,-1,Sport,5.11b,1,120,39.7432,-105.2991
Kwik-E-Mart,"Convenience Cliff > Clear Creek Canyon > Golden > Colorado",https://www.mountainproject.com/route/106016391/kwik-e-mart,2.5,-1,Sport,5.11b,1,50,39.73889,-105.41411
"Natural Selection","Little Eiger > Clear Creek Canyon > Golden > Colorado",https://www.mountainproject.com/route/105748235/natural-selection,2.4,-1,Sport,5.11b,1,150,39.7432,-105.2991
"Hostile Crankover","05. Thunder Tactics > The Bank > Shelf Road > Canon City > Colorado",https://www.mountainproject.com/route/105753865/hostile-crankover,2.6,-1,Sport,5.11b,1,,38.63406,-105.23074
"Natty Dread","The Gym > Shelf Road > Canon City > Colorado",https://www.mountainproject.com/route/105862484/natty-dread,2.8,-1,Sport,5.11b,1,80,38.6329,-105.2165
"Chicken Lips","Chicken Wall > The Clock Tower > The Sport Park > Boulder Canyon > Boulder > Colorado",https://www.mountainproject.com/route/105752275/chicken-lips,2.2,-1,Sport,5.11b,1,,39.97234,-105.4631
"South Crack","The Maiden > South > Flatirons > Boulder > Colorado",https://www.mountainproject.com/route/105761919/south-crack,3.5,-1,Trad,5.11b,1,120,39.95002,-105.28719
"Tooth Fairy","Left Side > Plotinus Wall > Lower Dream Canyon > Boulder Canyon > Boulder > Colorado",https://www.mountainproject.com/route/105756427/tooth-fairy,2.0,-1,Sport,5.11b,1,,40.00668,-105.40689
"Delicious Demon","Snake Eyes Wall > The Narrows > Poudre Canyon > Fort Collins > Colorado",https://www.mountainproject.com/route/107087793/delicious-demon,3.4,-1,Sport,5.11b,1,55,40.67779,-105.43057
"Road to Redemption","The Chamber > The Palace > Poudre Canyon > Fort Collins > Colorado",https://www.mountainproject.com/route/106009209/road-to-redemption,3.0,-1,Sport,5.11b,1,95,40.56834,-105.09235
"Forbidden Planet","Lower Peanuts > Peanuts Walls > Eldorado Canyon State Park > Boulder > Colorado",https://www.mountainproject.com/route/105755236/forbidden-planet,3.0,-1,Sport,5.11b,1,,39.92885,-105.28656
"Return of the Headhunters","Spiney Ridge > Shelf Road > Canon City > Colorado",https://www.mountainproject.com/route/106036922/return-of-the-headhunters,2.4,-1,Sport,5.11b,1,60,38.6307,-105.2178
"St. Patty's Slab","The Gym > Shelf Road > Canon City > Colorado",https://www.mountainproject.com/route/105761394/st-pattys-slab,2.7,-1,Sport,5.11b,1,90,38.6329,-105.2165
Escalando,"E. Cactus Cliff Far Right (Funkdemental and right) > Cactus Cliff > Shelf Road > Canon City > Colorado",https://www.mountainproject.com/route/105754840/escalando,2.5,-1,Sport,5.11b,1,80,38.63066,-105.21961
"Bachar  Up Against The Wall And Kauk Him","Cactus Rose Cliff > The Bank > Shelf Road > Canon City > Colorado",https://www.mountainproject.com/route/105752812/bachar-up-against-the-wall-and-kauk-him,2.9,-1,Sport,5.11b,1,50,38.63385,-105.23274
"Chump Change","Cash Wall > Shelf Road > Canon City > Colorado",https://www.mountainproject.com/route/105950007/chump-change,2.9,-1,Sport,5.11b,1,60,38.6334,-105.2239
"Motley Cruise","Bauhaus Wall > Rifle Mountain Park > Rifle > Colorado",https://www.mountainproject.com/route/105753934/motley-cruise,2.6,-1,Sport,5.11b,1,,39.71552,-107.69174
"The Bends","Radio Head > Devil's Head > South Platte > Colorado",https://www.mountainproject.com/route/106859816/the-bends,3.8,-1,Trad,5.11b,2,200,39.26976,-105.11789
"Fleece Pocket","Main Elk Crag > Main Elk Creek > Glenwood Springs > Colorado",https://www.mountainproject.com/route/114013159/fleece-pocket,3.3,-1,Sport,5.11b,1,65,39.68301,-107.57778
"Last Chance","5. Iron Side Wall > Monitor Rock > Independence Pass > Colorado",https://www.mountainproject.com/route/105754825/last-chance,3.7,-1,Sport,5.11b,1,125,39.0726,-106.4513
"Escape from Alcatraz","River Wall II > Longmont Reservoir Area (aka Buttonrock) > North Fork of the St. Vrain River > St. Vrain Canyons > Lyons > Colorado",https://www.mountainproject.com/route/105753997/escape-from-alcatraz,2.7,-1,"Sport, TR",5.11b,1,80,40.229,-105.34538
"Disciples of Hell","01. Piggy Bank > The Bank > Shelf Road > Canon City > Colorado",https://www.mountainproject.com/route/106621265/disciples-of-hell,2.2,-1,Sport,5.11b,1,70,38.63547,-105.23428
"Finger Crack","Little Twin Owls > Lumpy Ridge > Estes Park Valley > Colorado",https://www.mountainproject.com/route/105749101/finger-crack,3.1,-1,"Trad, TR",5.11b,1,,40.40266,-105.52391
"Riding with the Ravens","C. Wizard's Gate > Lower Great Face > The Crags > CO Hwy 7 & Tributaries > Estes Park Valley > Colorado",https://www.mountainproject.com/route/106888858/riding-with-the-ravens,3.1,-1,Sport,5.11b,1,95,40.30276,-105.52422
"The Side Wall","West Ridge - part C - Pony Express to Long John > The West Ridge > Eldorado Canyon State Park > Boulder > Colorado",https://www.mountainproject.com/route/105758224/the-side-wall,3.4,-1,Trad,"5.11b R",2,120,39.93203,-105.28849
"Miner's Delight","Ra > Empire > Colorado",https://www.mountainproject.com/route/105760695/miners-delight,3.4,-1,Sport,5.11b,2,200,39.76827,-105.74296
"Pierced Lip Lock","The Grendel > Golden Gate Canyon SP > Golden > Colorado",https://www.mountainproject.com/route/107217990/pierced-lip-lock,3.5,-1,Sport,5.11b,1,80,39.87665,-105.41914
"Par Six","Right Side > Golf Wall > Durango > Colorado",https://www.mountainproject.com/route/105941553/par-six,3.0,-1,Sport,5.11b,1,50,37.51621,-107.81543
"Jonny Rotten","Punk Rock > Clear Creek Canyon > Golden > Colorado",https://www.mountainproject.com/route/105864509/jonny-rotten,2.7,-1,Sport,5.11b,1,95,39.7373,-105.325
"Rebel Yell","Winterfest Wall > North Table Mountain/Golden Cliffs > Golden > Colorado",https://www.mountainproject.com/route/105755110/rebel-yell,2.7,-1,Sport,5.11b,1,,39.76953,-105.22006
"Tora, Tora, Tora","Overhang Area > North Table Mountain/Golden Cliffs > Golden > Colorado",https://www.mountainproject.com/route/105748597/tora-tora-tora,2.7,-1,Trad,5.11b,1,,39.76834,-105.21612
Scorpions,"Lower Peanuts > Peanuts Walls > Eldorado Canyon State Park > Boulder > Colorado",https://www.mountainproject.com/route/105760938/scorpions,2.9,-1,Trad,5.11b,1,90,39.92885,-105.28656
"Turf Spreader","Cynical Pinnacle > Cathedral Spires Area > South Platte > Colorado",https://www.mountainproject.com/route/105760848/turf-spreader,3.4,-1,Trad,5.11b,3,300,39.42059,-105.25164
"The Vaporizer","Redgarden - S Buttress > Redgarden Wall > Eldorado Canyon State Park > Boulder > Colorado",https://www.mountainproject.com/route/106656391/the-vaporizer,3.6,-1,Sport,5.11b,1,170,39.93119,-105.28395
"Living Dead","Isis Buttress > The Book > Lumpy Ridge > Estes Park Valley > Colorado",https://www.mountainproject.com/route/105756967/living-dead,3.5,-1,Trad,5.11b,1,70,40.40622,-105.5347
"Crawling Up Roseanne's Belly","Winterfest Wall > North Table Mountain/Golden Cliffs > Golden > Colorado",https://www.mountainproject.com/route/105755734/crawling-up-roseannes-belly,2.8,-1,Sport,5.11b,1,,39.76953,-105.22006
"Desert Solitaire","Monument Canyon > Colorado National Monument > Grand Junction Area > Colorado",https://www.mountainproject.com/route/105761865/desert-solitaire,3.5,-1,"Trad, Aid","5.11b C0",6,350,39.10162,-108.72271
"Black Magic Spell","Piedra River -  Lower West > Piedra River > Pagosa Springs > Colorado",https://www.mountainproject.com/route/107199683/black-magic-spell,3.9,-1,"Trad, Sport",5.11b,1,70,37.4197,-107.1968
Encore,"Oceanic Wall > Upper Dream Canyon > Boulder > Colorado",https://www.mountainproject.com/route/113163563/encore,2.5,-1,Sport,5.11b,1,,40.0099,-105.4089
"The Function","The North End > Shelf Road > Canon City > Colorado",https://www.mountainproject.com/route/106032123/the-function,3.6,-1,Sport,5.11b,1,66,38.6452,-105.2205
Morpheus,"Left Side > Plotinus Wall > Lower Dream Canyon > Boulder Canyon > Boulder > Colorado",https://www.mountainproject.com/route/105756400/morpheus,2.6,-1,"Trad, Sport",5.11b,1,,40.00668,-105.40689
"The Obelisk","The Diamond > Long's Peak > RMNP - Rock > Alpine Rock > Colorado",https://www.mountainproject.com/route/105760533/the-obelisk,3.7,-1,"Trad, Alpine",5.11b,7,600,40.25617,-105.61384
Interceptor,"The Bastille - N Face > The Bastille > Eldorado Canyon State Park > Boulder > Colorado",https://www.mountainproject.com/route/105754171/interceptor,3.3,-1,Trad,"5.11b R",1,,39.9307,-105.283
"Cool Thing","Child Free Zone (aka Parkway Crags) > North Table Mountain/Golden Cliffs > Golden > Colorado",https://www.mountainproject.com/route/105761619/cool-thing,2.0,-1,Sport,5.11b,1,60,39.76855,-105.21396
"Lizard With a View","Far Side > The Gallery > Shelf Road > Canon City > Colorado",https://www.mountainproject.com/route/106094072/lizard-with-a-view,3.2,-1,Sport,5.11b,1,75,38.6187,-105.2377
"Life After James","December Wall > South Fork of St. Vrain Canyon > St. Vrain Canyons > Lyons > Colorado",https://www.mountainproject.com/route/105761526/life-after-james,2.9,-1,Sport,5.11b,3,220,40.19871,-105.33055
"Systemic Risk","The Fiscal Cliff > Clear Creek Canyon > Golden > Colorado",https://www.mountainproject.com/route/107860363/systemic-risk,2.1,-1,Sport,5.11b,1,50,39.74583,-105.40496
"Cask Strength","The Gym > Shelf Road > Canon City > Colorado",https://www.mountainproject.com/route/106417009/cask-strength,2.5,-1,Sport,5.11b,1,,38.6329,-105.2165
"Generation X","01. Piggy Bank > The Bank > Shelf Road > Canon City > Colorado",https://www.mountainproject.com/route/107380855/generation-x,2.4,-1,Sport,5.11b,1,52,38.63547,-105.23428
Pi,"Main Elk Crag > Main Elk Creek > Glenwood Springs > Colorado",https://www.mountainproject.com/route/116117818/pi,3.2,-1,Sport,5.11b,1,60,39.68301,-107.57778
"Printer Boy","6. Endless Wall > Monitor Rock > Independence Pass > Colorado",https://www.mountainproject.com/route/105755866/printer-boy,2.6,-1,Sport,5.11b,2,,39.0726,-106.4513
"Gray Matter","Streaked Wall > The Falls Walls > Telluride/Norwood area > Colorado",https://www.mountainproject.com/route/106232211/gray-matter,3.4,-1,Sport,5.11b,1,,37.9199,-107.7758
"Bilbo Baggins","Gollum's Cave > Grottos Day Use Area > Independence Pass > Colorado",https://www.mountainproject.com/route/106255085/bilbo-baggins,3.0,-1,Sport,5.11b,1,45,39.11913,-106.70247
"El Supremo","Wigwam Dome > Wigwam Creek/Lost Creek Wilderness > South Platte > Colorado",https://www.mountainproject.com/route/105763152/el-supremo,4.0,-1,"Trad, Sport","5.11b R",5,550,39.26137,-105.36789
"Little Bear","Scout Rock > South Fork of St. Vrain Canyon > St. Vrain Canyons > Lyons > Colorado",https://www.mountainproject.com/route/105750382/little-bear,2.2,-1,"Sport, TR",5.11b,1,70,40.2037,-105.3111
"Defective Agency","The East Quarry > North Table Mountain/Golden Cliffs > Golden > Colorado",https://www.mountainproject.com/route/106367293/defective-agency,2.5,-1,Sport,5.11b,1,50,39.77286,-105.20459
"Class Act","Cynical Pinnacle > Cathedral Spires Area > South Platte > Colorado",https://www.mountainproject.com/route/105758823/class-act,3.0,-1,Trad,"5.11b R",1,60,39.42059,-105.25164
"Pet Semetary","The Sports Wall > Clear Creek Canyon > Golden > Colorado",https://www.mountainproject.com/route/105749986/pet-semetary,2.6,-1,"Trad, Sport",5.11b,1,,39.74561,-105.24985
Hip-Op,"New Hipster Rock > Clear Creek Canyon > Golden > Colorado",https://www.mountainproject.com/route/105953998/hip-op,2.4,-1,Sport,5.11b,1,40,39.74438,-105.25252
Hanu,"Pup Tent of Solitude > Main Elk Creek > Glenwood Springs > Colorado",https://www.mountainproject.com/route/107891803/hanu,3.1,-1,Sport,5.11b,1,90,39.68296,-107.57729
"Tooth or Consequences","Pup Tent of Solitude > Main Elk Creek > Glenwood Springs > Colorado",https://www.mountainproject.com/route/106956135/tooth-or-consequences,3.1,-1,Sport,5.11b,1,70,39.68296,-107.57729
"Shining Path","Sunshine Dome > Goose Creek/Molly Gulch Campground > South Platte > Colorado",https://www.mountainproject.com/route/105943020/shining-path,3.9,-1,Trad,5.11b,4,,39.16311,-105.3273
"Smell The Coffee","Lower Ice Caves > Ice Cave Walls > Rifle Mountain Park > Rifle > Colorado",https://www.mountainproject.com/route/106170117/smell-the-coffee,2.7,-1,Sport,5.11b,1,70,39.70939,-107.69332
"Watch Your Dog","Mill Creek Block > Dumont vicinity > Colorado",https://www.mountainproject.com/route/107710047/watch-your-dog,2.8,-1,Sport,5.11b,1,60,39.7843,-105.6251
"Get a Job","The Highlands aka Highlander > Clear Creek Canyon > Golden > Colorado",https://www.mountainproject.com/route/105751309/get-a-job,2.3,-1,Sport,5.11b,1,110,39.73821,-105.3164
"Cig Arete","The Upper Wall > First Buttress > Taylor Canyon > Gunnison > Colorado",https://www.mountainproject.com/route/112475022/cig-arete,4.0,-1,Sport,5.11b,1,130,38.72589,-106.77013
"Psycho Hose Beast","The Monkey House > Clear Creek Canyon > Golden > Colorado",https://www.mountainproject.com/route/105759774/psycho-hose-beast,2.0,-1,Sport,5.11b,1,70,39.73978,-105.32146
"Astro Turkey","Sunshine Wall > Cathedral Spires Area > South Platte > Colorado",https://www.mountainproject.com/route/105753871/astro-turkey,3.2,-1,Trad,5.11b,1,,39.42096,-105.25683
"Direct West Face a/k/a Western Skyline","Third Flatiron > North > Flatirons > Boulder > Colorado",https://www.mountainproject.com/route/106517646/direct-west-face-aka-western-skyline,3.6,-1,Trad,5.11b,1,135,39.9874,-105.29196
Drugs,"Der Freischutz > Central > Flatirons > Boulder > Colorado",https://www.mountainproject.com/route/105751327/drugs,2.9,-1,Sport,5.11b,1,50,39.9732,-105.28888
"The Crack's On Top","The Dark Side > Shelf Road > Canon City > Colorado",https://www.mountainproject.com/route/105753034/the-cracks-on-top,2.8,-1,Sport,5.11b,1,,38.6281,-105.2239
"Check Your Six","The Poudre Face > The Palace > Poudre Canyon > Fort Collins > Colorado",https://www.mountainproject.com/route/105911582/check-your-six,2.8,-1,Sport,5.11b,1,80,40.69454,-105.37842
Meltdown,"3. Trailhead Wall > Monitor Rock > Independence Pass > Colorado",https://www.mountainproject.com/route/110629043/meltdown,2.9,-1,Trad,5.11b,5,450,39.0726,-106.4513
Fullphilment,"Anti-Phil Wall > Rifle Mountain Park > Rifle > Colorado",https://www.mountainproject.com/route/106287380/fullphilment,2.5,-1,Sport,5.11b,1,100,39.71897,-107.69163
"Unknown AKA the Black Ark","Aircraft Carrier Boulder > Cathedral Spires Bouldering > Cathedral Spires Area > South Platte > Colorado",https://www.mountainproject.com/route/121337678/unknown-aka-the-black-ark,4.0,-1,"Trad, Boulder","5.11b V2-3",1,25,39.41564,-105.2676
"Catch a Wave","Sunday Wall > The Access Fund Trailhead > Main Canyon: Unaweep Granite > Unaweep Canyon > Grand Junction Area > Colorado",https://www.mountainproject.com/route/105754723/catch-a-wave,3.1,-1,Sport,5.11b,1,,38.81832,-108.60765
"Cornered Rats","The Red Wall > Devil's Head > South Platte > Colorado",https://www.mountainproject.com/route/105754372/cornered-rats,3.4,-1,Sport,5.11b,1,,39.25661,-105.10023
"Mr. Peery Take A Bow","Overhang Area > North Table Mountain/Golden Cliffs > Golden > Colorado",https://www.mountainproject.com/route/105749755/mr-peery-take-a-bow,2.1,-1,Sport,5.11b,1,,39.76834,-105.21612
"Ice Cream Hangover","06. Surreal Estate > The Bank > Shelf Road > Canon City > Colorado",https://www.mountainproject.com/route/105753082/ice-cream-hangover,2.1,-1,Sport,5.11b,1,,38.63364,-105.23047
Entrepreneur,"Upper Capitalist Crag > Capitalist Crag > Clear Creek Canyon > Golden > Colorado",https://www.mountainproject.com/route/106856388/entrepreneur,2.7,-1,Sport,5.11b,1,75,39.74014,-105.32785
"Edge of Fright","Poe Buttress > Cathedral Spires Area > South Platte > Colorado",https://www.mountainproject.com/route/106074610/edge-of-fright,3.9,-1,Trad,"5.11b R",2,200,39.42141,-105.2548
Truth,"Game Wall > Grottos Day Use Area > Independence Pass > Colorado",https://www.mountainproject.com/route/106204802/truth,4.0,-1,Sport,5.11b,1,75,39.12222,-106.70244
Evolution,"I. Watch Crystal > East  Animas > Durango > Colorado",https://www.mountainproject.com/route/105820895/evolution,3.0,-1,Sport,5.11b,1,100,37.32033,-107.83351
Billy,"The Mission Wall > Clear Creek Canyon > Golden > Colorado",https://www.mountainproject.com/route/105755881/billy,2.9,-1,Sport,5.11b,1,120,39.7392,-105.323
Cerberus,"The Labyrinth > Meadow Dome > Staunton Rocks > Staunton State Park > South Platte > Colorado",https://www.mountainproject.com/route/109360912/cerberus,2.7,-1,Sport,5.11b,1,80,39.51593,-105.3949
"Hidden Treasure","Private Idaho > Devil's Head > South Platte > Colorado",https://www.mountainproject.com/route/105754354/hidden-treasure,3.9,-1,Sport,5.11b,1,,39.25715,-105.09857
"Totally High Maintenance","H. Overview & Waterfall > East  Animas > Durango > Colorado",https://www.mountainproject.com/route/106461119/totally-high-maintenance,3.3,-1,Sport,5.11b,1,100,37.31829,-107.83599
Shrek,"Amphitheater Wall > Performance Climbing Park > Estes Park Valley > Colorado",https://www.mountainproject.com/route/112871265/shrek,2.5,-1,Sport,5.11b,1,40,40.37748,-105.52879
"Simple Mind","Sunday Wall > The Access Fund Trailhead > Main Canyon: Unaweep Granite > Unaweep Canyon > Grand Junction Area > Colorado",https://www.mountainproject.com/route/105989735/simple-mind,2.9,-1,Sport,5.11b,1,50,38.81832,-108.60765
Wormhole,"Astronomy Wall > East Side Crags > Poudre Falls > West of Rustic > Poudre Canyon > Fort Collins > Colorado",https://www.mountainproject.com/route/117137596/wormhole,3.3,-1,Sport,5.11b,1,70,40.64791,-105.80928
"Smeagol's Way","Ra > Empire > Colorado",https://www.mountainproject.com/route/105760728/smeagols-way,2.9,-1,Sport,5.11b,1,90,39.76827,-105.74296
Clyde,"The Dark Side > Shelf Road > Canon City > Colorado",https://www.mountainproject.com/route/105752719/clyde,2.0,-1,Sport,5.11b,1,,38.6281,-105.2239
"Young, Blonde, and Easy","Lower Peanuts > Peanuts Walls > Eldorado Canyon State Park > Boulder > Colorado",https://www.mountainproject.com/route/106844218/young-blonde-and-easy,3.3,-1,Trad,"5.11b PG13",1,80,39.92885,-105.28656
"The Hanging Garden","Overlook Cliff > Ouray vicinity (rock) > Colorado",https://www.mountainproject.com/route/107668654/the-hanging-garden,2.9,-1,Sport,5.11b,1,80,38.0138,-107.6771
Entropy,"Dihedrals Wall > Sheep Mountain > The Narrows > Poudre Canyon > Fort Collins > Colorado",https://www.mountainproject.com/route/115959436/entropy,3.3,-1,Trad,5.11b,1,90,40.67896,-105.42378
"Tribal Boundary","10. 2150 Wall > The Bank > Shelf Road > Canon City > Colorado",https://www.mountainproject.com/route/105752629/tribal-boundary,2.5,-1,Sport,5.11b,1,,38.63179,-105.22852
"Jorts are the New Lycra","Main Elk Crag > Main Elk Creek > Glenwood Springs > Colorado",https://www.mountainproject.com/route/112537488/jorts-are-the-new-lycra,2.8,-1,Sport,5.11b,1,75,39.68301,-107.57778
"Trickster in Black","The Raven > Staunton State Park > South Platte > Colorado",https://www.mountainproject.com/route/114442991/trickster-in-black,2.9,-1,Trad,5.11b,1,100,39.50262,-105.36836
Sleep,"Whiskey Rocks North > Whiskey Rocks > Goose Creek/Molly Gulch Campground > South Platte > Colorado",https://www.mountainproject.com/route/118800027/sleep,3.8,-1,"Trad, TR, Boulder","5.11b V4",1,69,39.22001,-105.33287
"Stay True (aka NoName 3)","Lower Wall > Puoux > Glenwood Canyon > Glenwood Springs > Colorado",https://www.mountainproject.com/route/105754765/stay-true-aka-noname-3,2.5,-1,Sport,5.11b,1,50,39.5624,-107.30452
"The Thrill","Porcupine Rock > Keystone a.k.a. Montezuma > Colorado",https://www.mountainproject.com/route/122709478/the-thrill,3.8,-1,Sport,5.11b,1,90,39.61037,-105.92688
"Invaders from the North","Falls Wall > Castlewood Canyon SP > Denver South > Colorado",https://www.mountainproject.com/route/105754285/invaders-from-the-north,3.1,-1,Sport,5.11b,1,,39.34823,-104.75964
Saturnalia,"The Bastille - N Face > The Bastille > Eldorado Canyon State Park > Boulder > Colorado",https://www.mountainproject.com/route/105760563/saturnalia,2.4,-1,Trad,"5.11b PG13",1,100,39.9307,-105.283
5.11b,"The Egg > Valley of The Chickens > Badger Flats > Badger Mountain > South Platte > Colorado",https://www.mountainproject.com/route/113590744/511b,3.5,-1,Sport,5.11b,1,,39.10053,-105.52281
"Arthur's Lip Service","Far Side > The Gallery > Shelf Road > Canon City > Colorado",https://www.mountainproject.com/route/111174445/arthurs-lip-service,3.2,-1,Sport,5.11b,1,70,38.6187,-105.2377
"Alien In My Underpants","Penitente - Entrance Area > Penitente Canyon > San Luis Valley > Colorado",https://www.mountainproject.com/route/105753967/alien-in-my-underpants,2.7,-1,Sport,5.11b,1,,37.84401,-106.28755
"Salt of the Earth","Hall of Fame > Devil's Head > South Platte > Colorado",https://www.mountainproject.com/route/117666986/salt-of-the-earth,3.6,-1,Sport,5.11b,1,50,39.2603,-105.09094
"Good Moanin'","Lower Ice Caves > Ice Cave Walls > Rifle Mountain Park > Rifle > Colorado",https://www.mountainproject.com/route/105968335/good-moanin,2.2,-1,Sport,5.11b,1,60,39.70939,-107.69332
Rapunzel,"The Castle > Buffalo Creek > South Platte > Colorado",https://www.mountainproject.com/route/106406267/rapunzel,3.5,-1,Trad,5.11b,1,180,39.31138,-105.38061
"Lady Of The Lake","The Starcastle > Devil's Head > South Platte > Colorado",https://www.mountainproject.com/route/105749512/lady-of-the-lake,3.6,-1,Sport,5.11b,1,80,39.25819,-105.10033
"Romancing The Stone","2. The Bird's Nest > Monitor Rock > Independence Pass > Colorado",https://www.mountainproject.com/route/106777300/romancing-the-stone,4.0,-1,"Trad, Sport",5.11b,1,110,39.0726,-106.4513
"Rambo Peep","Main Wall - Left Side > Sheep Mountain > The Narrows > Poudre Canyon > Fort Collins > Colorado",https://www.mountainproject.com/route/115959627/rambo-peep,2.9,-1,Sport,5.11b,1,80,40.67895,-105.42378
"The Bowery Boys","6. The Lower East Side > Dines Cliff > Staunton State Park > South Platte > Colorado",https://www.mountainproject.com/route/119703862/the-bowery-boys,3.0,-1,Sport,5.11b,1,65,39.50337,-105.36885
Starstruck,"Sunnyvale > Twilight Area > The Narrows > Poudre Canyon > Fort Collins > Colorado",https://www.mountainproject.com/route/116366299/starstruck,3.6,-1,Sport,5.11b,1,80,40.67648,-105.43116
"Bolt Dependence","North Face > Crystal Wall > Poudre Canyon > Fort Collins > Colorado",https://www.mountainproject.com/route/108175004/bolt-dependence,2.6,-1,Sport,5.11b,1,70,40.6936,-105.37656
"Northcutt Guillotine","The Bastille - N Face > The Bastille > Eldorado Canyon State Park > Boulder > Colorado",https://www.mountainproject.com/route/120925505/northcutt-guillotine,4.0,-1,Trad,"5.11b PG13",1,160,39.9307,-105.283
"Timberline Hang-Dogs (aka CTA Hang-Dogs)","Low Angle Wall > Fume Wall > Durango > Colorado",https://www.mountainproject.com/route/106230266/timberline-hang-dogs-aka-cta-hang-dogs,2.9,-1,Sport,5.11b,1,55,37.45623,-107.80525
"School of Rök","Bauhaus Wall > Rifle Mountain Park > Rifle > Colorado",https://www.mountainproject.com/route/109590615/school-of-rok,2.2,-1,Sport,5.11b,1,70,39.71552,-107.69174
"Depraved Indifference","The Mordwand > Ouray vicinity (rock) > Colorado",https://www.mountainproject.com/route/120875734/depraved-indifference,4.0,-1,Sport,5.11b,1,85,37.97945,-107.65742
"Shrouded Face","B. Howling Buttress > Black Creek Wall > Old Mill Area > Staunton State Park > South Platte > Colorado",https://www.mountainproject.com/route/122156143/shrouded-face,3.0,-1,Sport,5.11b,1,60,39.52382,-105.38762
Freestyle,"Solarium, the > Devil's Head > South Platte > Colorado",https://www.mountainproject.com/route/110570149/freestyle,3.0,-1,Sport,5.11b,1,50,39.25984,-105.10886
"After The Gold Rush","7. F.Y. (Forever Young) Wall > Monitor Rock > Independence Pass > Colorado",https://www.mountainproject.com/route/108097963/after-the-gold-rush,3.5,-1,"Trad, Sport, Alpine",5.11b,3,300,39.0726,-106.4513
Pleiades,"Fortress Wall > The Access Fund Trailhead > Main Canyon: Unaweep Granite > Unaweep Canyon > Grand Junction Area > Colorado",https://www.mountainproject.com/route/106518746/pleiades,4.0,-1,Trad,5.11b,2,250,38.82183,-108.60508
"Freedom Fries","The Twilight Zone > Clear Creek Canyon > Golden > Colorado",https://www.mountainproject.com/route/106315445/freedom-fries,2.5,-1,Sport,5.11b,1,100,39.7499,-105.2478
"Gravity's Angel","Upper Peanuts > Peanuts Walls > Eldorado Canyon State Park > Boulder > Colorado",https://www.mountainproject.com/route/105755248/gravitys-angel,2.8,-1,Sport,5.11b,1,,39.92857,-105.28676
Over-the-Monsoon,"Overlook Cliff > Ouray vicinity (rock) > Colorado",https://www.mountainproject.com/route/108316159/over-the-monsoon,2.8,-1,Sport,5.11b,1,70,38.0138,-107.6771
"The Terror","Rock Garden > San Luis Valley > Colorado",https://www.mountainproject.com/route/107728345/the-terror,3.1,-1,Sport,5.11b,1,45,37.85137,-106.29103
"On The Edge","Wigwam Dome > Wigwam Creek/Lost Creek Wilderness > South Platte > Colorado",https://www.mountainproject.com/route/105762339/on-the-edge,3.8,-1,Trad,5.11b,3,300,39.26137,-105.36789
"Divine Wind","West Buttress aka Comedy Wall > Blob Rock > Blob Rock Area > Boulder Canyon > Boulder > Colorado",https://www.mountainproject.com/route/105758329/divine-wind,3.0,-1,Trad,5.11b,2,80,40.0031,-105.3893
U2RNXS,"Rock Garden > San Luis Valley > Colorado",https://www.mountainproject.com/route/105762210/u2rnxs,2.9,-1,Sport,5.11b,1,100,37.85137,-106.29103
"Sobriety Check","Titanic > Hardscrabble Pass > The Wet Mountains > Colorado",https://www.mountainproject.com/route/105832643/sobriety-check,3.3,-1,Sport,5.11b,1,50,38.17375,-105.17279
"Smokin' J's","Piedra River -  Lower West > Piedra River > Pagosa Springs > Colorado",https://www.mountainproject.com/route/119057810/smokin-js,3.6,-1,Trad,5.11b,1,80,37.4197,-107.1968
"Perilous Journey","Mickey Mouse Wall > Eldorado Mountain > Boulder > Colorado",https://www.mountainproject.com/route/105750580/perilous-journey,3.5,-1,TR,"5.11b X",1,,39.91728,-105.28551
"Smack the Cold Booty","Mount Boner > The Ironclads > CO Hwy 7 & Tributaries > Estes Park Valley > Colorado",https://www.mountainproject.com/route/105753244/smack-the-cold-booty,2.6,-1,"Sport, TR",5.11b,1,,40.1684,-105.4782
Citadel,"The Citadel > The Palace > Poudre Canyon > Fort Collins > Colorado",https://www.mountainproject.com/route/106010654/citadel,2.9,-1,Sport,5.11b,1,95,40.6923,-105.379
"Lunge for Jesus","Canyon Road Cliffs > Witches' Canyon > San Luis Valley > Colorado",https://www.mountainproject.com/route/105969482/lunge-for-jesus,2.9,-1,Sport,5.11b,1,50,37.83924,-106.29425
Rum-Tum-Tuggernaughts,"The North Gym > Shelf Road > Canon City > Colorado",https://www.mountainproject.com/route/107067325/rum-tum-tuggernaughts,3.2,-1,Sport,5.11b,1,50,38.6395,-105.215
"A Piece of Work","Interiors Wall Area > Escalante Canyon > Grand Junction Area > Colorado",https://www.mountainproject.com/route/108673374/a-piece-of-work,3.7,-1,Trad,5.11b,1,100,38.67543,-108.32138
Exodus,"Redgarden - S Buttress > Redgarden Wall > Eldorado Canyon State Park > Boulder > Colorado",https://www.mountainproject.com/route/105761427/exodus,3.1,-1,Trad,5.11b,1,80,39.93119,-105.28395
"Nouveau Reach aka Jeff's Third Climb aka Photo Art","Winterfest Wall > North Table Mountain/Golden Cliffs > Golden > Colorado",https://www.mountainproject.com/route/105750475/nouveau-reach-aka-jeffs-third-climb-aka-photo-art,2.5,-1,Sport,5.11b,1,55,39.76953,-105.22006
"Home Free","Lower Peanuts > Peanuts Walls > Eldorado Canyon State Park > Boulder > Colorado",https://www.mountainproject.com/route/105755251/home-free,2.5,-1,Trad,5.11b,1,,39.92885,-105.28656
"Done with the City","6. The Lower East Side > Dines Cliff > Staunton State Park > South Platte > Colorado",https://www.mountainproject.com/route/119646618/done-with-the-city,2.8,-1,Sport,5.11b,1,60,39.50337,-105.36885
"The War Has Started","Garden of Eden Wall (Pool Area) > Cascade Canyon > Durango > Colorado",https://www.mountainproject.com/route/106221863/the-war-has-started,2.8,-1,Sport,5.11b,1,,37.65774,-107.80962
"Mirror Crack Direct","Rosy Lane > Taylor Canyon > Gunnison > Colorado",https://www.mountainproject.com/route/106283292/mirror-crack-direct,3.6,-1,Trad,"5.11b R",1,80,38.72652,-106.76942
"Magie Noire","Stepping Stones > Boulder Canyon > Boulder > Colorado",https://www.mountainproject.com/route/105852519/magie-noire,2.2,-1,Sport,5.11b,1,40,39.9871,-105.4384
"Telegraph Road","December Wall > South Fork of St. Vrain Canyon > St. Vrain Canyons > Lyons > Colorado",https://www.mountainproject.com/route/105761670/telegraph-road,3.1,-1,Sport,5.11b,2,150,40.19871,-105.33055
"Vulgar Display of Power","The Temple of Tao > Palisade Mountain > Big Thompson Canyon > Estes Park Valley > Colorado",https://www.mountainproject.com/route/107271990/vulgar-display-of-power,3.7,-1,Trad,5.11b,2,170,40.43554,-105.3107
Splinter,"Woodstone > Woodstone, Half & Half, and Slot Rock > The Crags > CO Hwy 7 & Tributaries > Estes Park Valley > Colorado",https://www.mountainproject.com/route/115147268/splinter,2.7,-1,Sport,5.11b,1,50,40.30619,-105.52353
"Triple Bypass","Arch of Titus > South Fork of St. Vrain Canyon > St. Vrain Canyons > Lyons > Colorado",https://www.mountainproject.com/route/110813082/triple-bypass,3.7,-1,Trad,5.11b,1,110,40.1863,-105.3334
"Cassandra Crossing","Interloper Wall > Boulder Canyon > Boulder > Colorado",https://www.mountainproject.com/route/107143313/cassandra-crossing,3.7,-1,Sport,5.11b,1,70,40.0024,-105.4102
"The Trophy (on The Aerie)","The Aerie > Boulder Pile > Top Of The World > Buffalo Creek > South Platte > Colorado",https://www.mountainproject.com/route/106045211/the-trophy-on-the-aerie,3.7,-1,Trad,5.11b,1,150,39.40358,-105.23617
"Mountain Lion","Crater Crag of North Quarry > North Table Mountain/Golden Cliffs > Golden > Colorado",https://www.mountainproject.com/route/106393621/mountain-lion,3.2,-1,Sport,5.11b,1,75,39.77473,-105.22439
"Cracking the Code","Upper Security Risk > Security Risk Massif > Boulder Canyon > Boulder > Colorado",https://www.mountainproject.com/route/105754996/cracking-the-code,2.1,-1,Sport,5.11b,3,,40.0048,-105.3931
"El Sueno","Waterfall Wall > Ouray vicinity (rock) > Colorado",https://www.mountainproject.com/route/105951535/el-sueno,3.3,-1,"Trad, Sport",5.11b,3,250,37.97795,-107.65657
"Hazed & Infused","Section M > Rifle Mountain Park > Rifle > Colorado",https://www.mountainproject.com/route/106184078/hazed-infused,2.6,-1,Sport,5.11b,1,80,39.7159,-107.6912
"Wolfman Shuffle","Homestake Road Crag > Eagle/Vail/Minturn/Red Cliff > Colorado",https://www.mountainproject.com/route/106476429/wolfman-shuffle,3.2,-1,Sport,5.11b,1,85,39.47072,-106.37294
Sandinista,"Acid Rock > Sheeprock > Goose Creek/Molly Gulch Campground > South Platte > Colorado",https://www.mountainproject.com/route/106475123/sandinista,3.5,-1,Trad,"5.11b PG13",2,300,39.18868,-105.33495
"Kawasaki Hood Ornament","Scooter Trash Wall > Devil's Head > South Platte > Colorado",https://www.mountainproject.com/route/106921212/kawasaki-hood-ornament,2.7,-1,Sport,5.11b,1,50,39.25987,-105.10773
Stargate,"Cadillac Crag > Eldorado Canyon State Park > Boulder > Colorado",https://www.mountainproject.com/route/105757903/stargate,2.9,-1,Trad,5.11b,2,200,39.93617,-105.2911
Cyborg,"Free Form Wall > Sand Gulch > Shelf Road > Canon City > Colorado",https://www.mountainproject.com/route/105749980/cyborg,2.4,-1,Sport,5.11b,1,,38.6218,-105.23101
"Heaven & Earth","East Colfax > Clear Creek Canyon > Golden > Colorado",https://www.mountainproject.com/route/109164404/heaven-earth,2.5,-1,Sport,5.11b,1,70,39.74058,-105.41393
Mogwai,"Mural Wall > The Gallery > Shelf Road > Canon City > Colorado",https://www.mountainproject.com/route/108290695/mogwai,2.7,-1,Sport,5.11b,1,50,38.6197,-105.2357
"Red Dawn","5. Iron Side Wall > Monitor Rock > Independence Pass > Colorado",https://www.mountainproject.com/route/107231623/red-dawn,3.1,-1,Sport,5.11b,1,70,39.0726,-106.4513
"Scandanavian Dreams","Vulture Walls > Castlewood Canyon SP > Denver South > Colorado",https://www.mountainproject.com/route/105752452/scandanavian-dreams,2.8,-1,Sport,5.11b,1,,39.34536,-104.75589
"Monster Man","Contest Wall > Sand Gulch > Shelf Road > Canon City > Colorado",https://www.mountainproject.com/route/107097914/monster-man,2.7,-1,Sport,5.11b,1,75,38.62148,-105.23217
Centerfold,"Penthouse > Vallecito Crags > Durango > Colorado",https://www.mountainproject.com/route/106271560/centerfold,3.1,-1,Sport,5.11b,1,40,37.48066,-107.53568
"Road To Nowhere","Lower Ice Caves > Ice Cave Walls > Rifle Mountain Park > Rifle > Colorado",https://www.mountainproject.com/route/106170122/road-to-nowhere,2.1,-1,Sport,5.11b,1,40,39.70939,-107.69332
"Blue Anteater","Low Hanging Fruit Wall > Carbondale Area > Colorado",https://www.mountainproject.com/route/121373207/blue-anteater,3.5,-1,Sport,5.11b,1,120,39.0661,-107.15113
"Love it or Hate it","The Chamber > The Palace > Poudre Canyon > Fort Collins > Colorado",https://www.mountainproject.com/route/106038318/love-it-or-hate-it,2.5,-1,Sport,5.11b,1,98,40.56834,-105.09235
"The USO Show","REMF Wall > Crystal Fortress > South Platte > Colorado",https://www.mountainproject.com/route/119086394/the-uso-show,3.3,-1,Sport,5.11b,1,65,39.02386,-105.30581
Schizofrantic,"Upper East Face > East Blob > Blob Rock Area > Boulder Canyon > Boulder > Colorado",https://www.mountainproject.com/route/105762288/schizofrantic,2.8,-1,Trad,5.11b,1,100,40.00244,-105.38754
Spacewalk,"East Face > Gold Butte > Colorado",https://www.mountainproject.com/route/113453511/spacewalk,3.1,-1,Sport,5.11b,1,,39.21561,-106.84358
"Surfing with the Devil","Devil's Gate > Devil's Gate Sector > Devil's Head > South Platte > Colorado",https://www.mountainproject.com/route/110345427/surfing-with-the-devil,2.9,-1,Sport,5.11b,1,60,39.34946,-105.08443
"Butter Face","The Alcove > The Pool Wall > Ouray vicinity (rock) > Colorado",https://www.mountainproject.com/route/109561073/butter-face,2.9,-1,Sport,5.11b,1,66,38.03114,-107.67124
"Super Nova","Radio Head > Devil's Head > South Platte > Colorado",https://www.mountainproject.com/route/106859081/super-nova,3.0,-1,"Trad, Sport",5.11b,1,80,39.26976,-105.11789
"Neve's Cling On","East Buttress > Ophir Wall > Ophir > Telluride/Norwood area > Colorado",https://www.mountainproject.com/route/107187394/neves-cling-on,3.3,-1,Sport,5.11b,1,80,37.86179,-107.86834
"Tiger Balm Arete","Shirt Tail Peak > Eldorado Canyon State Park > Boulder > Colorado",https://www.mountainproject.com/route/105755053/tiger-balm-arete,2.9,-1,Trad,"5.11b R",4,,39.93429,-105.28837
Aretissima,"Contest Wall > Sand Gulch > Shelf Road > Canon City > Colorado",https://www.mountainproject.com/route/111686611/aretissima,2.8,-1,Sport,5.11b,1,80,38.62148,-105.23217
Libertine,"Radio Head > Devil's Head > South Platte > Colorado",https://www.mountainproject.com/route/111213726/libertine,2.8,-1,"Sport, TR",5.11b,1,80,39.26976,-105.11789
"Jules Verne Straight Up First Pitch Variation","Redgarden - Tower Two > Redgarden Wall > Eldorado Canyon State Park > Boulder > Colorado",https://www.mountainproject.com/route/105926958/jules-verne-straight-up-first-pitch-variation,3.5,-1,Trad,"5.11b R",1,60,39.9312,-105.28518
Battletoads,"Battletoads Wall > Grayback Peak > Old Stage Road > Colorado Springs > Colorado",https://www.mountainproject.com/route/122770252/battletoads,3.3,-1,Sport,5.11b,2,220,38.71397,-104.90111
"Pura Vida","Brink's Rock > Poudre Canyon > Fort Collins > Colorado",https://www.mountainproject.com/route/116200461/pura-vida,3.5,-1,Sport,5.11b,1,40,40.69069,-105.32449
"Book of Life","Genesis Wall (Canyon Entrance) > Cascade Canyon > Durango > Colorado",https://www.mountainproject.com/route/106067117/book-of-life,2.6,-1,Sport,5.11b,1,,37.65774,-107.80962
"Inner Space","The Bastille - N Face > The Bastille > Eldorado Canyon State Park > Boulder > Colorado",https://www.mountainproject.com/route/105753877/inner-space,2.9,-1,Trad,"5.11b X",1,,39.9307,-105.283
"Dizzy Miss Lizzy (aka Scrutiny on the Bounty)","Redgarden - Tower Two > Redgarden Wall > Eldorado Canyon State Park > Boulder > Colorado",https://www.mountainproject.com/route/105763773/dizzy-miss-lizzy-aka-scrutiny-on-the-bounty,3.1,-1,Sport,5.11b,1,70,39.9312,-105.28518
"The Number of the Beast","The Dungeon > Staunton Rocks > Staunton State Park > South Platte > Colorado",https://www.mountainproject.com/route/112122485/the-number-of-the-beast,2.2,-1,Sport,5.11b,1,60,39.5168,-105.3962
"Jim's Palomino","Main Elk Crag > Main Elk Creek > Glenwood Springs > Colorado",https://www.mountainproject.com/route/117518671/jims-palomino,3.0,-1,Sport,5.11b,1,65,39.68301,-107.57778
"Burro Quality","Burro Wall > Main Elk Creek > Glenwood Springs > Colorado",https://www.mountainproject.com/route/121704020/burro-quality,3.1,-1,Sport,5.11b,1,90,39.67643,-107.567
"Boulder Hypocricy","The North End > Shelf Road > Canon City > Colorado",https://www.mountainproject.com/route/106919086/boulder-hypocricy,2.9,-1,Sport,5.11b,1,45,38.6452,-105.2205
"Feathers and Stone","Third Flatiron > North > Flatirons > Boulder > Colorado",https://www.mountainproject.com/route/113809976/feathers-and-stone,2.9,-1,Sport,5.11b,1,100,39.9874,-105.29196
"Ethics? What Ethics?","09. Ethics? What Ethics? > The Bank > Shelf Road > Canon City > Colorado",https://www.mountainproject.com/route/106032361/ethics-what-ethics,2.3,-1,Sport,5.11b,1,65,38.6321,-105.2288
"The Burnt Toast","The Great Black North > Shelf Road > Canon City > Colorado",https://www.mountainproject.com/route/106476080/the-burnt-toast,3.1,-1,Sport,5.11b,1,55,38.65239,-105.22439
"Seismic Wave","Half & Half Crag > Woodstone, Half & Half, and Slot Rock > The Crags > CO Hwy 7 & Tributaries > Estes Park Valley > Colorado",https://www.mountainproject.com/route/117630913/seismic-wave,2.7,-1,Sport,5.11b,1,60,40.30637,-105.53712
"Half Cracked","Trojan Bunny Buttress > South Fork of St. Vrain Canyon > St. Vrain Canyons > Lyons > Colorado",https://www.mountainproject.com/route/111701020/half-cracked,3.0,-1,"Trad, TR",5.11b,1,,40.17756,-105.35586
"Wings of Desire","Main Wall > Sleeping Beauty > Boulder Canyon > Boulder > Colorado",https://www.mountainproject.com/route/105762156/wings-of-desire,2.4,-1,Sport,5.11b,1,160,39.99654,-105.41685
Sunset,"Sea Cliffs of North Quarry > North Table Mountain/Golden Cliffs > Golden > Colorado",https://www.mountainproject.com/route/106399874/sunset,3.0,-1,Trad,5.11b,1,55,39.77496,-105.2239
"Queer Bait","Block Tower > Cathedral Spires Area > South Platte > Colorado",https://www.mountainproject.com/route/106110271/queer-bait,2.8,-1,Trad,5.11b,5,450,39.42165,-105.25384
"Road Rage","Titanic > Hardscrabble Pass > The Wet Mountains > Colorado",https://www.mountainproject.com/route/105755359/road-rage,3.3,-1,Sport,5.11b,1,,38.17375,-105.17279
"Tyrone's $450,000 Crack Party","The Quarry > San Luis Valley > Colorado",https://www.mountainproject.com/route/107613923/tyrones-450000-crack-party,3.2,-1,Sport,5.11b,1,40,37.64002,-106.29927
"Ever Abel","Chimney Rock > Elk Creek Spires > Staunton State Park > South Platte > Colorado",https://www.mountainproject.com/route/117796315/ever-abel,3.2,-1,Sport,5.11b,1,110,39.50653,-105.4142
"Death of Innocents (aka Chick Filet)","Table Top Area > North Table Mountain/Golden Cliffs > Golden > Colorado",https://www.mountainproject.com/route/105752119/death-of-innocents-aka-chick-filet,2.0,-1,Sport,5.11b,1,,39.76833,-105.21673
"Flora Dora","Middle Mother's > Mother's Buttress > Main Canyon: Unaweep Granite > Unaweep Canyon > Grand Junction Area > Colorado",https://www.mountainproject.com/route/105964198/flora-dora,3.2,-1,Trad,5.11b,3,,38.81392,-108.61899
"The Silent Treatment","Quarry Wall at the Bank > The Bank > Shelf Road > Canon City > Colorado",https://www.mountainproject.com/route/116763733/the-silent-treatment,3.0,-1,Sport,5.11b,1,60,38.64085,-105.24069
"No Parking aka Jay's Route","Ouray Rotary Park-Rink Wall > Ouray vicinity (rock) > Colorado",https://www.mountainproject.com/route/107657471/no-parking-aka-jays-route,2.5,-1,Sport,5.11b,1,45,38.0436,-107.6802
"Tree It","Sunday Wall > The Access Fund Trailhead > Main Canyon: Unaweep Granite > Unaweep Canyon > Grand Junction Area > Colorado",https://www.mountainproject.com/route/107531361/tree-it,3.2,-1,"Trad, Sport","5.11b PG13",1,90,38.81832,-108.60765
Predator,"Sunset Cliff > Lincoln Creek > Independence Pass > Colorado",https://www.mountainproject.com/route/106189098/predator,3.0,-1,Sport,5.11b,1,100,39.11715,-106.68469
"Fascist Drill in the West","J-Crack Slab Area > The Book > Lumpy Ridge > Estes Park Valley > Colorado",https://www.mountainproject.com/route/105756499/fascist-drill-in-the-west,3.0,-1,"Trad, Sport",5.11b,1,,40.40556,-105.53398
"Chia Pet","Overlook Cliff > Ouray vicinity (rock) > Colorado",https://www.mountainproject.com/route/107790571/chia-pet,2.7,-1,Sport,5.11b,1,100,38.0138,-107.6771
"Punchin' The Clock","The Front Porch > The Narrows > Carbondale Area > Colorado",https://www.mountainproject.com/route/106058329/punchin-the-clock,2.7,-1,Sport,5.11b,1,60,39.23226,-107.22854
"Darla Does Buckwheat","Rock Garden > San Luis Valley > Colorado",https://www.mountainproject.com/route/105753730/darla-does-buckwheat,2.7,-1,Sport,5.11b,1,,37.85137,-106.29103
[Redacted],"Prestige Worldwide Wall > Clear Creek Canyon > Golden > Colorado",https://www.mountainproject.com/route/107041827/redacted,2.5,-1,Sport,5.11b,1,50,39.74216,-105.3448
"Pink Torpedo (extension)","01. Piggy Bank > The Bank > Shelf Road > Canon City > Colorado",https://www.mountainproject.com/route/120268062/pink-torpedo-extension,2.4,-1,Sport,5.11b,1,80,38.63547,-105.23428
"Vista Cruiser","Vista Crag > West of Rustic > Poudre Canyon > Fort Collins > Colorado",https://www.mountainproject.com/route/109838864/vista-cruiser,3.0,-1,Sport,5.11b,1,50,40.71159,-105.75543
"D7 Variation","The Diamond > Long's Peak > RMNP - Rock > Alpine Rock > Colorado",https://www.mountainproject.com/route/107729409/d7-variation,3.0,-1,"Trad, Alpine",5.11b,5,,40.25617,-105.61384
"I Scare Myself","The Dark Side > Shelf Road > Canon City > Colorado",https://www.mountainproject.com/route/106453350/i-scare-myself,2.8,-1,"Trad, Sport","5.11b R",1,50,38.6281,-105.2239
"The Damage Done","The Needle > Prospect Mountain > CO Hwy 7 & Tributaries > Estes Park Valley > Colorado",https://www.mountainproject.com/route/105759477/the-damage-done,2.5,-1,"Sport, TR",5.11b,1,30,40.357,-105.5167
"Meaty, Beaty, Big, and Bouncy","1st Band > Redstein > Redstone Area > Carbondale Area > Colorado",https://www.mountainproject.com/route/110669112/meaty-beaty-big-and-bouncy,3.0,-1,Sport,5.11b,1,100,39.20041,-107.23589
Leftist,"Tanner Dome > Oak Creek Canyon > The Wet Mountains > Colorado",https://www.mountainproject.com/route/113745580/leftist,3.1,-1,Sport,5.11b,1,90,38.30838,-105.26009
"Arms Race","Cottontail Crag > Estes Park Valley > Colorado",https://www.mountainproject.com/route/106213247/arms-race,3.0,-1,Sport,5.11b,1,60,40.32309,-105.57938
Silmarillion,"The Playground > Castlewood Canyon SP > Denver South > Colorado",https://www.mountainproject.com/route/105752218/silmarillion,2.9,-1,Sport,5.11b,1,,39.33768,-104.74748
Gladiator,"The Coliseum > South Fork of St. Vrain Canyon > St. Vrain Canyons > Lyons > Colorado",https://www.mountainproject.com/route/106559033/gladiator,2.4,-1,Trad,5.11b,3,,40.16875,-105.37301
Dutchess,"Kingfin Crag > Critical Mass Area > West of Rustic > Poudre Canyon > Fort Collins > Colorado",https://www.mountainproject.com/route/120419535/dutchess,3.0,-1,Sport,5.11b,1,70,40.71205,-105.72468
"Freedom Fried","The Hideout > Boulder Canyon > Boulder > Colorado",https://www.mountainproject.com/route/106667783/freedom-fried,3.0,-1,Sport,"5.11b PG13",1,60,40.0034,-105.4123
"Cat Dancer","D. The Badlands > Black Creek Wall > Old Mill Area > Staunton State Park > South Platte > Colorado",https://www.mountainproject.com/route/122429786/cat-dancer,2.9,-1,Sport,"5.11b PG13",1,160,39.52364,-105.38746
"Smooth Reach","Sunday Wall > The Access Fund Trailhead > Main Canyon: Unaweep Granite > Unaweep Canyon > Grand Junction Area > Colorado",https://www.mountainproject.com/route/108031815/smooth-reach,2.9,-1,"Trad, TR",5.11b,1,90,38.81832,-108.60765
"Dr. Evil","Clay Creek Crag > Telluride/Norwood area > Colorado",https://www.mountainproject.com/route/105969978/dr-evil,2.9,-1,Sport,5.11b,1,40,38.16663,-108.23833
"Raise the Titanic","Lost Angel > Upper Dream Canyon > Boulder > Colorado",https://www.mountainproject.com/route/105748565/raise-the-titanic,1.9,-1,Sport,5.11b,2,,40.0089,-105.41
"Just in Time","Mary's Bust - main buttress > Mary's Bust Area > Big Thompson Canyon > Estes Park Valley > Colorado",https://www.mountainproject.com/route/106508318/just-in-time,2.6,-1,Sport,5.11b,1,90,40.41571,-105.37543
Knight,"Kingfin Crag > Critical Mass Area > West of Rustic > Poudre Canyon > Fort Collins > Colorado",https://www.mountainproject.com/route/120419569/knight,3.0,-1,Sport,5.11b,1,70,40.71205,-105.72468
Icarus,"The Solar Panel > The Narrows > Poudre Canyon > Fort Collins > Colorado",https://www.mountainproject.com/route/111251409/icarus,3.0,-1,Sport,5.11b,1,40,40.67856,-105.43091
"Wait For It...","Shanahan Crag > South > Flatirons > Boulder > Colorado",https://www.mountainproject.com/route/123445276/wait-for-it,3.4,-1,Sport,5.11b,1,131,39.96031,-105.28829
"Walking in L.A.","Quarry Wall at the Bank > The Bank > Shelf Road > Canon City > Colorado",https://www.mountainproject.com/route/119155893/walking-in-la,2.9,-1,Sport,5.11b,1,50,38.64085,-105.24069
Fever,"Menses Prow > The Gallery > Shelf Road > Canon City > Colorado",https://www.mountainproject.com/route/105760989/fever,2.5,-1,Sport,5.11b,1,,38.6199,-105.2371
"Don't Tell Mom","Main Boulder aka The Wedge > South Side Area > Ute Valley Park > Colorado Springs > Colorado",https://www.mountainproject.com/route/105792385/dont-tell-mom,2.6,-1,TR,5.11b,1,,38.91195,-104.85685
"Goofy Foot","03. Main Wall > The Promised Land > San Luis Valley > Colorado",https://www.mountainproject.com/route/121639316/goofy-foot,3.2,-1,Sport,5.11b,1,,37.5738,-106.31773
"Frank the Rabbit","The Crimpfest Wall > Devil's Head > South Platte > Colorado",https://www.mountainproject.com/route/114579970/frank-the-rabbit,3.0,-1,Sport,5.11b,1,85,39.25618,-105.09877
"The Empire Strikes Back","Lower Peanuts > Peanuts Walls > Eldorado Canyon State Park > Boulder > Colorado",https://www.mountainproject.com/route/105967370/the-empire-strikes-back,3.0,-1,"Trad, TR","5.11b X",1,80,39.92885,-105.28656
"Chubby Pickle Arete","The Skillet > The Frying Pan > Carbondale Area > Colorado",https://www.mountainproject.com/route/106480063/chubby-pickle-arete,3.0,-1,Sport,5.11b,1,45,39.36705,-106.83188
"Completion Backword Principle","Secret Crag (aka Ridge 6) > Eldorado Mountain > Boulder > Colorado",https://www.mountainproject.com/route/105750634/completion-backword-principle,2.8,-1,Sport,5.11b,1,100,39.91021,-105.28468
"Mission Accomplished","The Deep End > The Pool Wall > Ouray vicinity (rock) > Colorado",https://www.mountainproject.com/route/107702942/mission-accomplished,3.0,-1,Sport,5.11b,1,80,38.02922,-107.67012
"F**king Catalina Wine Mixer","Prestige Worldwide Wall > Clear Creek Canyon > Golden > Colorado",https://www.mountainproject.com/route/107049949/fking-catalina-wine-mixer,2.6,-1,Sport,5.11b,1,40,39.74216,-105.3448
"Across Enemy Lines","Combat Rock > Big Thompson Canyon > Estes Park Valley > Colorado",https://www.mountainproject.com/route/105759252/across-enemy-lines,2.5,-1,"Trad, Sport",5.11b,2,130,40.44204,-105.34428
Revelation,"Genesis Wall (Canyon Entrance) > Cascade Canyon > Durango > Colorado",https://www.mountainproject.com/route/106221901/revelation,2.3,-1,Sport,5.11b,1,,37.65774,-107.80962
"Spandex Ballet","Burro Wall > Main Elk Creek > Glenwood Springs > Colorado",https://www.mountainproject.com/route/120601688/spandex-ballet,3.0,-1,Sport,5.11b,1,90,39.67643,-107.567
"The DTs","Recovery Wall > Devil's Head > South Platte > Colorado",https://www.mountainproject.com/route/119437190/the-dts,3.0,-1,Sport,5.11b,2,194,39.25435,-105.09099
"Blood of the Lamb","Dihedrals Wall > Sheep Mountain > The Narrows > Poudre Canyon > Fort Collins > Colorado",https://www.mountainproject.com/route/115959448/blood-of-the-lamb,3.0,-1,Trad,5.11b,2,150,40.67896,-105.42378
"Autumn Sonata","Fall Wall > Devil's Gate Sector > Devil's Head > South Platte > Colorado",https://www.mountainproject.com/route/119454870/autumn-sonata,3.0,-1,Sport,5.11b,1,90,39.2551,-105.09298
"Ecstatic Rapture","Butcher Knife > Steamboat Springs > Colorado",https://www.mountainproject.com/route/113473848/ecstatic-rapture,3.0,-1,TR,5.11b,1,30,40.48962,-106.82119
Unjust,"Chicken Head Ranch > Devil's Head > South Platte > Colorado",https://www.mountainproject.com/route/109342679/unjust,3.0,-1,Sport,5.11b,1,95,39.25855,-105.10569
"Rocket Fuel","East Side > South Gateway Rock > Garden of the Gods > Colorado Springs > Colorado",https://www.mountainproject.com/route/105753646/rocket-fuel,2.2,-1,Sport,5.11b,1,100,38.87784,-104.88019
Equator,"Universal Crag > Upper Dream Canyon > Boulder > Colorado",https://www.mountainproject.com/route/106339630/equator,2.8,-1,Sport,5.11b,1,60,40.0102,-105.4066
"Cameron's Corner","Diamond Head > Eldorado Canyon State Park > Boulder > Colorado",https://www.mountainproject.com/route/105755482/camerons-corner,3.0,-1,Trad,5.11b,1,,39.94674,-105.29556
"Castlewood Capers","Wendell Spire > Castlewood Canyon SP > Denver South > Colorado",https://www.mountainproject.com/route/105751993/castlewood-capers,2.1,-1,Sport,5.11b,1,,39.33646,-104.74539
Animatronic,"The Dark Side > Shelf Road > Canon City > Colorado",https://www.mountainproject.com/route/105762399/animatronic,2.3,-1,Sport,5.11b,1,80,38.6281,-105.2239
"Power Pagoda","Riverside Zone > Grandpa's Bridge > Poudre Canyon > Fort Collins > Colorado",https://www.mountainproject.com/route/111658263/power-pagoda,2.8,-1,Sport,5.11b,1,60,40.69151,-105.51269
Spartacus,"East Side Wall > The Arena > Devil's Head > South Platte > Colorado",https://www.mountainproject.com/route/107346466/spartacus,2.8,-1,Sport,5.11b,1,70,39.25679,-105.10226
Pandammic,"Third Flatiron > North > Flatirons > Boulder > Colorado",https://www.mountainproject.com/route/123187733/pandammic,3.0,-1,Sport,5.11b,1,70,39.9874,-105.29196
"Winners and Losers","East Side Wall > The Arena > Devil's Head > South Platte > Colorado",https://www.mountainproject.com/route/119151594/winners-and-losers,2.7,-1,Sport,5.11b,1,70,39.25679,-105.10226
"Ribbed for Her Pleasure","Rib Rock North, Lower (Rib Cage) > Rib Rock > The Crags > CO Hwy 7 & Tributaries > Estes Park Valley > Colorado",https://www.mountainproject.com/route/123028072/ribbed-for-her-pleasure,2.8,-1,Sport,5.11b,1,90,40.30716,-105.52261
"Plastic Jesus","Redgarden - Tower Two > Redgarden Wall > Eldorado Canyon State Park > Boulder > Colorado",https://www.mountainproject.com/route/105750763/plastic-jesus,2.5,-1,Trad,"5.11b R",1,,39.9312,-105.28518
"Fahrenheit 451","Vulture Walls > Castlewood Canyon SP > Denver South > Colorado",https://www.mountainproject.com/route/121801333/fahrenheit-451,3.0,-1,"Trad, TR","5.11b R",1,35,39.34536,-104.75589
"Candy Corn Crack","Candy Corn Boulder Area > Asshole Rock Bouldering > Buffalo Creek Bouldering > Buffalo Creek > South Platte > Colorado",https://www.mountainproject.com/route/119719764/candy-corn-crack,3.0,-1,"Trad, Boulder","5.11b V3",1,20,39.33312,-105.27333
Space,"The Bastille - N Face > The Bastille > Eldorado Canyon State Park > Boulder > Colorado",https://www.mountainproject.com/route/107635228/space,3.0,-1,Trad,"5.11b PG13",1,110,39.9307,-105.283
Rawhide,"Ridge 4 > Eldorado Mountain > Boulder > Colorado",https://www.mountainproject.com/route/120020970/rawhide,3.0,-1,Sport,5.11b,1,70,39.90906,-105.28624
"Chutes and Ladders","Chuting Gallery > The Halidome > Empire > Colorado",https://www.mountainproject.com/route/112126852/chutes-and-ladders,3.0,-1,Sport,5.11b,1,80,39.7688,-105.74398
"Good Vibrations","Bucksnort Slab > Pine Area > South Platte > Colorado",https://www.mountainproject.com/route/105763368/good-vibrations,3.0,-1,Trad,5.11b,1,120,39.42133,-105.31936
"White Dads On Rope","Grizzly Creek Wall (aka Mudwall) > Glenwood Canyon > Glenwood Springs > Colorado",https://www.mountainproject.com/route/106766078/white-dads-on-rope,3.0,-1,"Trad, Sport",5.11b,2,210,39.57235,-107.25545
Orgasmatron,"Lost Highway Area > Sleeping Beauty > Boulder Canyon > Boulder > Colorado",https://www.mountainproject.com/route/105847492/orgasmatron,3.0,-1,Sport,5.11b,1,90,39.9969,-105.41707
"Under the Wire","The Upper Wall > The Pool Wall > Ouray vicinity (rock) > Colorado",https://www.mountainproject.com/route/113038748/under-the-wire,3.0,-1,Trad,5.11b,1,70,38.03072,-107.67112
"Little Stephen","The Talon > Clear Creek Canyon > Golden > Colorado",https://www.mountainproject.com/route/111731519/little-stephen,3.0,-1,Sport,5.11b,1,40,39.73927,-105.34389
"Low Pressure","Chair Rock > Chair Rocks > Top Of The World > Buffalo Creek > South Platte > Colorado",https://www.mountainproject.com/route/108963930/low-pressure,3.0,-1,Trad,5.11b,1,130,39.42504,-105.26446
"Wounded Knee","Dike Wall > Blob Rock > Blob Rock Area > Boulder Canyon > Boulder > Colorado",https://www.mountainproject.com/route/105758335/wounded-knee,2.6,-1,Trad,5.11b,1,20,40.0024,-105.3878
"Make a Wish","Upper Midlife Wall > Twilight Area > The Narrows > Poudre Canyon > Fort Collins > Colorado",https://www.mountainproject.com/route/111157966/make-a-wish,3.0,-1,Sport,5.11b,1,50,40.67704,-105.43065
"Red Sea Pedestrian","The Pharcyde > San Luis Valley > Colorado",https://www.mountainproject.com/route/107822298/red-sea-pedestrian,3.0,-1,Sport,5.11b,1,30,37.5756,-106.32993
"Stink Finger","The Dark Side > Shelf Road > Canon City > Colorado",https://www.mountainproject.com/route/106453368/stink-finger,2.5,-1,Sport,5.11b,1,60,38.6281,-105.2239
"Scotch and Soda","Wind Tower - S Face > The Wind Tower > Eldorado Canyon State Park > Boulder > Colorado",https://www.mountainproject.com/route/105760263/scotch-and-soda,2.3,-1,Trad,"5.11b R",1,150,39.9314,-105.283
"Roofer Madness","The Black Wall > Mt. Blue Sky (formerly Mt. Evans) > Alpine Rock > Colorado",https://www.mountainproject.com/route/105764706/roofer-madness,3.0,-1,"Trad, Alpine",5.11b,8,800,39.6064,-105.65409
Amnesia,"Wanderer's Wall > Keystone a.k.a. Montezuma > Colorado",https://www.mountainproject.com/route/119936618/amnesia,3.0,-1,"Sport, TR",5.11b,1,45,39.60985,-105.91714
"Marie de Guillotine","The Bastille - N Face > The Bastille > Eldorado Canyon State Park > Boulder > Colorado",https://www.mountainproject.com/route/123159774/marie-de-guillotine,3.0,-1,Trad,"5.11b PG13",1,150,39.9307,-105.283
Heaven,"Overlook Cliff > Ouray vicinity (rock) > Colorado",https://www.mountainproject.com/route/108161955/heaven,2.9,-1,Sport,5.11b,1,110,38.0138,-107.6771
"Grease Monkey","Jungle Wall > Ptarmigan Creek Area > Independence Pass > Colorado",https://www.mountainproject.com/route/107310868/grease-monkey,2.7,-1,Sport,5.11b,1,,39.12472,-106.67989
Pinnochi-Hole,"Magic Kingdom > The Bigfoots > Rampart Range Road > South Platte > Colorado",https://www.mountainproject.com/route/120633078/pinnochi-hole,3.0,-1,Sport,5.11b,1,25,38.92801,-104.95624
Kaleidoslope,"The Technicouloir > Devil's Head > South Platte > Colorado",https://www.mountainproject.com/route/120293975/kaleidoslope,3.0,-1,Sport,5.11b,1,75,39.26094,-105.09032
Vulture,"Jungle Wall Sport > East Side Crags > Poudre Falls > West of Rustic > Poudre Canyon > Fort Collins > Colorado",https://www.mountainproject.com/route/123185763/vulture,3.0,-1,Sport,5.11b,1,55,40.65889,-105.79921
"Goin' Down to Aspen With My Platinum Card in My Chanel Clutch","Reese's Pieces > Lincoln Creek > Independence Pass > Colorado",https://www.mountainproject.com/route/121701496/goin-down-to-aspen-with-my-platinum-card-in-my-chanel-clutch,3.0,-1,Trad,5.11b,1,50,39.11089,-106.6813
"Kittens in the Tree Slab Route","Kittens in the Tree Slab > Chalk Creek Canyon > Buena Vista > Colorado",https://www.mountainproject.com/route/122620282/kittens-in-the-tree-slab-route,3.0,-1,Trad,5.11b,3,500,38.71469,-106.24066
"Crimp Scampi","Shrimp Crag > Grand County / Fraser Valley > Colorado",https://www.mountainproject.com/route/122898458/crimp-scampi,3.0,-1,Sport,5.11b,1,35,40.02739,-105.80944
"Aeolian Sky","Grindstone Crag > Hillside Drive in San Juan National Forest > Four Corners Area > Colorado",https://www.mountainproject.com/route/122987922/aeolian-sky,3.0,-1,Trad,5.11b,1,60,37.52914,-108.10947
"Thurday Special","07. Forbidden Land > The Promised Land > San Luis Valley > Colorado",https://www.mountainproject.com/route/121464092/thurday-special,3.0,-1,Sport,5.11b,1,,37.57368,-106.31255
Vertus,"Feral Petunia > Badger Flats > Badger Mountain > South Platte > Colorado",https://www.mountainproject.com/route/118829900/vertus,3.0,-1,Trad,"5.11b PG13",1,100,39.10988,-105.50316
"Road Runner","Tanner Dome > Oak Creek Canyon > The Wet Mountains > Colorado",https://www.mountainproject.com/route/113745552/road-runner,3.0,-1,Sport,5.11b,1,80,38.30838,-105.26009
"Wandering Hearts","Neanderthal Wall > Castlewood Canyon SP > Denver South > Colorado",https://www.mountainproject.com/route/122632851/wandering-hearts,3.0,-1,Trad,"5.11b R",1,40,39.35202,-104.76843
"First in Time","Cove Wall > West Side Crags > Poudre Falls > West of Rustic > Poudre Canyon > Fort Collins > Colorado",https://www.mountainproject.com/route/119127647/first-in-time,3.0,-1,Sport,5.11b,1,60,40.64778,-105.81063
"Tan Panel","Turtle Crag > West of Rustic > Poudre Canyon > Fort Collins > Colorado",https://www.mountainproject.com/route/116188678/tan-panel,3.0,-1,Sport,5.11b,1,50,40.71647,-105.73035
Acrophilia,"The Acrophile > South Fork of St. Vrain Canyon > St. Vrain Canyons > Lyons > Colorado",https://www.mountainproject.com/route/112348827/acrophilia,3.0,-1,Trad,5.11b,1,90,40.1863,-105.3334
Stingray,"Shark's Fin Wall > The Falls Walls > Telluride/Norwood area > Colorado",https://www.mountainproject.com/route/114590647/stingray,3.5,-1,Sport,5.11b,1,80,37.92241,-107.77829
"Penguin Arete","The Temple of Tao > Palisade Mountain > Big Thompson Canyon > Estes Park Valley > Colorado",https://www.mountainproject.com/route/111763218/penguin-arete,3.0,-1,Trad,5.11b,1,115,40.43554,-105.3107
"Arc de Triumph","Fourth Flatiron > North > Flatirons > Boulder > Colorado",https://www.mountainproject.com/route/106332926/arc-de-triumph,3.0,-1,Sport,"5.11b PG13",1,75,39.983,-105.2936
"Roadside Attraction","1st Bend Crag > Oak Creek Canyon > The Wet Mountains > Colorado",https://www.mountainproject.com/route/108062641/roadside-attraction,3.0,-1,Trad,5.11b,1,100,38.31063,-105.24943
"Key To The Highway","Putterman's Dome > Independence Pass > Colorado",https://www.mountainproject.com/route/109098985/key-to-the-highway,3.0,-1,"Sport, Alpine",5.11b,1,100,39.1048,-106.55067
L'Eroica,"The Headwall > East Elk Granite > East Elk Creek > Glenwood Springs > Colorado",https://www.mountainproject.com/route/111819959/leroica,3.0,-1,Sport,5.11b,1,100,39.66742,-107.52697
"The Leaning Corner","The Leaning Wall > Buena Vista > Colorado",https://www.mountainproject.com/route/106803336/the-leaning-corner,3.0,-1,"Trad, Sport",5.11b,1,75,38.8797,-106.14731
"Poster Child","Zipper Buttress > The Neighborhood > Glenwood Canyon > Glenwood Springs > Colorado",https://www.mountainproject.com/route/107586554/poster-child,3.0,-1,Sport,5.11b,1,100,39.55116,-107.31743
"Another World (formerly The Fat Raisen Sings)","Falls Wall > Castlewood Canyon SP > Denver South > Colorado",https://www.mountainproject.com/route/105749203/another-world-formerly-the-fat-raisen-sings,2.9,-1,"Trad, TR",5.11b,1,,39.34823,-104.75964
Continue-us,"Redgarden - S Buttress > Redgarden Wall > Eldorado Canyon State Park > Boulder > Colorado",https://www.mountainproject.com/route/105764730/continue-us,3.0,-1,Trad,"5.11b R",2,260,39.93119,-105.28395
"Un-Lucky Man","Jimmy Cliff > Lincoln Creek > Independence Pass > Colorado",https://www.mountainproject.com/route/106500520/un-lucky-man,3.0,-1,Trad,5.11b,1,160,39.11649,-106.69374
"Higher Rites","Krishna & Serenity Spire > Lower Dream Canyon > Boulder Canyon > Boulder > Colorado",https://www.mountainproject.com/route/106140436/higher-rites,2.4,-1,Sport,5.11b,1,50,40.0069,-105.4058
"Hard and Bizarre","Almost A Tunnel > Buena Vista > Colorado",https://www.mountainproject.com/route/108338566/hard-and-bizarre,2.6,-1,Sport,5.11b,1,45,38.8811,-106.1485
Pentaprance,"Third Flatiron > North > Flatirons > Boulder > Colorado",https://www.mountainproject.com/route/105761385/pentaprance,2.7,-1,Trad,"5.11b R",2,150,39.9874,-105.29196
"Fossil Fueled","Contest Wall > Sand Gulch > Shelf Road > Canon City > Colorado",https://www.mountainproject.com/route/112256799/fossil-fueled,2.7,-1,Sport,5.11b,1,74,38.62148,-105.23217
"Nothing Comes Between Me and My Calvins","Burro Wall > Main Elk Creek > Glenwood Springs > Colorado",https://www.mountainproject.com/route/113828066/nothing-comes-between-me-and-my-calvins,2.6,-1,Sport,5.11b,1,85,39.67643,-107.567
"The Green Hornet","Redgarden - Lumpe to the top > Redgarden Wall > Eldorado Canyon State Park > Boulder > Colorado",https://www.mountainproject.com/route/106962921/the-green-hornet,2.8,-1,"Trad, Sport","5.11b PG13",2,190,39.93228,-105.28671
"The Homesteader","The Solar Dome (aka Lighthouse) > Boulder Canyon > Boulder > Colorado",https://www.mountainproject.com/route/105753163/the-homesteader,2.1,-1,Sport,5.11b,1,,40.0057,-105.3953
"In Between the Sheets","The Chamber > The Palace > Poudre Canyon > Fort Collins > Colorado",https://www.mountainproject.com/route/106544173/in-between-the-sheets,2.5,-1,Sport,5.11b,1,60,40.56834,-105.09235
"Pay at the Pump","Cottontail Crag > Estes Park Valley > Colorado",https://www.mountainproject.com/route/105759246/pay-at-the-pump,2.5,-1,"Sport, TR",5.11b,1,70,40.32309,-105.57938
"The Warden","Hole in the Wall > Devil's Head > South Platte > Colorado",https://www.mountainproject.com/route/105958340/the-warden,2.6,-1,Sport,5.11b,1,50,39.258,-105.10061
"Sun's Out, Guns Out","Main Wall > Reynolds Wall > Staunton State Park > South Platte > Colorado",https://www.mountainproject.com/route/122160267/suns-out-guns-out,2.6,-1,Sport,5.11b,1,70,39.50868,-105.3692
"Varieties Of Religious Experience","West Ridge - part B - Long John to Verschneidung > The West Ridge > Eldorado Canyon State Park > Boulder > Colorado",https://www.mountainproject.com/route/105758763/varieties-of-religious-experience,2.3,-1,"Trad, TR","5.11b R",2,250,39.9314,-105.2879
"Signs of Life","Lost Angel > Upper Dream Canyon > Boulder > Colorado",https://www.mountainproject.com/route/105763281/signs-of-life,2.4,-1,Sport,5.11b,1,95,40.0089,-105.41
Chickamauga,"Tanner Dome > Oak Creek Canyon > The Wet Mountains > Colorado",https://www.mountainproject.com/route/105763272/chickamauga,2.7,-1,Sport,5.11b,1,90,38.30838,-105.26009
"Pineapple Juice","The Bookend > Lumpy Ridge > Estes Park Valley > Colorado",https://www.mountainproject.com/route/105755569/pineapple-juice,2.7,-1,"Trad, Sport",5.11b,1,100,40.40681,-105.5372
"The Beak","Mary's Bust - left buttress > Mary's Bust Area > Big Thompson Canyon > Estes Park Valley > Colorado",https://www.mountainproject.com/route/106564842/the-beak,2.7,-1,"Trad, Sport",5.11b,4,300,40.41555,-105.3761
"Schilke Den","Ritalin Wall > God's Crag > Gunnison > Colorado",https://www.mountainproject.com/route/107276843/schilke-den,2.3,-1,Sport,5.11b,1,60,38.01232,-107.44616
Whiskey,"Roadside Crag > Spring Creek > Gunnison > Colorado",https://www.mountainproject.com/route/119388713/whiskey,2.8,-1,Sport,5.11b,1,60,38.76368,-106.76818
"Business Loop","The Watchtower > South Fork of St. Vrain Canyon > St. Vrain Canyons > Lyons > Colorado",https://www.mountainproject.com/route/114507752/business-loop,2.8,-1,Sport,"5.11b PG13",3,,40.1709,-105.4136
Orion,"Vanishing Point > Upper Dream Canyon > Boulder > Colorado",https://www.mountainproject.com/route/106368020/orion,2.8,-1,Trad,5.11b,1,75,40.00755,-105.40829
"Green Arete","Turtle Lake Cliffs > Turtle Lake > Durango > Colorado",https://www.mountainproject.com/route/106230288/green-arete,2.8,-1,Sport,5.11b,1,40,37.33375,-107.88565
"Race Against Time on the Roof of the World","Glen Haven Picnic Area > Big Thompson Canyon > Estes Park Valley > Colorado",https://www.mountainproject.com/route/105837346/race-against-time-on-the-roof-of-the-world,2.8,-1,Sport,5.11b,1,70,40.42152,-105.22604
Lookout!,"The Overlook > Staunton Rocks > Staunton State Park > South Platte > Colorado",https://www.mountainproject.com/route/119662507/lookout,2.6,-1,Sport,5.11b,1,45,39.51825,-105.39656
"Farthest Planet","Astronomy Wall > East Side Crags > Poudre Falls > West of Rustic > Poudre Canyon > Fort Collins > Colorado",https://www.mountainproject.com/route/117234966/farthest-planet,2.6,-1,Sport,5.11b,1,80,40.64791,-105.80928
"Saint Peter","The Pearly Gates > Clear Creek Canyon > Golden > Colorado",https://www.mountainproject.com/route/114085730/saint-peter,2.6,-1,Sport,5.11b,1,65,39.74492,-105.40291
"Krystal Klyr","Mickey Mouse Wall > Eldorado Mountain > Boulder > Colorado",https://www.mountainproject.com/route/105848169/krystal-klyr,2.5,-1,"Trad, TR","5.11b X",1,110,39.91728,-105.28551
"U.S. Blues","Friendship Wall > Cascade Canyon > Durango > Colorado",https://www.mountainproject.com/route/113409615/us-blues,2.5,-1,Sport,5.11b,1,45,37.65862,-107.8088
"Leather Queen","Lower Ice Caves > Ice Cave Walls > Rifle Mountain Park > Rifle > Colorado",https://www.mountainproject.com/route/105942647/leather-queen,1.9,-1,Sport,5.11b,1,30,39.70939,-107.69332
"Dirty Burger","Sunnyvale > Twilight Area > The Narrows > Poudre Canyon > Fort Collins > Colorado",https://www.mountainproject.com/route/111170001/dirty-burger,2.5,-1,Sport,5.11b,1,70,40.67648,-105.43116
"Iron Cross","East Ridge > Fern Canyon > South > Flatirons > Boulder > Colorado",https://www.mountainproject.com/route/106317672/iron-cross,2.5,-1,"Trad, Sport",5.11b,2,100,39.9665,-105.2894
"Reptiles Lust and Dogs","Penitente - Inner Canyon > Penitente Canyon > San Luis Valley > Colorado",https://www.mountainproject.com/route/105878602/reptiles-lust-and-dogs,2.4,-1,Sport,5.11b,1,60,37.84519,-106.28863
"Shady Affair","The Garden Wall > Clear Creek Canyon > Golden > Colorado",https://www.mountainproject.com/route/109865759/shady-affair,2.3,-1,Sport,5.11b,1,70,39.73726,-105.31219
[Redacted],"01. Piggy Bank > The Bank > Shelf Road > Canon City > Colorado",https://www.mountainproject.com/route/108912071/redacted,2.1,-1,Sport,5.11b,1,50,38.63547,-105.23428
"11 Gallon Hat","2. Blazing Saddles > Dines Cliff > Staunton State Park > South Platte > Colorado",https://www.mountainproject.com/route/113266231/11-gallon-hat,2.6,-1,TR,5.11b,1,80,39.50346,-105.37002
"Arblow Hard","Far Side > The Gallery > Shelf Road > Canon City > Colorado",https://www.mountainproject.com/route/112846185/arblow-hard,2.3,-1,Sport,5.11b,1,60,38.6187,-105.2377
"The Diet","Upper Pitbull Cliff > Upper Boulderfield Area > Independence Pass > Colorado",https://www.mountainproject.com/route/112143677/the-diet,2.6,-1,Sport,5.11b,1,45,39.11762,-106.69018
"Don't Peav the Beav","Red Wall > The Palace > Poudre Canyon > Fort Collins > Colorado",https://www.mountainproject.com/route/106663559/dont-peav-the-beav,2.7,-1,Sport,5.11b,1,,40.6923,-105.379
"Die Heeda Rule","Hawk-Eagle Ridge > Eldorado Canyon State Park > Boulder > Colorado",https://www.mountainproject.com/route/105763737/die-heeda-rule,2.1,-1,Trad,5.11b,1,,39.9314,-105.2879
"Gravity Well","D. The Badlands > Black Creek Wall > Old Mill Area > Staunton State Park > South Platte > Colorado",https://www.mountainproject.com/route/122239083/gravity-well,2.7,-1,Sport,"5.11b PG13",2,150,39.52364,-105.38746
"Jane Eyre","Classic Cliff > Upper Dream Canyon > Boulder > Colorado",https://www.mountainproject.com/route/105831275/jane-eyre,2.7,-1,"Trad, Sport",5.11b,1,60,40.0102,-105.4066
Neckgina,"The Main Wall > Hank's World > Mother's Buttress > Main Canyon: Unaweep Granite > Unaweep Canyon > Grand Junction Area > Colorado",https://www.mountainproject.com/route/119070368/neckgina,2.7,-1,Trad,5.11b,1,90,38.81394,-108.62312
"3AM Handy","G. Apple Cider > East  Animas > Durango > Colorado",https://www.mountainproject.com/route/111686815/3am-handy,2.7,-1,"Trad, TR",5.11b,1,80,37.32124,-107.83364
"Brothers of the Egg","Cam and Eggs Wall > Devil's Head > South Platte > Colorado",https://www.mountainproject.com/route/115360269/brothers-of-the-egg,2.7,-1,Sport,5.11b,1,50,39.25937,-105.10314
"The Gem","Redgarden - Roof Routes > Redgarden Wall > Eldorado Canyon State Park > Boulder > Colorado",https://www.mountainproject.com/route/106331424/the-gem,2.7,-1,Trad,"5.11b PG13",1,35,39.93112,-105.2846
"Bulging Codpiece (submitted as On the Crest)","Rincon - Center Route & R > Rincon > Eldorado Canyon State Park > Boulder > Colorado",https://www.mountainproject.com/route/105763581/bulging-codpiece-submitted-as-on-the-crest,2.7,-1,Trad,5.11b,1,126,39.93423,-105.28939
"Abre Los Ojos","Overlook Cliff > Ouray vicinity (rock) > Colorado",https://www.mountainproject.com/route/105957229/abre-los-ojos,2.7,-1,Sport,5.11b,1,70,38.0138,-107.6771
"Pura Vida","Mill Creek Wall > Telluride/Norwood area > Colorado",https://www.mountainproject.com/route/110606346/pura-vida,2.7,-1,Sport,5.11b,1,60,38.07706,-107.61041
"Rainbows and Unicorns","Mill Creek Wall > Telluride/Norwood area > Colorado",https://www.mountainproject.com/route/109265072/rainbows-and-unicorns,2.7,-1,Sport,5.11b,1,60,38.07706,-107.61041
"Way Jingus","North Face > Java Dome > Deckers > South Platte > Colorado",https://www.mountainproject.com/route/106833887/way-jingus,2.7,-1,TR,5.11b,1,150,39.38173,-105.16531
A.O.D.,"The Sundrop > South Fork of St. Vrain Canyon > St. Vrain Canyons > Lyons > Colorado",https://www.mountainproject.com/route/107338196/aod,3.0,-1,"Trad, Sport",5.11b,1,80,40.17194,-105.37274
"The Camel Head","The Skillet > The Frying Pan > Carbondale Area > Colorado",https://www.mountainproject.com/route/106588016/the-camel-head,2.7,-1,Sport,5.11b,2,120,39.36705,-106.83188
"Big, Bad Book","South Face of Arthur's Rock > Arthur's Rock > Lory State Park > Fort Collins > Colorado",https://www.mountainproject.com/route/108010112/big-bad-book,2.5,-1,"Trad, Sport",5.11b,2,160,40.5669,-105.1872
"Darrelict of Dialect (submitted as Dan Speaks Darrly)","Spray Wall > Elevenmile Canyon > South Platte > Colorado",https://www.mountainproject.com/route/105912805/darrelict-of-dialect-submitted-as-dan-speaks-darrly,2.3,-1,Sport,5.11b,1,50,38.93993,-105.40626
Excalibur,"Myth Rock > Boulder Canyon > Boulder > Colorado",https://www.mountainproject.com/route/105764781/excalibur,2.3,-1,Sport,5.11b,2,80,39.9989,-105.4133
"Marital Diss","Bay of Pigs > The Pool Wall > Ouray vicinity (rock) > Colorado",https://www.mountainproject.com/route/107854940/marital-diss,2.7,-1,Sport,5.11b,1,80,38.03072,-107.67112
"Exit Wounds","The Exit Wall > Lime Park (a.k.a. Lime Creek) > Eagle/Vail/Minturn/Red Cliff > Colorado",https://www.mountainproject.com/route/108250540/exit-wounds,2.5,-1,Sport,5.11b,1,50,39.40854,-106.65175
"Riding the Pine","The Grove > Lime Park (a.k.a. Lime Creek) > Eagle/Vail/Minturn/Red Cliff > Colorado",https://www.mountainproject.com/route/105991130/riding-the-pine,2.3,-1,Sport,5.11b,1,50,39.4052,-106.6578
Unrepenitente,"Penitente - Inner Canyon > Penitente Canyon > San Luis Valley > Colorado",https://www.mountainproject.com/route/105878611/unrepenitente,2.0,-1,Sport,5.11b,1,60,37.84519,-106.28863
"Father Knows Best","The Matron > South > Flatirons > Boulder > Colorado",https://www.mountainproject.com/route/105761283/father-knows-best,2.4,-1,"Trad, Sport",5.11b,1,70,39.94304,-105.2884
"Crack Happens","The Dark Side > Shelf Road > Canon City > Colorado",https://www.mountainproject.com/route/108378209/crack-happens,2.4,-1,Sport,5.11b,1,70,38.6281,-105.2239
"Hunting Party","Scout Rock > South Fork of St. Vrain Canyon > St. Vrain Canyons > Lyons > Colorado",https://www.mountainproject.com/route/105749677/hunting-party,2.4,-1,Sport,5.11b,1,85,40.2037,-105.3111
"Regulation 9 aka Left of Scandinavian Dreams","Vulture Walls > Castlewood Canyon SP > Denver South > Colorado",https://www.mountainproject.com/route/107139642/regulation-9-aka-left-of-scandinavian-dreams,2.1,-1,Sport,5.11b,1,,39.34536,-104.75589
"Liquid Affair","Menses Prow > The Gallery > Shelf Road > Canon City > Colorado",https://www.mountainproject.com/route/105752902/liquid-affair,1.9,-1,Sport,5.11b,1,,38.6199,-105.2371
Wingshot,"West Ridge - part A - Verschneidung to base > The West Ridge > Eldorado Canyon State Park > Boulder > Colorado",https://www.mountainproject.com/route/105758404/wingshot,2.1,-1,Trad,5.11b,1,80,39.93063,-105.28689
"Peace Yo","Mural Wall > The Gallery > Shelf Road > Canon City > Colorado",https://www.mountainproject.com/route/114029204/peace-yo,2.2,-1,Sport,5.11b,1,,38.6197,-105.2357
"Launchpad McQuack","South Side > Bird Rock > West Creek > South Platte > Colorado",https://www.mountainproject.com/route/111697632/launchpad-mcquack,2.5,-1,Sport,5.11b,1,70,39.16408,-105.21653
"The Princess Tried","The Cliffs of Insanity > South Fork of St. Vrain Canyon > St. Vrain Canyons > Lyons > Colorado",https://www.mountainproject.com/route/107309516/the-princess-tried,2.5,-1,Sport,5.11b,2,150,40.1863,-105.3334
5.11b,"Split Rock > Buena Vista > Colorado",https://www.mountainproject.com/route/106756341/511b,2.5,-1,"Trad, Sport",5.11b,1,40,38.88556,-106.13766
"Gray Block Right (submitted as Blue Route 1)","The Punchbowl > Lime Park (a.k.a. Lime Creek) > Eagle/Vail/Minturn/Red Cliff > Colorado",https://www.mountainproject.com/route/108356299/gray-block-right-submitted-as-blue-route-1,2.1,-1,Sport,5.11b,1,30,39.4058,-106.6547
"Inspector Closeau","Squawk Rock > Ptarmigan Creek Area > Independence Pass > Colorado",https://www.mountainproject.com/route/107706684/inspector-closeau,2.5,-1,Sport,5.11b,1,50,39.12518,-106.68185
"O.S.H.A. Inspection","The Corporate Walls > Castlewood Canyon SP > Denver South > Colorado",https://www.mountainproject.com/route/105753682/osha-inspection,2.5,-1,Sport,5.11b,1,,39.33111,-104.73864
"Tooth and Nail","Right Side > Plotinus Wall > Lower Dream Canyon > Boulder Canyon > Boulder > Colorado",https://www.mountainproject.com/route/105759354/tooth-and-nail,2.1,-1,"Trad, Sport",5.11b,1,80,40.00683,-105.40619
"Spanker Mast","The Sail > Triple Tier Area > Poudre Canyon > Fort Collins > Colorado",https://www.mountainproject.com/route/114454939/spanker-mast,2.1,-1,Sport,5.11b,1,80,40.6924,-105.3755
"Intestinal Fortitude","South Face of Arthur's Rock > Arthur's Rock > Lory State Park > Fort Collins > Colorado",https://www.mountainproject.com/route/108010161/intestinal-fortitude,2.3,-1,Sport,5.11b,1,60,40.5669,-105.1872
"Slip It In","The Red Slab > Clear Creek Canyon > Golden > Colorado",https://www.mountainproject.com/route/105751582/slip-it-in,2.1,-1,Sport,5.11b,1,,39.7443,-105.2994
"Shock Collar","Upper Bulldog Cliff > Upper Boulderfield Area > Independence Pass > Colorado",https://www.mountainproject.com/route/107242557/shock-collar,2.4,-1,Sport,5.11b,1,50,39.12695,-106.6674
Overflow,"River Wall > Clear Creek Canyon > Golden > Colorado",https://www.mountainproject.com/route/105751927/overflow,2.2,-1,Sport,5.11b,1,,39.7373,-105.3189
"Grandpa's Cough Syrup","Riverside Zone > Grandpa's Bridge > Poudre Canyon > Fort Collins > Colorado",https://www.mountainproject.com/route/111677062/grandpas-cough-syrup,2.3,-1,Sport,5.11b,1,60,40.69151,-105.51269
"Mind Over Matter","Rincon - Center Route & R > Rincon > Eldorado Canyon State Park > Boulder > Colorado",https://www.mountainproject.com/route/105764316/mind-over-matter,2.4,-1,"Trad, TR",5.11b,1,,39.93423,-105.28939
"Angel Baby","Main Wall > Surgery Buttress > Glenwood Canyon > Glenwood Springs > Colorado",https://www.mountainproject.com/route/106409758/angel-baby,2.3,-1,Sport,5.11b,1,50,39.62375,-107.13401
Eluebbenator,"Happy Hour Crag > Poudre Canyon > Fort Collins > Colorado",https://www.mountainproject.com/route/119235556/eluebbenator,2.5,-1,Trad,5.11b,1,80,40.70022,-105.25132
"Funyun Warm Up","Funyun Wall > Clear Creek Canyon > Golden > Colorado",https://www.mountainproject.com/route/120931621/funyun-warm-up,2.8,-1,Sport,5.11b,1,60,39.73987,-105.32452
"Roar of Lightning","Below the Amphitheater > Juniper Pass > Morrison/Evergreen/Littleton > Colorado",https://www.mountainproject.com/route/115191463/roar-of-lightning,2.5,-1,"Trad, TR",5.11b,1,70,39.6696,-105.5758
"Chariots of Fire (to 1st Anchor)","East Side Wall > The Arena > Devil's Head > South Platte > Colorado",https://www.mountainproject.com/route/119455236/chariots-of-fire-to-1st-anchor,2.5,-1,Sport,5.11b,1,80,39.25679,-105.10226
"Zero Degrees Kelvin Direct","Streaked Wall > The Falls Walls > Telluride/Norwood area > Colorado",https://www.mountainproject.com/route/118257537/zero-degrees-kelvin-direct,2.5,-1,Sport,5.11b,1,85,37.9199,-107.7758
"Under The Knife","Switchblade > Sawblade Ridge > Devil's Head > South Platte > Colorado",https://www.mountainproject.com/route/113272765/under-the-knife,2.5,-1,Sport,5.11b,1,80,39.26196,-105.09557
"D5 - Lieback Flake","Main Area > Sedalia Crack Bouldering > South Platte > Colorado",https://www.mountainproject.com/route/111668647/d5-lieback-flake,2.5,-1,TR,5.11b,1,9,39.37678,-105.10127
"Southern Cross","The Bookend > Lumpy Ridge > Estes Park Valley > Colorado",https://www.mountainproject.com/route/106033397/southern-cross,2.7,-1,Trad,5.11b,1,70,40.40681,-105.5372
Cowabunga,"The Gorilla > The Congo > Buoux Montana > Eldorado Mountain > Boulder > Colorado",https://www.mountainproject.com/route/110327783/cowabunga,2.5,-1,Sport,5.11b,1,,39.90315,-105.28802
"Monks in Heat","Monastery > Campsite 5 Area > Lincoln Creek > Independence Pass > Colorado",https://www.mountainproject.com/route/114544475/monks-in-heat,2.5,-1,Trad,5.11b,1,50,39.11192,-106.68458
"Shitty Surprise","The Acrophile > South Fork of St. Vrain Canyon > St. Vrain Canyons > Lyons > Colorado",https://www.mountainproject.com/route/112343562/shitty-surprise,2.5,-1,Trad,"5.11b PG13",1,40,40.1863,-105.3334
Basilica,"Bear's Lair > The Monastery > Big Thompson Canyon > Estes Park Valley > Colorado",https://www.mountainproject.com/route/105828801/basilica,2.5,-1,Sport,5.11b,1,60,40.4531,-105.3689
"The Scolex","The Elemental Wall > Redstone Area > Carbondale Area > Colorado",https://www.mountainproject.com/route/110695678/the-scolex,2.5,-1,Sport,5.11b,1,80,39.20852,-107.23371
"Shot and Chaser","West Ridge - part A - Verschneidung to base > The West Ridge > Eldorado Canyon State Park > Boulder > Colorado",https://www.mountainproject.com/route/105758644/shot-and-chaser,2.5,-1,Trad,5.11b,1,100,39.93063,-105.28689
"Dustbowl Dance","The Pharcyde > San Luis Valley > Colorado",https://www.mountainproject.com/route/107929591/dustbowl-dance,2.5,-1,Sport,5.11b,1,40,37.5756,-106.32993
Schmaussers,"Springer Gulch Wall > Elevenmile Canyon > South Platte > Colorado",https://www.mountainproject.com/route/108264560/schmaussers,2.7,-1,Sport,5.11b,1,70,38.93001,-105.42522
"The Coroner","The Mortuary > South Fork of St. Vrain Canyon > St. Vrain Canyons > Lyons > Colorado",https://www.mountainproject.com/route/107621771/the-coroner,2.5,-1,"Trad, Sport",5.11b,1,80,40.18577,-105.3331
"Liquid Pork","Contest Wall > Sand Gulch > Shelf Road > Canon City > Colorado",https://www.mountainproject.com/route/106162360/liquid-pork,2.1,-1,Sport,"5.11b PG13",1,60,38.62148,-105.23217
"Shock the Monkey","Dump Wall > Twin Lakes Area > Independence Pass > Colorado",https://www.mountainproject.com/route/106206905/shock-the-monkey,2.5,-1,Sport,5.11b,1,,39.12042,-106.70159
"Rise Above This","Inaugural Crag > Georgetown > Colorado",https://www.mountainproject.com/route/106385456/rise-above-this,2.5,-1,Sport,5.11b,1,80,39.7107,-105.695
"Living on the Edge","The Brick Wall > Boulder Canyon > Boulder > Colorado",https://www.mountainproject.com/route/105748017/living-on-the-edge,2.1,-1,"Trad, TR","5.11b R",1,100,40.0037,-105.3635
"Wailing Wall","Woodstone > Woodstone, Half & Half, and Slot Rock > The Crags > CO Hwy 7 & Tributaries > Estes Park Valley > Colorado",https://www.mountainproject.com/route/106836718/wailing-wall,1.9,-1,Sport,5.11b,1,50,40.30619,-105.52353
"Lesser of Two Evils","08. Lesser Of Two Evils > The Bank > Shelf Road > Canon City > Colorado",https://www.mountainproject.com/route/105760824/lesser-of-two-evils,2.3,-1,Sport,5.11b,1,60,38.63266,-105.22956
Rush,"Lost Angel > Upper Dream Canyon > Boulder > Colorado",https://www.mountainproject.com/route/105761178/rush,2.1,-1,Sport,5.11b,1,70,40.0089,-105.41
"K - fight","Lower Grotto Wall > Grotto Walls Area > Independence Pass > Colorado",https://www.mountainproject.com/route/121054840/k-fight,2.3,-1,Sport,5.11b,1,45,39.11983,-106.70002
Tortuga,"Contest Wall > Sand Gulch > Shelf Road > Canon City > Colorado",https://www.mountainproject.com/route/108669060/tortuga,2.1,-1,Sport,5.11b,1,50,38.62148,-105.23217
Jaguary,"Bitty Buttress > Boulder Canyon > Boulder > Colorado",https://www.mountainproject.com/route/105890858/jaguary,2.1,-1,Trad,"5.11b PG13",1,70,40.0018,-105.3869
"Captain Chaos","I. Watch Crystal > East  Animas > Durango > Colorado",https://www.mountainproject.com/route/122624364/captain-chaos,2.3,-1,Trad,5.11b,1,90,37.32033,-107.83351
"Halcyon Days","The Wind Tunnel > Big Thompson Canyon > Estes Park Valley > Colorado",https://www.mountainproject.com/route/122573431/halcyon-days,2.3,-1,Trad,5.11b,1,90,40.3914,-105.41669
"Alien Hot Rod","Area 51 > South Fork of St. Vrain Canyon > St. Vrain Canyons > Lyons > Colorado",https://www.mountainproject.com/route/107285364/alien-hot-rod,2.1,-1,"Trad, Sport",5.11b,1,80,40.19651,-105.32108
"Rock Drop","North Horsetooth Ridge > Horsetooth Reservoir > Fort Collins > Colorado",https://www.mountainproject.com/route/107172792/rock-drop,2.3,-1,"Trad, TR","5.11b PG13",1,35,40.60839,-105.17039
"Trail of Honey","Kannah Creek Wall > Land's End Area > Grand Mesa > Grand Junction Area > Colorado",https://www.mountainproject.com/route/108211116/trail-of-honey,3.5,-1,Sport,5.11b,1,70,39.0002,-108.1556
"Unknown  1","The North Gym > Shelf Road > Canon City > Colorado",https://www.mountainproject.com/route/107067383/unknown-1,2.3,-1,Sport,5.11b,1,80,38.6395,-105.215
Hootenanny,"Zipper Buttress > The Neighborhood > Glenwood Canyon > Glenwood Springs > Colorado",https://www.mountainproject.com/route/107586545/hootenanny,2.3,-1,Sport,5.11b,1,80,39.55116,-107.31743
"Just Say No to Nancy","Rock Garden > San Luis Valley > Colorado",https://www.mountainproject.com/route/106263800/just-say-no-to-nancy,2.3,-1,Sport,5.11b,1,70,37.85137,-106.29103
"Hook & Drill","A. Triple Tree Area > East  Animas > Durango > Colorado",https://www.mountainproject.com/route/106258810/hook-drill,2.3,-1,"Trad, Sport",5.11b,1,65,37.31829,-107.83598
"Leftover Salmon","Sushi Slab > Clear Creek Canyon > Golden > Colorado",https://www.mountainproject.com/route/117330110/leftover-salmon,2.3,-1,Sport,5.11b,1,50,39.74063,-105.40797
"Rain Delay","Country Club Cave > Golf Wall > Durango > Colorado",https://www.mountainproject.com/route/106067105/rain-delay,2.2,-1,Sport,5.11b,1,,37.51721,-107.81582
"Counting Sheep","Right Side > Plotinus Wall > Lower Dream Canyon > Boulder Canyon > Boulder > Colorado",https://www.mountainproject.com/route/105755839/counting-sheep,2.2,-1,"Trad, Sport",5.11b,1,,40.00683,-105.40619
"Quest for Balance","The Hand > Central > Flatirons > Boulder > Colorado",https://www.mountainproject.com/route/105759981/quest-for-balance,2.2,-1,"Sport, TR",5.11b,1,60,39.9738,-105.2894
1979,"03. Machine Gun Kelly > The Bank > Shelf Road > Canon City > Colorado",https://www.mountainproject.com/route/111098815/1979,1.8,-1,Sport,5.11b,1,35,38.63524,-105.2317
"Anarchy X","Quarry Wall at the Bank > The Bank > Shelf Road > Canon City > Colorado",https://www.mountainproject.com/route/118282548/anarchy-x,2.2,-1,Trad,5.11b,1,45,38.64085,-105.24069
"Shade Tree Mechanic","Shady Lane > The Arena > Devil's Head > South Platte > Colorado",https://www.mountainproject.com/route/119402530/shade-tree-mechanic,2.3,-1,Sport,5.11b,1,45,39.25709,-105.10258
"Bolt the Planet","The Gym > Shelf Road > Canon City > Colorado",https://www.mountainproject.com/route/106935168/bolt-the-planet,2.2,-1,Sport,5.11b,1,50,38.6329,-105.2165
"Limestone Politician","Contest Wall > Sand Gulch > Shelf Road > Canon City > Colorado",https://www.mountainproject.com/route/111313175/limestone-politician,2.2,-1,Sport,5.11b,1,80,38.62148,-105.23217
"Shootin' Off At The Mouth","Ridge 1 > Eldorado Mountain > Boulder > Colorado",https://www.mountainproject.com/route/105799890/shootin-off-at-the-mouth,2.2,-1,Sport,5.11b,1,70,39.9081,-105.28817
Gunky,"Ridge 1 aka Stairway to Heaven > Skunk Canyon > North > Flatirons > Boulder > Colorado",https://www.mountainproject.com/route/106055473/gunky,2.2,-1,Trad,"5.11b PG13",2,150,39.979,-105.29
"Just Face It","Bulldog Balcony > Upper Boulderfield Area > Independence Pass > Colorado",https://www.mountainproject.com/route/107242515/just-face-it,2.3,-1,Sport,5.11b,1,50,39.12626,-106.66738
"Easy Money","The Vault > Shelf Road > Canon City > Colorado",https://www.mountainproject.com/route/105969759/easy-money,1.8,-1,Sport,5.11b,1,70,38.6326,-105.2241
"Habitually Human","Free Form Wall > Sand Gulch > Shelf Road > Canon City > Colorado",https://www.mountainproject.com/route/112276276/habitually-human,1.9,-1,Sport,5.11b,1,,38.6218,-105.23101
Confession,"Mount Boner > The Ironclads > CO Hwy 7 & Tributaries > Estes Park Valley > Colorado",https://www.mountainproject.com/route/105753268/confession,1.9,-1,"Sport, TR",5.11b,1,,40.1684,-105.4782
"Mouse Almighty","The Punchbowl > Lime Park (a.k.a. Lime Creek) > Eagle/Vail/Minturn/Red Cliff > Colorado",https://www.mountainproject.com/route/113265548/mouse-almighty,1.8,-1,Sport,5.11b,1,45,39.4058,-106.6547
"Skin the Cat (Unknown  1)","Skinner Mountain > Buffalo Creek > South Platte > Colorado",https://www.mountainproject.com/route/108540832/skin-the-cat-unknown-1,2.0,-1,Sport,5.11b,1,120,39.30804,-105.27097
Grubstake,"The Hideout > Boulder Canyon > Boulder > Colorado",https://www.mountainproject.com/route/106667770/grubstake,2.0,-1,Sport,5.11b,1,50,40.0034,-105.4123
"For Whom the Bell Tolls","The Patio > Bell Buttress Massif > Boulder Canyon > Boulder > Colorado",https://www.mountainproject.com/route/105753487/for-whom-the-bell-tolls,2.0,-1,Sport,5.11b,1,,40.0012,-105.413
"Lions and Christians","East Side > De-Spectactulus Tower > The Arena > Devil's Head > South Platte > Colorado",https://www.mountainproject.com/route/105761607/lions-and-christians,2.0,-1,Sport,5.11b,1,60,39.25668,-105.10263
"Ziggy Sells Out","Mirror Wall > Devil's Head > South Platte > Colorado",https://www.mountainproject.com/route/105754423/ziggy-sells-out,2.0,-1,Sport,5.11b,1,,39.25631,-105.09907
Turtleman,"Live Action Wall > Clear Creek Canyon > Golden > Colorado",https://www.mountainproject.com/route/114981511/turtleman,2.0,-1,Sport,5.11b,1,95,39.74242,-105.40955
"Standing Eight Count","The Arena (aka Contender Wall) > Boulder Canyon > Boulder > Colorado",https://www.mountainproject.com/route/105755563/standing-eight-count,2.0,-1,Sport,5.11b,1,,40.0024,-105.4102
Pointillist,"Morning Sun Wall > Castlewood Canyon SP > Denver South > Colorado",https://www.mountainproject.com/route/105756370/pointillist,2.0,-1,"Sport, TR",5.11b,1,,39.34873,-104.76605
"Believe It Or Not","Broken Angel > Clear Creek Canyon > Golden > Colorado",https://www.mountainproject.com/route/115356178/believe-it-or-not,2.0,-1,Trad,5.11b,1,100,39.74168,-105.41263
"Billy Bob","D. Hillbilly Wall > Dolores River Canyon (Dove Creek) > Four Corners Area > Colorado",https://www.mountainproject.com/route/121941187/billy-bob,3.0,-1,Trad,5.11b,1,90,37.80415,-108.82066
"Thorodin's Hammer","Third/North Buttress > Mt. Thorodin > Golden Gate Canyon SP > Golden > Colorado",https://www.mountainproject.com/route/113752272/thorodins-hammer,2.0,-1,Sport,5.11b,1,60,39.88572,-105.43148
