Route,Location,URL,"Avg Stars","Your Stars","Route Type",Rating,Pitches,Length,"Area Latitude","Area Longitude"
"Lead 101","Under the Measles Wall > Measles Walls > Crane Mountain > G: Indian Lake Region > Adirondacks > New York",https://www.mountainproject.com/route/107897116/lead-101,2.6,-1,Trad,5.1,1,65,43.53828,-73.95797
"Three Little Pigs","6.2 Fairy Tales > s. Books Tier > Powerlinez > New York",https://www.mountainproject.com/route/112902071/three-little-pigs,2.5,-1,TR,5.1,1,35,41.14589,-74.16495
"Easy Ramp","Eagle Falls > I: Old Forge Region > Adirondacks > New York",https://www.mountainproject.com/route/114543945/easy-ramp,2.0,-1,"Trad, TR",5.1,1,60,43.9051,-75.1959
"Lead 102","Under the Measles Wall > Measles Walls > Crane Mountain > G: Indian Lake Region > Adirondacks > New York",https://www.mountainproject.com/route/107897106/lead-102,1.8,-1,Trad,5.1,1,65,43.53828,-73.95797
"A Walk in the Sky","Huckleberry Mountain > G: Indian Lake Region > Adirondacks > New York",https://www.mountainproject.com/route/108642302/a-walk-in-the-sky,2.0,-1,Trad,"5.1 X",1,200,43.78244,-74.26537
"Stepping Stones","Wayout's Lefthand Slabs > Wayout Wall > Crane Mountain > G: Indian Lake Region > Adirondacks > New York",https://www.mountainproject.com/route/107333173/stepping-stones,2.0,-1,Trad,5.1,1,120,43.5378,-73.9677
