Route,Location,URL,"Avg Stars","Your Stars","Route Type",Rating,Pitches,Length,"Area Latitude","Area Longitude"
"Post Moderate","Winter Wall > Diablo Canyon > Santa Fe Area > New Mexico",https://www.mountainproject.com/route/105796992/post-moderate,3.5,-1,Sport,5.9,1,135,35.80564,-106.14022
"Imitation Strawberry","Main Wall > Little River Wall > El Rito > New Mexico",https://www.mountainproject.com/route/109281950/imitation-strawberry,3.0,-1,Sport,5.9,1,90,36.38922,-106.23463
"Scurvy Dog","Pirate's Wall > El Rito Sport Area > El Rito > New Mexico",https://www.mountainproject.com/route/105818432/scurvy-dog,3.0,-1,Sport,5.9,1,60,36.39247,-106.19592
"Eat Mor Chikin","(A) Cattle Call Wall Area > Las Conchas > Jemez Mountains and Jemez Valley > New Mexico",https://www.mountainproject.com/route/107273373/eat-mor-chikin,2.6,-1,Sport,5.9,1,50,35.81428,-106.53097
"Clast Action","Super Slab > El Rito Sport Area > El Rito > New Mexico",https://www.mountainproject.com/route/105818709/clast-action,2.6,-1,Sport,5.9,1,80,36.39224,-106.19574
"Bovine Inspiration","(A) Cattle Call Wall Area > Las Conchas > Jemez Mountains and Jemez Valley > New Mexico",https://www.mountainproject.com/route/105860888/bovine-inspiration,2.5,-1,Sport,5.9,1,45,35.81428,-106.53097
"Aviary Ort Overhangs","The Thumb > La Cueva Canyon, Upper > Sandia Mountains > Albuquerque Area > New Mexico",https://www.mountainproject.com/route/105790860/aviary-ort-overhangs,3.6,-1,Trad,5.9,3,,35.2049,-106.454
"Slacker Ken","Rad Wall > El Rito Sport Area > El Rito > New Mexico",https://www.mountainproject.com/route/105976069/slacker-ken,2.5,-1,Sport,5.9,1,,36.39259,-106.19534
"Lonesome Dove","(09) The Far Side II > Palomas Peak > Albuquerque Area > New Mexico",https://www.mountainproject.com/route/105884768/lonesome-dove,3.1,-1,Sport,5.9,1,,35.2347,-106.406
"Bush Shark Spire","Bush Shark Area > Echo Canyon > Sandia Mountains > Albuquerque Area > New Mexico",https://www.mountainproject.com/route/105905456/bush-shark-spire,3.1,-1,Trad,5.9,2,200,35.20217,-106.44633
"Warpy Moople","Muralla Grande > Chimney Canyon > Sandia Mountains > Albuquerque Area > New Mexico",https://www.mountainproject.com/route/105903365/warpy-moople,3.5,-1,Trad,"5.9 R",7,800,35.2152,-106.455
"Crucial Taunt","(L) Easy Bake Alcove > Las Conchas > Jemez Mountains and Jemez Valley > New Mexico",https://www.mountainproject.com/route/108769430/crucial-taunt,3.2,-1,Sport,5.9,1,60,35.82217,-106.54039
"Helical Tusk","Gnar Wall and Route Canal > El Rito Sport Area > El Rito > New Mexico",https://www.mountainproject.com/route/111012807/helical-tusk,2.5,-1,Sport,5.9,1,46,36.39297,-106.19541
"Love Handles","(E) Love Shack Area > Las Conchas > Jemez Mountains and Jemez Valley > New Mexico",https://www.mountainproject.com/route/107678991/love-handles,2.6,-1,Sport,5.9,1,45,35.81876,-106.53353
"Clean Green Dream","Mosaic Rock > Tres Piedras > Taos Area > New Mexico",https://www.mountainproject.com/route/106009080/clean-green-dream,3.4,-1,Trad,5.9,1,140,36.66049,-105.98299
"Upper Kor's Crack","Potrillo Cliffs > White Rock > Los Alamos & White Rock > New Mexico",https://www.mountainproject.com/route/106111965/upper-kors-crack,3.5,-1,"Trad, TR",5.9,1,45,35.7943,-106.2162
Tijerina,"(L2) Hopper's Hangover Wall > Utopian Vistas > Taos Area > New Mexico",https://www.mountainproject.com/route/105965809/tijerina,3.3,-1,Sport,5.9,1,90,36.36395,-105.72795
"Beginner's Hand Jam","The Playground > White Rock > Los Alamos & White Rock > New Mexico",https://www.mountainproject.com/route/105995997/beginners-hand-jam,3.2,-1,"Trad, TR",5.9,1,60,35.8164,-106.1912
"Cholla Crack","South/East side > The Overlook > White Rock > Los Alamos & White Rock > New Mexico",https://www.mountainproject.com/route/105940688/cholla-crack,2.8,-1,"Trad, TR",5.9,1,50,35.82733,-106.17868
Lakme,"Hueco Wall > Northern Box areas > The Box Climbing Areas > Socorro Area > New Mexico",https://www.mountainproject.com/route/106096087/lakme,2.6,-1,Sport,5.9,1,50,34.00056,-106.99002
"Pale Rider","(B) Spaghetti Western Wall > Upper East Fork (UEF) > Jemez Mountains and Jemez Valley > New Mexico",https://www.mountainproject.com/route/106383139/pale-rider,2.4,-1,Sport,5.9,1,70,35.81978,-106.52028
"Under the Bull","(A) North End routes > Rough and Ready Hills > Las Cruces Area Climbing > New Mexico",https://www.mountainproject.com/route/107007289/under-the-bull,2.7,-1,Sport,5.9,1,50,32.39571,-107.03754
"More Fun Than Three Monkeys in a Bananamobile","Scarry Wall > Southern Box areas > The Box Climbing Areas > Socorro Area > New Mexico",https://www.mountainproject.com/route/111154394/more-fun-than-three-monkeys-in-a-bananamobile,2.8,-1,Sport,5.9,1,40,33.98639,-106.99529
"Barfly Blues","Alcohol Wall South > Southern Box areas > The Box Climbing Areas > Socorro Area > New Mexico",https://www.mountainproject.com/route/106659455/barfly-blues,2.7,-1,Sport,5.9,1,70,33.98607,-106.98897
"Black Velvet","Southern Comfort Wall > Rabbit Ears Area > Organ Mountains > Las Cruces Area Climbing > New Mexico",https://www.mountainproject.com/route/105789454/black-velvet,3.2,-1,Trad,5.9,3,200,32.3668,-106.5878
"In Descent","Fire Wall > Upper Tier > Comales Canyon > Taos Area > New Mexico",https://www.mountainproject.com/route/106302424/in-descent,2.8,-1,Sport,5.9,1,70,36.15739,-105.58167
Alien,"West Rock > Tres Piedras > Taos Area > New Mexico",https://www.mountainproject.com/route/106015179/alien,2.9,-1,Trad,5.9,1,,36.6608,-105.9829
"Babies in the House","(L) Easy Bake Alcove > Las Conchas > Jemez Mountains and Jemez Valley > New Mexico",https://www.mountainproject.com/route/108769404/babies-in-the-house,2.5,-1,Sport,5.9,1,50,35.82217,-106.54039
"The Mile-High Club","Runway (Lower Tier) > Early Wall > Diablo Canyon > Santa Fe Area > New Mexico",https://www.mountainproject.com/route/116797534/the-mile-high-club,2.6,-1,Sport,5.9,1,60,35.80524,-106.14249
"The Egg","Chicken Little Area > Cockscomb Crag > Diablo Canyon > Santa Fe Area > New Mexico",https://www.mountainproject.com/route/105864331/the-egg,2.8,-1,Sport,5.9,1,60,35.8191,-106.16317
"Today We Climb...Tomorrow We Die!","(B) Spaghetti Western Wall > Upper East Fork (UEF) > Jemez Mountains and Jemez Valley > New Mexico",https://www.mountainproject.com/route/107753629/today-we-climbtomorrow-we-die,2.7,-1,Sport,5.9,1,63,35.81978,-106.52028
"Seventh Sojourn","WatchTower > Pinnacle Valley > Sandia Mountains > Albuquerque Area > New Mexico",https://www.mountainproject.com/route/106018148/seventh-sojourn,2.8,-1,"Trad, Alpine",5.9,4,340,35.22192,-106.45412
"Sharks With Friggin' Laser Beams","The Balcony > El Rito Sport Area > El Rito > New Mexico",https://www.mountainproject.com/route/106488740/sharks-with-friggin-laser-beams,2.2,-1,Sport,5.9,1,50,36.39218,-106.19555
Margaritaville,"Southern Comfort Wall > Rabbit Ears Area > Organ Mountains > Las Cruces Area Climbing > New Mexico",https://www.mountainproject.com/route/105808263/margaritaville,3.1,-1,Trad,5.9,2,250,32.3668,-106.5878
"Not a Cruise","Vacation Wall > Mud Mountain > Truth or Consequences Area > New Mexico",https://www.mountainproject.com/route/116229108/not-a-cruise,3.5,-1,Sport,5.9,1,50,33.15547,-107.30826
"Another Round","Alcohol Wall South > Southern Box areas > The Box Climbing Areas > Socorro Area > New Mexico",https://www.mountainproject.com/route/106659471/another-round,2.6,-1,Sport,5.9,1,70,33.98607,-106.98897
"I'll Be Your Poison Ivy","Villain Wall > Bat Cave Area > Caballo Lake > Truth or Consequences Area > New Mexico",https://www.mountainproject.com/route/107001391/ill-be-your-poison-ivy,3.0,-1,Sport,5.9,1,80,32.93189,-107.2343
"Runaway Truck","Far Side Right > Shady Side > The Tunnel > New Mexico, other Southern Areas > New Mexico",https://www.mountainproject.com/route/105923937/runaway-truck,3.0,-1,Sport,5.9,1,35,32.94557,-105.86045
"Joy-Poppin' with Bubble Gummers","Main Wall > Little River Wall > El Rito > New Mexico",https://www.mountainproject.com/route/109281906/joy-poppin-with-bubble-gummers,2.2,-1,Sport,5.9,1,85,36.38922,-106.23463
"Westron Wynde","Bush Shark Area > Echo Canyon > Sandia Mountains > Albuquerque Area > New Mexico",https://www.mountainproject.com/route/106195537/westron-wynde,2.9,-1,Trad,5.9,3,400,35.20217,-106.44633
"Unknown Arete","Rapunzel Wall > Enchanted Tower > New Mexico",https://www.mountainproject.com/route/105867633/unknown-arete,1.9,-1,Sport,5.9,1,40,34.23084,-107.9165
Hysteria,"Violince Wall > Last Chance Canyon > New Mexico, other Southern Areas > New Mexico",https://www.mountainproject.com/route/106101251/hysteria,2.6,-1,Sport,5.9,1,45,32.2365,-104.754
"Bourbon Street","Alcohol Wall > Southern Box areas > The Box Climbing Areas > Socorro Area > New Mexico",https://www.mountainproject.com/route/105792295/bourbon-street,2.5,-1,Sport,5.9,1,40,33.98604,-106.98869
"The Houston S","John's Wall > John Dunn Bridge Area > Taos Area > New Mexico",https://www.mountainproject.com/route/106138921/the-houston-s,2.6,-1,Sport,5.9,1,55,36.5338,-105.7077
"Ooze Move","Cathedral Rock > Pecos River Canyon > Santa Fe Area > New Mexico",https://www.mountainproject.com/route/105901974/ooze-move,2.6,-1,Sport,5.9,1,70,35.7023,-105.6863
"Headwall Crack Right","South/East side > The Overlook > White Rock > Los Alamos & White Rock > New Mexico",https://www.mountainproject.com/route/105940675/headwall-crack-right,2.5,-1,"Trad, TR",5.9,1,50,35.82733,-106.17868
"City Girl","Main Wall > The Shack > Diablo Canyon > Santa Fe Area > New Mexico",https://www.mountainproject.com/route/108275157/city-girl,2.4,-1,Sport,5.9,1,55,35.81327,-106.14429
"Banana Bender","The Outback > Capulin Canyon > Capulin Canyon and Cochiti Mesa Area Crags > Jemez Mountains and Jemez Valley > New Mexico",https://www.mountainproject.com/route/123397009/banana-bender,3.8,-1,Trad,5.9,1,45,35.77346,-106.39608
"Regular Route","Ship Rock > Ship Rock Area > New Mexico Navajolands > New Mexico",https://www.mountainproject.com/route/106139667/regular-route,3.0,-1,"Trad, Aid","5.9 C0",1,1700,36.6877,-108.8368
Sunburned,"Old Stagecoach Road > John Dunn Bridge Area > Taos Area > New Mexico",https://www.mountainproject.com/route/108129623/sunburned,2.4,-1,"Sport, TR",5.9,1,60,36.537,-105.7082
"Cherry Pie","Winter Wall > Mud Mountain > Truth or Consequences Area > New Mexico",https://www.mountainproject.com/route/116738821/cherry-pie,2.3,-1,Sport,5.9,1,50,33.15537,-107.30718
"May Cause Health Problems","(05) Health Wall > Original Side > Mentmore > Gallup Area > New Mexico",https://www.mountainproject.com/route/105825865/may-cause-health-problems,3.0,-1,Trad,5.9,1,,35.5163,-108.873
"Don't Miss Out","(09) The Far Side II > Palomas Peak > Albuquerque Area > New Mexico",https://www.mountainproject.com/route/106293694/dont-miss-out,2.5,-1,Sport,5.9,1,65,35.2347,-106.406
"Lame Duck","Lower Deck > The West Faces > Monjeau Peak > Ruidoso Area > New Mexico, other Southern Areas > New Mexico",https://www.mountainproject.com/route/119956941/lame-duck,3.7,-1,Trad,5.9,1,40,33.42962,-105.73327
"West Ridge of Razorback","Razorback > The High Horns > Organ Mountains > Las Cruces Area Climbing > New Mexico",https://www.mountainproject.com/route/115786239/west-ridge-of-razorback,3.8,-1,Trad,5.9,1,900,32.3554,-106.5724
"The Nose","The Citadel > Rabbit Ears Area > Organ Mountains > Las Cruces Area Climbing > New Mexico",https://www.mountainproject.com/route/105834035/the-nose,2.8,-1,Trad,5.9,1,140,32.3717,-106.587
Bloodline,"Walt's Wall (aka The Outsider Wall) > El Rito Sport Area > El Rito > New Mexico",https://www.mountainproject.com/route/105839094/bloodline,1.9,-1,Sport,"5.9 PG13",1,70,36.3934,-106.19555
"Five Years After","Mosaic Rock > Tres Piedras > Taos Area > New Mexico",https://www.mountainproject.com/route/106031119/five-years-after,2.6,-1,Trad,"5.9 PG13",1,150,36.66049,-105.98299
"Klein's Corner","(L2) Hopper's Hangover Wall > Utopian Vistas > Taos Area > New Mexico",https://www.mountainproject.com/route/105967436/kleins-corner,2.8,-1,Sport,5.9,1,80,36.36395,-105.72795
"Classic Jam Crack","(06) The Dihedral Wall > Palomas Peak > Albuquerque Area > New Mexico",https://www.mountainproject.com/route/106015356/classic-jam-crack,2.8,-1,Trad,5.9,1,50,35.2347,-106.406
"Blood, Sweat and Steers","(C) Reddi-Wip Area > Rough and Ready Hills > Las Cruces Area Climbing > New Mexico",https://www.mountainproject.com/route/107372122/blood-sweat-and-steers,2.5,-1,Sport,5.9,1,50,32.39492,-107.03712
"Ow Now","(A) Cattle Call Wall Area > Las Conchas > Jemez Mountains and Jemez Valley > New Mexico",https://www.mountainproject.com/route/105860873/ow-now,2.1,-1,"Trad, TR","5.9 PG13",1,30,35.81428,-106.53097
"Ego Terrorists","(04) The Balcony > New Side > Mentmore > Gallup Area > New Mexico",https://www.mountainproject.com/route/105805562/ego-terrorists,3.0,-1,Sport,5.9,1,,35.51219,-108.86996
Entrapment,"Left Arrow > The Broken Arrows > Gilman Tunnels > Jemez Mountains and Jemez Valley > New Mexico",https://www.mountainproject.com/route/106027534/entrapment,2.7,-1,Sport,5.9,1,60,35.7358,-106.764
"Scorpion Queen","Super Hero Wall (Grey Wall) > Bat Cave Area > Caballo Lake > Truth or Consequences Area > New Mexico",https://www.mountainproject.com/route/107953585/scorpion-queen,2.7,-1,Sport,5.9,1,40,32.93132,-107.23428
Moonstruck,"Campground > East Side > Luna Park > Red Rock Arroyo > Truth or Consequences Area > New Mexico",https://www.mountainproject.com/route/107035006/moonstruck,2.8,-1,Trad,5.9,1,70,33.4959,-107.41517
"For the Fun of It","Carnuel Crag > Albuquerque Area > New Mexico",https://www.mountainproject.com/route/113934308/for-the-fun-of-it,2.5,-1,"Sport, TR",5.9,1,50,35.06512,-106.46885
"Wet Feet","Dr. Seuss Wall > Gilman Tunnels > Jemez Mountains and Jemez Valley > New Mexico",https://www.mountainproject.com/route/106027322/wet-feet,2.8,-1,Sport,5.9,1,50,35.73689,-106.76473
"Middle of the Road","Roadside Distraction > Red River Area > Taos Area > New Mexico",https://www.mountainproject.com/route/106428092/middle-of-the-road,2.7,-1,Sport,5.9,1,60,36.70207,-105.56168
"Juniper Overhang","El Rito Traditional Area > El Rito > New Mexico",https://www.mountainproject.com/route/106273309/juniper-overhang,3.1,-1,Trad,5.9,2,300,36.4158,-106.19749
"Forever Jung","(L2) Hopper's Hangover Wall > Utopian Vistas > Taos Area > New Mexico",https://www.mountainproject.com/route/106018376/forever-jung,2.4,-1,Sport,5.9,1,80,36.36395,-105.72795
"Queen's Gambit","Checkerboard Wall > Dona Ana Mountains > Las Cruces Area Climbing > New Mexico",https://www.mountainproject.com/route/110363000/queens-gambit,3.3,-1,Trad,5.9,5,450,32.4584,-106.7823
"South Face Center","South Rock > Tres Piedras > Taos Area > New Mexico",https://www.mountainproject.com/route/106156888/south-face-center,2.9,-1,Trad,5.9,1,80,36.6608,-105.9829
"Upper Left Roof","The Playground > White Rock > Los Alamos & White Rock > New Mexico",https://www.mountainproject.com/route/106024896/upper-left-roof,2.5,-1,"Trad, TR",5.9,1,75,35.8164,-106.1912
"Dave And Crissa's Route","Upper Tier > Gallows Edge > White Rock > Los Alamos & White Rock > New Mexico",https://www.mountainproject.com/route/106058191/dave-and-crissas-route,2.8,-1,Sport,5.9,1,45,35.81814,-106.18741
"Trads into Rads","Left Arrow > The Broken Arrows > Gilman Tunnels > Jemez Mountains and Jemez Valley > New Mexico",https://www.mountainproject.com/route/106027523/trads-into-rads,2.5,-1,Sport,5.9,1,70,35.7358,-106.764
Makeover,"(07) Randy's Wall > Palomas Peak > Albuquerque Area > New Mexico",https://www.mountainproject.com/route/113766943/makeover,2.6,-1,Sport,5.9,1,40,35.23206,-106.40279
"Cave Route Center","Potrillo Cliffs > White Rock > Los Alamos & White Rock > New Mexico",https://www.mountainproject.com/route/106111080/cave-route-center,2.9,-1,"Trad, TR",5.9,1,45,35.7943,-106.2162
"Rocket Tower","Rocket Tower Area > Capulin Canyon > Capulin Canyon and Cochiti Mesa Area Crags > Jemez Mountains and Jemez Valley > New Mexico",https://www.mountainproject.com/route/108416289/rocket-tower,3.5,-1,Trad,5.9,1,50,35.77426,-106.38593
"The Oracle","Super Hero Wall (Grey Wall) > Bat Cave Area > Caballo Lake > Truth or Consequences Area > New Mexico",https://www.mountainproject.com/route/107953565/the-oracle,2.6,-1,Sport,5.9,1,40,32.93132,-107.23428
"Bee Sting","Old New Place > White Rock > Los Alamos & White Rock > New Mexico",https://www.mountainproject.com/route/106037036/bee-sting,2.7,-1,"Trad, TR",5.9,1,65,35.81856,-106.18779
"Bring Me a Bucket","El Rito Traditional Area > El Rito > New Mexico",https://www.mountainproject.com/route/106273553/bring-me-a-bucket,2.9,-1,"Trad, Sport",5.9,2,300,36.4158,-106.19749
"The Thunderbird Crack","The Pit > Gallows Edge > White Rock > Los Alamos & White Rock > New Mexico",https://www.mountainproject.com/route/105987132/the-thunderbird-crack,2.5,-1,Trad,5.9,1,35,35.81825,-106.18698
"Weapons of Mass Construction","El Rito Traditional Area > El Rito > New Mexico",https://www.mountainproject.com/route/106055629/weapons-of-mass-construction,2.7,-1,Trad,5.9,1,130,36.4158,-106.19749
"Ephemeral Epitomist","Upper Wall > Capulin Canyon > Capulin Canyon and Cochiti Mesa Area Crags > Jemez Mountains and Jemez Valley > New Mexico",https://www.mountainproject.com/route/108411846/ephemeral-epitomist,2.3,-1,Trad,5.9,1,60,35.77512,-106.3805
"Nothing Hurt","Walt's Wall (aka The Outsider Wall) > El Rito Sport Area > El Rito > New Mexico",https://www.mountainproject.com/route/116818761/nothing-hurt,2.6,-1,Sport,5.9,1,70,36.3934,-106.19555
"Route 14","Main Wall- Upper Tier > Pajarito Gorge > White Rock > Los Alamos & White Rock > New Mexico",https://www.mountainproject.com/route/106382312/route-14,3.3,-1,"Trad, TR",5.9,1,65,35.8115,-106.1996
"Fezzik (Andre the Giant)","Main Wall > Gallows Edge > White Rock > Los Alamos & White Rock > New Mexico",https://www.mountainproject.com/route/114167815/fezzik-andre-the-giant,2.3,-1,Sport,5.9,1,30,35.81782,-106.18741
"Bubblegum Crack","Main Sector > Ice Cream Parlor > Capulin Canyon > Capulin Canyon and Cochiti Mesa Area Crags > Jemez Mountains and Jemez Valley > New Mexico",https://www.mountainproject.com/route/115193783/bubblegum-crack,2.7,-1,Trad,5.9,1,60,35.77171,-106.37483
"Blue Falcon","Super Hero Wall (Grey Wall) > Bat Cave Area > Caballo Lake > Truth or Consequences Area > New Mexico",https://www.mountainproject.com/route/106662669/blue-falcon,2.6,-1,Sport,5.9,1,40,32.93132,-107.23428
"Ten 'Til Eight","(04) The Balcony > New Side > Mentmore > Gallup Area > New Mexico",https://www.mountainproject.com/route/105805570/ten-til-eight,2.6,-1,Sport,5.9,1,,35.51219,-108.86996
"Green Goddess","Villain Wall > Bat Cave Area > Caballo Lake > Truth or Consequences Area > New Mexico",https://www.mountainproject.com/route/117930446/green-goddess,3.0,-1,Sport,5.9,3,210,32.93189,-107.2343
"Bolt Action","Boot Hill > Albuquerque Area > New Mexico",https://www.mountainproject.com/route/113815435/bolt-action,2.9,-1,Sport,5.9,1,60,35.24302,-106.41065
"Simply Replaced","Right Tower > Lower Domingo Baca Slabs (AKA: The Ribcage) > Domingo Baca Canyon, Lower > Sandia Mountains > Albuquerque Area > New Mexico",https://www.mountainproject.com/route/106112993/simply-replaced,2.7,-1,Sport,5.9,1,60,35.1806,-106.4629
"Main Line","(09) The Far Side II > Palomas Peak > Albuquerque Area > New Mexico",https://www.mountainproject.com/route/105962545/main-line,2.8,-1,Trad,5.9,1,50,35.2347,-106.406
"Fossil Fuel","Fossil Wall > Last Chance Canyon > New Mexico, other Southern Areas > New Mexico",https://www.mountainproject.com/route/106099844/fossil-fuel,2.4,-1,Sport,5.9,1,45,32.2373,-104.7579
"Letting The Day Go By","(07) Randy's Wall > Palomas Peak > Albuquerque Area > New Mexico",https://www.mountainproject.com/route/114341124/letting-the-day-go-by,2.5,-1,Sport,5.9,1,40,35.23206,-106.40279
"Sun Devil Crack","Sun Devil Wall > Diablo Canyon > Santa Fe Area > New Mexico",https://www.mountainproject.com/route/107953357/sun-devil-crack,2.8,-1,Trad,"5.9 PG13",2,280,35.80568,-106.14055
"Zig Zag Man","South Rock > Tres Piedras > Taos Area > New Mexico",https://www.mountainproject.com/route/106009077/zig-zag-man,2.8,-1,Trad,5.9,1,,36.6608,-105.9829
"Little Big Man","Boot Hill > Albuquerque Area > New Mexico",https://www.mountainproject.com/route/111926032/little-big-man,2.5,-1,Sport,5.9,1,40,35.24302,-106.41065
"Tasty Freeze","(D) Chilly Willy Wall > Las Conchas > Jemez Mountains and Jemez Valley > New Mexico",https://www.mountainproject.com/route/106160773/tasty-freeze,2.4,-1,Trad,5.9,1,65,35.81755,-106.53218
"Separation Of Cherts And Plate","Fossil Wall > Last Chance Canyon > New Mexico, other Southern Areas > New Mexico",https://www.mountainproject.com/route/106099868/separation-of-cherts-and-plate,2.2,-1,Sport,5.9,1,55,32.2373,-104.7579
"Bear Hugging Big Hilda","Scarry Wall > Southern Box areas > The Box Climbing Areas > Socorro Area > New Mexico",https://www.mountainproject.com/route/111154375/bear-hugging-big-hilda,2.4,-1,Sport,5.9,1,35,33.98639,-106.99529
"Surfin The Reef","Fossil Wall > Last Chance Canyon > New Mexico, other Southern Areas > New Mexico",https://www.mountainproject.com/route/106099858/surfin-the-reef,2.1,-1,Sport,5.9,1,45,32.2373,-104.7579
Pseudo-Supercrack,"(02) Slab Wall > Original Side > Mentmore > Gallup Area > New Mexico",https://www.mountainproject.com/route/105952008/pseudo-supercrack,2.7,-1,"Trad, TR",5.9,1,45,35.51632,-108.87303
"Glad We Came","The Citadel > Rabbit Ears Area > Organ Mountains > Las Cruces Area Climbing > New Mexico",https://www.mountainproject.com/route/105822400/glad-we-came,2.6,-1,Sport,5.9,1,145,32.3717,-106.587
"Gold Rush","Pocket Change Wall > Southern Box areas > The Box Climbing Areas > Socorro Area > New Mexico",https://www.mountainproject.com/route/106649317/gold-rush,2.0,-1,Sport,5.9,1,60,33.98623,-106.98927
"Boogers & Chocolate","Clandestine Wall > Chimney Canyon > Sandia Mountains > Albuquerque Area > New Mexico",https://www.mountainproject.com/route/106429975/boogers-chocolate,2.5,-1,Trad,5.9,1,100,35.21332,-106.45246
"Children of the Mojave","Frog Prince > Enchanted Tower > New Mexico",https://www.mountainproject.com/route/109191111/children-of-the-mojave,1.9,-1,Sport,5.9,1,40,34.23008,-107.91611
"Houston, We Have a Problem","Full Moon Wall > East Side > Luna Park > Red Rock Arroyo > Truth or Consequences Area > New Mexico",https://www.mountainproject.com/route/107841381/houston-we-have-a-problem,2.4,-1,Sport,5.9,1,80,33.4959,-107.41517
"Stir It Up","The Bleachers > Pecos River Canyon > Santa Fe Area > New Mexico",https://www.mountainproject.com/route/105901987/stir-it-up,2.9,-1,Trad,5.9,1,45,35.70303,-105.68699
"Twin Cracks","New New Place > White Rock > Los Alamos & White Rock > New Mexico",https://www.mountainproject.com/route/106228637/twin-cracks,2.9,-1,"Trad, TR",5.9,1,45,35.8116,-106.1985
"Up To Bat","Left End > Early Wall > Diablo Canyon > Santa Fe Area > New Mexico",https://www.mountainproject.com/route/105991738/up-to-bat,2.9,-1,Trad,5.9,1,65,35.80501,-106.14174
"Settled Science","(09) The Far Side II > Palomas Peak > Albuquerque Area > New Mexico",https://www.mountainproject.com/route/111142115/settled-science,2.5,-1,Sport,5.9,1,40,35.2347,-106.406
"One for the Book","Dead Cholla Wall > Taos Area > New Mexico",https://www.mountainproject.com/route/107143350/one-for-the-book,2.5,-1,Trad,5.9,1,50,36.3558,-105.733
"Route 18","South Side, Big Enchilada > Big Enchilada, The > White Rock > Los Alamos & White Rock > New Mexico",https://www.mountainproject.com/route/106382178/route-18,2.5,-1,"Trad, TR",5.9,1,50,35.7891,-106.2107
"The Man With Two Penises","Sideshow Attraction Wall > Little River Wall > El Rito > New Mexico",https://www.mountainproject.com/route/109282025/the-man-with-two-penises,2.3,-1,Sport,5.9,1,45,36.39124,-106.23481
"New Kids on the Block","Percha Creek, Hillsboro > Truth or Consequences Area > New Mexico",https://www.mountainproject.com/route/107959125/new-kids-on-the-block,2.4,-1,Sport,5.9,1,,32.91771,-107.60665
"The Pocket Rocket","Little Horse Mesa > Sugarite Canyon State Park > New Mexico, other Northern Areas > New Mexico",https://www.mountainproject.com/route/107839800/the-pocket-rocket,3.0,-1,Trad,5.9,1,,36.97986,-104.39473
Spoticus,"Little Horse Mesa > Sugarite Canyon State Park > New Mexico, other Northern Areas > New Mexico",https://www.mountainproject.com/route/107839880/spoticus,3.0,-1,Trad,5.9,1,,36.97986,-104.39473
Anthrax,"Shortline Wall > Rabbit Ears Area > Organ Mountains > Las Cruces Area Climbing > New Mexico",https://www.mountainproject.com/route/106780174/anthrax,3.0,-1,Trad,"5.9 PG13",1,90,32.3703,-106.5871
"Wingin' It","(03.5) The Dove Bar > Palomas Peak > Albuquerque Area > New Mexico",https://www.mountainproject.com/route/115185651/wingin-it,2.5,-1,Sport,5.9,1,40,35.23273,-106.40335
"Open Books","Water Wall > Lower Walls > Comales Canyon > Taos Area > New Mexico",https://www.mountainproject.com/route/106526095/open-books,2.7,-1,Trad,5.9,1,80,36.15704,-105.58196
"Triple Overhang","Y - North Side > Y, The > Los Alamos & White Rock > New Mexico",https://www.mountainproject.com/route/106099318/triple-overhang,2.7,-1,"Trad, TR",5.9,1,50,35.8676,-106.2051
Allamistakeo,"The Mummy > Mummy Canyon > Sandia Mountains > Albuquerque Area > New Mexico",https://www.mountainproject.com/route/117683677/allamistakeo,3.0,-1,"Trad, Alpine",5.9,1,100,35.21976,-106.45759
"Clarks Cramps","Muralla Grande > Chimney Canyon > Sandia Mountains > Albuquerque Area > New Mexico",https://www.mountainproject.com/route/106096030/clarks-cramps,3.0,-1,Trad,5.9,10,800,35.2152,-106.455
"Cherry Holds","Little Cherry Creek > New Mexico, other Southern Areas > New Mexico",https://www.mountainproject.com/route/120088966/cherry-holds,3.0,-1,Sport,5.9,1,40,32.89838,-108.23165
"Lost Alien","(E) The Mothership > Rough and Ready Hills > Las Cruces Area Climbing > New Mexico",https://www.mountainproject.com/route/113839988/lost-alien,3.0,-1,"Trad, TR",5.9,1,75,32.39433,-107.03737
"Garden Party","Bush Shark Area > Echo Canyon > Sandia Mountains > Albuquerque Area > New Mexico",https://www.mountainproject.com/route/106076842/garden-party,2.6,-1,Trad,5.9,1,225,35.20217,-106.44633
"West Face of Lesser Spire","Lesser Spire > Rabbit Ears Area > Organ Mountains > Las Cruces Area Climbing > New Mexico",https://www.mountainproject.com/route/107926730/west-face-of-lesser-spire,3.0,-1,Trad,5.9,5,500,32.3679,-106.5839
"Fire Escape","Sugar Bowl > Dona Ana Mountains > Las Cruces Area Climbing > New Mexico",https://www.mountainproject.com/route/112411426/fire-escape,3.0,-1,Trad,5.9,1,80,32.46448,-106.78313
"West Face","ORP > Rabbit Ears Area > Organ Mountains > Las Cruces Area Climbing > New Mexico",https://www.mountainproject.com/route/105934884/west-face,2.5,-1,Trad,5.9,4,420,32.3675,-106.5828
"The Keep","The Keep > Pinnacle Valley > Sandia Mountains > Albuquerque Area > New Mexico",https://www.mountainproject.com/route/107731012/the-keep,3.0,-1,"Trad, Alpine",5.9,1,100,35.2227,-106.4552
Dingo,"The Outback > Capulin Canyon > Capulin Canyon and Cochiti Mesa Area Crags > Jemez Mountains and Jemez Valley > New Mexico",https://www.mountainproject.com/route/123397165/dingo,3.0,-1,Sport,5.9,1,40,35.77346,-106.39608
"Boy Scout (aka Broadway)","Y - North Side > Y, The > Los Alamos & White Rock > New Mexico",https://www.mountainproject.com/route/106409479/boy-scout-aka-broadway,2.3,-1,"Trad, TR",5.9,1,50,35.8676,-106.2051
Astroglide,"Frontera > Needle and Squaretops > Organ Mountains > Las Cruces Area Climbing > New Mexico",https://www.mountainproject.com/route/120529321/astroglide,2.7,-1,Trad,5.9,3,400,32.34143,-106.55808
"Knight Moves","Santa Fe Ski Basin > Santa Fe Area > New Mexico",https://www.mountainproject.com/route/122284210/knight-moves,3.0,-1,"Trad, TR, Alpine",5.9,1,38,35.79403,-105.78175
"Ugly Duckling","Ugly Duckling Boulder > Enchanted Tower > New Mexico",https://www.mountainproject.com/route/106184875/ugly-duckling,1.9,-1,"Sport, TR",5.9,1,35,34.23202,-107.91785
"Something Sharp Like Knives","Cox Canyon (West) > Cox Canyon > New Mexico, other Northern Areas > New Mexico",https://www.mountainproject.com/route/119634094/something-sharp-like-knives,3.0,-1,"Sport, TR",5.9,1,30,36.99171,-107.91758
"M.C. Epic","South/East side > The Overlook > White Rock > Los Alamos & White Rock > New Mexico",https://www.mountainproject.com/route/105940757/mc-epic,2.4,-1,"Trad, TR",5.9,1,60,35.82733,-106.17868
Unknown,"Tunnel Springs > Albuquerque Area > New Mexico",https://www.mountainproject.com/route/120290419/unknown,3.0,-1,TR,5.9,1,40,35.2943,-106.4311
"Jokers Not Wild?","Ace's Face > Card Deck > North Organs > Organ Mountains > Las Cruces Area Climbing > New Mexico",https://www.mountainproject.com/route/115332690/jokers-not-wild,3.0,-1,Trad,5.9,4,400,32.37181,-106.59013
"C -4","Chicken Little Area > Cockscomb Crag > Diablo Canyon > Santa Fe Area > New Mexico",https://www.mountainproject.com/route/115456251/c-4,3.0,-1,Trad,5.9,1,60,35.8191,-106.16317
"Trudy Buns","El Malpais > New Mexico, I-40 Corridor > New Mexico",https://www.mountainproject.com/route/106601185/trudy-buns,3.0,-1,"Trad, Sport",5.9,1,50,34.8721,-107.88679
Ramshackle,"The Lower Slabs > Porvenir Canyon > Las Vegas / El Porvenir > New Mexico, other Northern Areas > New Mexico",https://www.mountainproject.com/route/109705805/ramshackle,3.0,-1,"Trad, Alpine",5.9,2,165,35.72951,-105.42908
"Watch Your Aspens","Little Squaretop Massif > Needle and Squaretops > Organ Mountains > Las Cruces Area Climbing > New Mexico",https://www.mountainproject.com/route/110512173/watch-your-aspens,3.0,-1,Trad,"5.9 R",3,600,32.34707,-106.56284
C1,"Chicken Little Area > Cockscomb Crag > Diablo Canyon > Santa Fe Area > New Mexico",https://www.mountainproject.com/route/113758675/c1,3.0,-1,Trad,"5.9 PG13",1,60,35.8191,-106.16317
Jalopy,"The Lower Slabs > Porvenir Canyon > Las Vegas / El Porvenir > New Mexico, other Northern Areas > New Mexico",https://www.mountainproject.com/route/109705763/jalopy,3.0,-1,"Trad, Alpine",5.9,1,180,35.72951,-105.42908
"5.8 Y'er Ass","Paired Pole Pillars > La Cueva Canyon, Upper > Sandia Mountains > Albuquerque Area > New Mexico",https://www.mountainproject.com/route/109283607/58-yer-ass,3.0,-1,Trad,5.9,1,95,35.2063,-106.452
"Dark Shadows","Falls Area > Gilman Tunnels > Jemez Mountains and Jemez Valley > New Mexico",https://www.mountainproject.com/route/108293068/dark-shadows,3.0,-1,Sport,5.9,1,115,35.7358,-106.764
"Pony Express","Beastie Alley > Tres Piedras > Taos Area > New Mexico",https://www.mountainproject.com/route/106007378/pony-express,2.3,-1,"Trad, Sport",5.9,1,115,36.66047,-105.98415
"Normal Route","The Spike > The High Horns > Organ Mountains > Las Cruces Area Climbing > New Mexico",https://www.mountainproject.com/route/107994794/normal-route,3.0,-1,Trad,5.9,1,,32.3631,-106.57891
"Sophmoric Sandbag","Hole in the Wall > La Cueva Canyon, Upper > Sandia Mountains > Albuquerque Area > New Mexico",https://www.mountainproject.com/route/106148603/sophmoric-sandbag,2.4,-1,Trad,5.9,1,75,35.20629,-106.452
"Blood Donation Station","(01) East Corridor Wall > New Side > Mentmore > Gallup Area > New Mexico",https://www.mountainproject.com/route/106053258/blood-donation-station,2.8,-1,Trad,5.9,1,50,35.51262,-108.86981
"Easy Rider Crack","(L2) Hopper's Hangover Wall > Utopian Vistas > Taos Area > New Mexico",https://www.mountainproject.com/route/105946555/easy-rider-crack,2.6,-1,Trad,5.9,1,80,36.36395,-105.72795
Unknown,"Violince Wall > Last Chance Canyon > New Mexico, other Southern Areas > New Mexico",https://www.mountainproject.com/route/112496824/unknown,2.5,-1,Sport,5.9,1,45,32.2365,-104.754
"Same Face, Different Name AKA Sidebarr","The Barr > Bat Cave Area > Caballo Lake > Truth or Consequences Area > New Mexico",https://www.mountainproject.com/route/109933211/same-face-different-name-aka-sidebarr,2.5,-1,Sport,5.9,1,80,32.92921,-107.23324
"Prima Donna","Walt's Wall (aka The Outsider Wall) > El Rito Sport Area > El Rito > New Mexico",https://www.mountainproject.com/route/106823087/prima-donna,1.8,-1,Sport,5.9,1,68,36.3934,-106.19555
"Shave and a Cut","Percha Creek, Hillsboro > Truth or Consequences Area > New Mexico",https://www.mountainproject.com/route/107959077/shave-and-a-cut,2.7,-1,Trad,5.9,1,,32.91771,-107.60665
"Esprit de Corps","The North End > East Side > Northern Box areas > The Box Climbing Areas > Socorro Area > New Mexico",https://www.mountainproject.com/route/107969779/esprit-de-corps,2.3,-1,Sport,5.9,1,55,34.00499,-106.98941
"Crinoid Process","Tunnel Springs > Albuquerque Area > New Mexico",https://www.mountainproject.com/route/108173857/crinoid-process,2.4,-1,Trad,5.9,1,40,35.2943,-106.4311
"Fall Boy","The Rim of the World > Pecos River Canyon > Santa Fe Area > New Mexico",https://www.mountainproject.com/route/106230435/fall-boy,2.8,-1,Sport,5.9,1,90,35.70112,-105.68494
Horton,"Crow Feather Wall > Mud Mountain > Truth or Consequences Area > New Mexico",https://www.mountainproject.com/route/116229012/horton,2.3,-1,Sport,5.9,1,50,33.15514,-107.30772
"Flying Buttress","(03.5) The Dove Bar > Palomas Peak > Albuquerque Area > New Mexico",https://www.mountainproject.com/route/115185713/flying-buttress,2.6,-1,Sport,5.9,1,40,35.23273,-106.40335
"Pinch and Roll","Main Wall > Little River Wall > El Rito > New Mexico",https://www.mountainproject.com/route/110630310/pinch-and-roll,1.9,-1,Sport,5.9,1,30,36.38922,-106.23463
Checkmate,"Checkerboard Wall > Dona Ana Mountains > Las Cruces Area Climbing > New Mexico",https://www.mountainproject.com/route/105801365/checkmate,2.3,-1,"Trad, Sport",5.9,1,150,32.4584,-106.7823
"Mooning About","The Northwest Passage > East Side > Luna Park > Red Rock Arroyo > Truth or Consequences Area > New Mexico",https://www.mountainproject.com/route/107035042/mooning-about,2.2,-1,Sport,5.9,1,40,33.4959,-107.41517
"Less-Hard Start","Y - North Side > Y, The > Los Alamos & White Rock > New Mexico",https://www.mountainproject.com/route/106758333/less-hard-start,2.2,-1,"Trad, TR",5.9,1,50,35.8676,-106.2051
"Miner Slab","Wallflower Wall > Spook Canyon > The Box Climbing Areas > Socorro Area > New Mexico",https://www.mountainproject.com/route/111586836/miner-slab,2.4,-1,"Sport, TR",5.9,1,40,34.0004,-106.98516
"Beautiful Swan","Ugly Duckling Boulder > Enchanted Tower > New Mexico",https://www.mountainproject.com/route/106184886/beautiful-swan,1.9,-1,"Sport, TR",5.9,1,35,34.23202,-107.91785
"Decent Exposure","Low Horn 5 > The Low Horns > Organ Mountains > Las Cruces Area Climbing > New Mexico",https://www.mountainproject.com/route/113001895/decent-exposure,2.6,-1,Trad,5.9,7,1000,32.35798,-106.57499
"Flail Out","Gemstone West > La Cueva Canyon, Lower > Sandia Mountains > Albuquerque Area > New Mexico",https://www.mountainproject.com/route/106247749/flail-out,2.6,-1,Trad,5.9,1,,35.20733,-106.4754
"Herb's Roof","Y - North Side > Y, The > Los Alamos & White Rock > New Mexico",https://www.mountainproject.com/route/106505829/herbs-roof,2.6,-1,"Trad, TR",5.9,1,40,35.8676,-106.2051
"Roll Them Bones","(C) Long Rib > Rib Cage > Rabbit Ears Area > Organ Mountains > Las Cruces Area Climbing > New Mexico",https://www.mountainproject.com/route/114017016/roll-them-bones,2.7,-1,Trad,5.9,3,300,32.3643,-106.58365
"Adolescent Fantasy","Vista Point Overlook > Capulin Canyon and Cochiti Mesa Area Crags > Jemez Mountains and Jemez Valley > New Mexico",https://www.mountainproject.com/route/105894222/adolescent-fantasy,2.7,-1,Sport,5.9,1,50,35.719,-106.4
"Freedom of the Bills","Hidden Wall > Pinnacle Valley > Sandia Mountains > Albuquerque Area > New Mexico",https://www.mountainproject.com/route/117360544/freedom-of-the-bills,2.2,-1,Trad,5.9,5,600,35.2253,-106.4567
Headjam,"South Side, Big Enchilada > Big Enchilada, The > White Rock > Los Alamos & White Rock > New Mexico",https://www.mountainproject.com/route/106382189/headjam,2.2,-1,"Trad, TR",5.9,1,50,35.7891,-106.2107
"Tree Hugger","Main Cliff > Capulin Canyon > Capulin Canyon and Cochiti Mesa Area Crags > Jemez Mountains and Jemez Valley > New Mexico",https://www.mountainproject.com/route/108414750/tree-hugger,2.5,-1,Trad,5.9,1,150,35.77557,-106.37484
"Cobble Salad","Big Pine Wall > El Rito Sport Area > El Rito > New Mexico",https://www.mountainproject.com/route/121487079/cobble-salad,2.3,-1,Sport,5.9,1,58,36.39277,-106.19575
Desperado,"Red River (Mallette Park) > Red River Area > Taos Area > New Mexico",https://www.mountainproject.com/route/106205089/desperado,2.6,-1,Sport,5.9,1,90,36.71342,-105.40682
Moondog,"Upper Wall > Capulin Canyon > Capulin Canyon and Cochiti Mesa Area Crags > Jemez Mountains and Jemez Valley > New Mexico",https://www.mountainproject.com/route/108411867/moondog,1.9,-1,Trad,5.9,1,30,35.77512,-106.3805
"Arch Rival","The Citadel > Rabbit Ears Area > Organ Mountains > Las Cruces Area Climbing > New Mexico",https://www.mountainproject.com/route/106133085/arch-rival,2.4,-1,Trad,5.9,2,,32.3717,-106.587
"Box Overhang Left","South/East side > The Overlook > White Rock > Los Alamos & White Rock > New Mexico",https://www.mountainproject.com/route/105940780/box-overhang-left,2.0,-1,"Trad, TR",5.9,1,55,35.82733,-106.17868
Sloth,"The Sanctuary > Capulin Canyon > Capulin Canyon and Cochiti Mesa Area Crags > Jemez Mountains and Jemez Valley > New Mexico",https://www.mountainproject.com/route/118115170/sloth,2.5,-1,Trad,5.9,1,70,35.77946,-106.36224
"5.8 My Ass","Andy Boy Wall > La Cueva Canyon, Upper > Sandia Mountains > Albuquerque Area > New Mexico",https://www.mountainproject.com/route/107676067/58-my-ass,2.5,-1,"Trad, Sport, TR","5.9 R",1,150,35.2063,-106.452
"La Sombra","Red Wall > Northern Box areas > The Box Climbing Areas > Socorro Area > New Mexico",https://www.mountainproject.com/route/106696434/la-sombra,2.1,-1,Sport,5.9,1,95,34.0045,-106.9885
"Day of the Jackel","Spook Main Wall > Spook Canyon > The Box Climbing Areas > Socorro Area > New Mexico",https://www.mountainproject.com/route/112780723/day-of-the-jackel,1.9,-1,Sport,5.9,1,40,33.9987,-106.98443
"Peel & Core","The North End > East Side > Northern Box areas > The Box Climbing Areas > Socorro Area > New Mexico",https://www.mountainproject.com/route/107987559/peel-core,1.9,-1,Sport,5.9,1,45,34.00499,-106.98941
"Sensuous S","South/East side > The Overlook > White Rock > Los Alamos & White Rock > New Mexico",https://www.mountainproject.com/route/105940807/sensuous-s,1.9,-1,"Trad, TR",5.9,1,50,35.82733,-106.17868
Meanderer,"Carnuel Crag > Albuquerque Area > New Mexico",https://www.mountainproject.com/route/114062874/meanderer,2.0,-1,"Sport, TR",5.9,1,55,35.06512,-106.46885
"Little Iliad","Trojan Wall (Right of Bat Cave) > Bat Cave Area > Caballo Lake > Truth or Consequences Area > New Mexico",https://www.mountainproject.com/route/111676396/little-iliad,2.4,-1,Sport,5.9,1,70,32.93207,-107.23455
"Route 20","Main Wall- Upper Tier > Pajarito Gorge > White Rock > Los Alamos & White Rock > New Mexico",https://www.mountainproject.com/route/106382336/route-20,2.4,-1,"Trad, TR",5.9,1,55,35.8115,-106.1996
"Pollo Loco","The Other Side > Cockscomb Crag > Diablo Canyon > Santa Fe Area > New Mexico",https://www.mountainproject.com/route/106763657/pollo-loco,2.3,-1,Sport,5.9,1,60,35.8052,-106.139
"Sweet Christine","Far Side Right > Shady Side > The Tunnel > New Mexico, other Southern Areas > New Mexico",https://www.mountainproject.com/route/105924688/sweet-christine,1.8,-1,Sport,5.9,1,,32.94557,-105.86045
"King Crack","North Rock > Tres Piedras > Taos Area > New Mexico",https://www.mountainproject.com/route/118871877/king-crack,2.5,-1,Trad,5.9,1,60,36.6608,-105.9829
"Cave Escape","(08) The Far Side I > Palomas Peak > Albuquerque Area > New Mexico",https://www.mountainproject.com/route/114323436/cave-escape,2.5,-1,Trad,5.9,1,35,35.2347,-106.406
"Bastards with Ball Nuts","Gertch's Half Brother > The Low Horns > Organ Mountains > Las Cruces Area Climbing > New Mexico",https://www.mountainproject.com/route/113966568/bastards-with-ball-nuts,2.5,-1,Trad,5.9,5,450,32.36009,-106.57885
"Trigger Happy","(05) The Transition Zone > Palomas Peak > Albuquerque Area > New Mexico",https://www.mountainproject.com/route/114360675/trigger-happy,2.5,-1,Trad,5.9,1,35,35.2347,-106.406
"Worth The Stay","Wohlt's Welt Wall (WWW) > The High Horns > Organ Mountains > Las Cruces Area Climbing > New Mexico",https://www.mountainproject.com/route/113871122/worth-the-stay,2.5,-1,Trad,5.9,1,130,32.3512,-106.57615
"Hog Heaven","Heavenly Buttress > Eden Canyon > Diablo Canyon > Santa Fe Area > New Mexico",https://www.mountainproject.com/route/112228782/hog-heaven,2.5,-1,Trad,5.9,1,60,35.80561,-106.15585
Chimney,"East Side, Big Enchilada > Big Enchilada, The > White Rock > Los Alamos & White Rock > New Mexico",https://www.mountainproject.com/route/106382223/chimney,2.1,-1,"Trad, TR",5.9,1,50,35.7891,-106.2107
"Steel Arete","Hybrid Wall > The Garden > Pena Blanca > South Organs > Organ Mountains > Las Cruces Area Climbing > New Mexico",https://www.mountainproject.com/route/108257617/steel-arete,2.5,-1,TR,5.9,1,35,32.2267,-106.5987
"Stitch Popper","The Garden Wall > The Garden > Pena Blanca > South Organs > Organ Mountains > Las Cruces Area Climbing > New Mexico",https://www.mountainproject.com/route/108057182/stitch-popper,2.5,-1,Trad,5.9,1,30,32.2267,-106.599
"Whale Tail Pilates","Las Hermanas > Southern Box areas > The Box Climbing Areas > Socorro Area > New Mexico",https://www.mountainproject.com/route/106372924/whale-tail-pilates,2.0,-1,Sport,5.9,1,,33.98481,-106.98738
"Route 22","Below The Old New Place > White Rock > Los Alamos & White Rock > New Mexico",https://www.mountainproject.com/route/106154061/route-22,2.1,-1,Trad,5.9,1,50,35.81897,-106.1871
"Big-Footed Fanny Mills","Sideshow Attraction Wall > Little River Wall > El Rito > New Mexico",https://www.mountainproject.com/route/109282180/big-footed-fanny-mills,1.8,-1,Sport,5.9,1,48,36.39124,-106.23481
"Sharon's Lead","New New Place > White Rock > Los Alamos & White Rock > New Mexico",https://www.mountainproject.com/route/106230450/sharons-lead,2.1,-1,"Trad, TR",5.9,1,50,35.8116,-106.1985
"Razor's Edge","(04) Showdown Wall > Palomas Peak > Albuquerque Area > New Mexico",https://www.mountainproject.com/route/106561031/razors-edge,2.3,-1,Trad,5.9,1,50,35.23206,-106.40262
"Vision Quest","New Challenge Wall > The Garden > Pena Blanca > South Organs > Organ Mountains > Las Cruces Area Climbing > New Mexico",https://www.mountainproject.com/route/108930204/vision-quest,2.3,-1,Sport,5.9,1,50,32.22621,-106.59831
"Toprope face (unknown)","North/West side > The Overlook > White Rock > Los Alamos & White Rock > New Mexico",https://www.mountainproject.com/route/106383485/toprope-face-unknown,2.3,-1,TR,5.9,1,35,35.82758,-106.17872
Todaluna,"Campground > East Side > Luna Park > Red Rock Arroyo > Truth or Consequences Area > New Mexico",https://www.mountainproject.com/route/107034913/todaluna,2.2,-1,Trad,5.9,1,50,33.4959,-107.41517
Doc,"Tombstone Wall > Last Chance Canyon > New Mexico, other Southern Areas > New Mexico",https://www.mountainproject.com/route/106099824/doc,2.2,-1,Sport,5.9,1,30,32.23509,-104.75622
"Lawyers, Guns & Money","Muralla Grande > Chimney Canyon > Sandia Mountains > Albuquerque Area > New Mexico",https://www.mountainproject.com/route/106012993/lawyers-guns-money,2.2,-1,Trad,5.9,1,140,35.2152,-106.455
"Vanilla Crack","North/West side > The Overlook > White Rock > Los Alamos & White Rock > New Mexico",https://www.mountainproject.com/route/106441721/vanilla-crack,2.3,-1,Trad,5.9,1,45,35.82758,-106.17872
"Gold Pan","Miner's Crag > Taos Area > New Mexico",https://www.mountainproject.com/route/106306205/gold-pan,2.3,-1,Sport,5.9,1,50,36.5995,-105.6918
"Head Um Up","Mavericks > Taos Area > New Mexico",https://www.mountainproject.com/route/106493032/head-um-up,2.3,-1,Sport,5.9,1,40,36.5634,-105.0466
"Out of Pocket","The Branch Office > East Side > Northern Box areas > The Box Climbing Areas > Socorro Area > New Mexico",https://www.mountainproject.com/route/106149377/out-of-pocket,2.0,-1,Sport,5.9,1,50,34.00371,-106.99079
Rosie,"Wallflower Wall > Spook Canyon > The Box Climbing Areas > Socorro Area > New Mexico",https://www.mountainproject.com/route/112451033/rosie,1.9,-1,Sport,5.9,1,40,34.0004,-106.98516
"Route 19","Potrillo Cliffs > White Rock > Los Alamos & White Rock > New Mexico",https://www.mountainproject.com/route/106146320/route-19,2.0,-1,"Trad, TR","5.9 R",1,40,35.7943,-106.2162
"Whomped Willow","Upper Park > Luna Park > Red Rock Arroyo > Truth or Consequences Area > New Mexico",https://www.mountainproject.com/route/112930421/whomped-willow,2.0,-1,Sport,5.9,1,60,33.49902,-107.41772
"Bettie Page","My Secret Garden > La Cueva Canyon, Upper > Sandia Mountains > Albuquerque Area > New Mexico",https://www.mountainproject.com/route/107014243/bettie-page,2.0,-1,Trad,5.9,2,145,35.20614,-106.45076
"Terra Nova","Tunnel Springs > Albuquerque Area > New Mexico",https://www.mountainproject.com/route/107745845/terra-nova,1.9,-1,Trad,5.9,1,40,35.2943,-106.4311
Stranded,"(01) East Corridor Wall > New Side > Mentmore > Gallup Area > New Mexico",https://www.mountainproject.com/route/105825830/stranded,1.9,-1,Sport,5.9,1,,35.51262,-108.86981
"Stem It Black","Old Stagecoach Road > John Dunn Bridge Area > Taos Area > New Mexico",https://www.mountainproject.com/route/106140985/stem-it-black,1.9,-1,Trad,5.9,1,30,36.537,-105.7082
"Jalapeño Dip","Tortilla Flats > White Rock > Los Alamos & White Rock > New Mexico",https://www.mountainproject.com/route/112859643/jalapeno-dip,2.0,-1,Trad,5.9,1,45,35.7907,-106.2122
"Agent Orange","South Rock > Tres Piedras > Taos Area > New Mexico",https://www.mountainproject.com/route/106742587/agent-orange,2.0,-1,Trad,5.9,1,80,36.6608,-105.9829
"Linter Hands","The Hinterlands > Capulin Canyon > Capulin Canyon and Cochiti Mesa Area Crags > Jemez Mountains and Jemez Valley > New Mexico",https://www.mountainproject.com/route/109771456/linter-hands,2.0,-1,Trad,5.9,1,30,35.77447,-106.38455
"Route 3","South Side, Big Enchilada > Big Enchilada, The > White Rock > Los Alamos & White Rock > New Mexico",https://www.mountainproject.com/route/106383400/route-3,2.0,-1,"Trad, TR",5.9,1,50,35.7891,-106.2107
Jane,"Potrillo Cliffs > White Rock > Los Alamos & White Rock > New Mexico",https://www.mountainproject.com/route/106383341/jane,2.0,-1,"Trad, TR",5.9,1,35,35.7943,-106.2162
Unnamed,"North Rock > Tres Piedras > Taos Area > New Mexico",https://www.mountainproject.com/route/118871941/unnamed,2.0,-1,Sport,5.9,1,50,36.6608,-105.9829
"Exploding Head Syndrome","Sleeper > (O) The Subdivisions > Las Conchas > Jemez Mountains and Jemez Valley > New Mexico",https://www.mountainproject.com/route/109031821/exploding-head-syndrome,1.9,-1,Sport,5.9,1,37,35.82205,-106.54303
"North Ridge","The Fin > La Cueva Canyon, Upper > Sandia Mountains > Albuquerque Area > New Mexico",https://www.mountainproject.com/route/107458854/north-ridge,2.0,-1,Trad,"5.9 PG13",1,150,35.2055,-106.451
"Public Convenience","Campground > East Side > Luna Park > Red Rock Arroyo > Truth or Consequences Area > New Mexico",https://www.mountainproject.com/route/108989916/public-convenience,2.0,-1,TR,5.9,1,25,33.4959,-107.41517
Podcast,"South Tower > Bat Cave Area > Caballo Lake > Truth or Consequences Area > New Mexico",https://www.mountainproject.com/route/109933128/podcast,2.0,-1,Sport,5.9,1,70,32.92981,-107.23334
"The Arrowhead","Little Horse Mesa > Sugarite Canyon State Park > New Mexico, other Northern Areas > New Mexico",https://www.mountainproject.com/route/107839814/the-arrowhead,2.0,-1,Trad,5.9,1,,36.97986,-104.39473
"Brazilian Wax Job","My Secret Garden > La Cueva Canyon, Upper > Sandia Mountains > Albuquerque Area > New Mexico",https://www.mountainproject.com/route/107014259/brazilian-wax-job,2.0,-1,Trad,5.9,1,85,35.20614,-106.45076
Sapphire,"Gemstone East > La Cueva Canyon, Lower > Sandia Mountains > Albuquerque Area > New Mexico",https://www.mountainproject.com/route/106581298/sapphire,2.0,-1,Trad,5.9,2,280,35.20717,-106.47455
"Shaky Flake","Potrillo Cliffs > White Rock > Los Alamos & White Rock > New Mexico",https://www.mountainproject.com/route/106109717/shaky-flake,2.0,-1,"Trad, TR","5.9 R",1,40,35.7943,-106.2162
"Sharon's Sandbag","New New Place > White Rock > Los Alamos & White Rock > New Mexico",https://www.mountainproject.com/route/106386618/sharons-sandbag,1.8,-1,"Trad, TR",5.9,1,50,35.8116,-106.1985
"Route 16","The Playground > White Rock > Los Alamos & White Rock > New Mexico",https://www.mountainproject.com/route/106107289/route-16,1.8,-1,"Trad, TR",5.9,1,60,35.8164,-106.1912
"Santas Chimney","Cox Canyon (West) > Cox Canyon > New Mexico, other Northern Areas > New Mexico",https://www.mountainproject.com/route/118258612/santas-chimney,2.0,-1,"Sport, TR",5.9,1,30,36.99171,-107.91758
Unnamed,"North Rock > Tres Piedras > Taos Area > New Mexico",https://www.mountainproject.com/route/118871929/unnamed,2.0,-1,Sport,5.9,1,60,36.6608,-105.9829
"Jewel in the Rough","The Fin > Rabbit Ears Area > Organ Mountains > Las Cruces Area Climbing > New Mexico",https://www.mountainproject.com/route/118072348/jewel-in-the-rough,2.0,-1,Trad,5.9,2,230,32.36825,-106.57724
Misfire,"Gertch's Half Brother > The Low Horns > Organ Mountains > Las Cruces Area Climbing > New Mexico",https://www.mountainproject.com/route/114181376/misfire,2.0,-1,"Trad, TR",5.9,1,90,32.36009,-106.57885
"Block Head","Mavericks > Taos Area > New Mexico",https://www.mountainproject.com/route/106493007/block-head,2.0,-1,Sport,5.9,1,40,36.5634,-105.0466
"Black Book","River Wall > John Dunn Bridge Area > Taos Area > New Mexico",https://www.mountainproject.com/route/106140933/black-book,2.0,-1,Trad,5.9,1,70,36.5336,-105.7074
Tecumseh,"Panorama Wall > Utopian Vistas > Taos Area > New Mexico",https://www.mountainproject.com/route/107247538/tecumseh,2.0,-1,Trad,5.9,1,60,36.3622,-105.7287
"Castle Wall","The Crown > The Garden > Pena Blanca > South Organs > Organ Mountains > Las Cruces Area Climbing > New Mexico",https://www.mountainproject.com/route/106075912/castle-wall,2.0,-1,"Trad, TR",5.9,1,30,32.2265,-106.5978
"Just Say Yes To Fingercrack","North/West side > The Overlook > White Rock > Los Alamos & White Rock > New Mexico",https://www.mountainproject.com/route/106199804/just-say-yes-to-fingercrack,1.9,-1,Trad,5.9,1,35,35.82758,-106.17872
Metamorphosis,"Chaos Crag > La Cueva Canyon, Upper > Sandia Mountains > Albuquerque Area > New Mexico",https://www.mountainproject.com/route/118862187/metamorphosis,2.0,-1,Trad,5.9,4,400,35.2081,-106.4545
"Partial Eclipse","Frontera > Needle and Squaretops > Organ Mountains > Las Cruces Area Climbing > New Mexico",https://www.mountainproject.com/route/122341415/partial-eclipse,2.0,-1,Trad,5.9,4,400,32.34143,-106.55808
"Dilly Bar","Paleta Bar > Ice Cream Parlor > Capulin Canyon > Capulin Canyon and Cochiti Mesa Area Crags > Jemez Mountains and Jemez Valley > New Mexico",https://www.mountainproject.com/route/123105194/dilly-bar,2.0,-1,Trad,5.9,1,50,35.77095,-106.37484
"Forever and a Day","Mosaic Rock > Tres Piedras > Taos Area > New Mexico",https://www.mountainproject.com/route/121265361/forever-and-a-day,3.5,-1,Trad,5.9,1,55,36.66049,-105.98299
"Hard Yakka","(M) Leaning Tower > Las Conchas > Jemez Mountains and Jemez Valley > New Mexico",https://www.mountainproject.com/route/121608464/hard-yakka,2.0,-1,Trad,5.9,1,90,35.82208,-106.54078
5.9,"Saddle Rock Main > Saddle Rock > New Mexico, other Southern Areas > New Mexico",https://www.mountainproject.com/route/114029929/59,2.0,-1,Sport,"5.9 PG13",1,70,32.78961,-108.50422
C2,"Chicken Little Area > Cockscomb Crag > Diablo Canyon > Santa Fe Area > New Mexico",https://www.mountainproject.com/route/113758722/c2,2.0,-1,Trad,"5.9 PG13",1,60,35.8191,-106.16317
"Nerd Magnet","Waterfall Wall > Northern Box areas > The Box Climbing Areas > Socorro Area > New Mexico",https://www.mountainproject.com/route/106958713/nerd-magnet,2.0,-1,TR,5.9,1,35,34.0023,-106.9914
"Bat Crack","Batman Rock > Dona Ana Mountains > Las Cruces Area Climbing > New Mexico",https://www.mountainproject.com/route/111929596/bat-crack,2.0,-1,Trad,5.9,1,50,32.46646,-106.78062
"First Love","Crack Cliff > Amole > Taos Area > New Mexico",https://www.mountainproject.com/route/111942585/first-love,2.0,-1,Trad,5.9,1,,36.25082,-104.06553
"Long Crack","Supercracks of the Desert > Pena Blanca > South Organs > Organ Mountains > Las Cruces Area Climbing > New Mexico",https://www.mountainproject.com/route/108064192/long-crack,2.0,-1,Trad,5.9,1,150,32.2239,-106.5979
"Craggy Crack","(M) Leaning Tower > Las Conchas > Jemez Mountains and Jemez Valley > New Mexico",https://www.mountainproject.com/route/108089128/craggy-crack,2.0,-1,"Trad, TR",5.9,1,40,35.82208,-106.54078
"A Moment's Respite","El Malpais > New Mexico, I-40 Corridor > New Mexico",https://www.mountainproject.com/route/106602442/a-moments-respite,2.0,-1,Trad,"5.9 PG13",2,220,34.8721,-107.88679
"Lean Green Machine","Water Wall > Lower Walls > Comales Canyon > Taos Area > New Mexico",https://www.mountainproject.com/route/108336918/lean-green-machine,2.0,-1,Trad,"5.9 PG13",1,100,36.15704,-105.58196
"Adeled Evangelical","Sacristy > Pecos River Canyon > Santa Fe Area > New Mexico",https://www.mountainproject.com/route/111290890/adeled-evangelical,2.0,-1,Trad,5.9,1,50,35.7023,-105.6863
Unknown,"Vedauwoo Dome > Dona Ana Mountains > Las Cruces Area Climbing > New Mexico",https://www.mountainproject.com/route/107078051/unknown,2.0,-1,Trad,5.9,2,,32.4536,-106.7778
"Route 20","Old New Place > White Rock > Los Alamos & White Rock > New Mexico",https://www.mountainproject.com/route/106244923/route-20,2.0,-1,"Trad, TR","5.9 PG13",1,60,35.81856,-106.18779
"Anis del Mono","El Norte > El Rito Sport Area > El Rito > New Mexico",https://www.mountainproject.com/route/108344317/anis-del-mono,2.0,-1,Sport,5.9,1,70,36.39508,-106.1954
"Wing Span","Santa Maria > Pinnacle Valley > Sandia Mountains > Albuquerque Area > New Mexico",https://www.mountainproject.com/route/107746450/wing-span,2.0,-1,"Trad, Alpine","5.9 PG13",1,100,35.213,-106.4531
"Step Up","The Grandstand > Pecos River Canyon > Santa Fe Area > New Mexico",https://www.mountainproject.com/route/107563526/step-up,2.0,-1,Trad,5.9,1,,35.7023,-105.6863
"Clean Slate","Miner's Crag > Taos Area > New Mexico",https://www.mountainproject.com/route/106303512/clean-slate,2.0,-1,Trad,5.9,1,45,36.5995,-105.6918
"5.9 and a Bag of Chips","The Cheap Seats > Pecos River Canyon > Santa Fe Area > New Mexico",https://www.mountainproject.com/route/107563448/59-and-a-bag-of-chips,2.0,-1,Trad,5.9,1,,35.7023,-105.6863
"The Fin Left","Gemstone West > La Cueva Canyon, Lower > Sandia Mountains > Albuquerque Area > New Mexico",https://www.mountainproject.com/route/106247775/the-fin-left,2.0,-1,Trad,5.9,2,,35.20733,-106.4754
"Black is Beautiful","(L2) Hopper's Hangover Wall > Utopian Vistas > Taos Area > New Mexico",https://www.mountainproject.com/route/105994931/black-is-beautiful,2.0,-1,Trad,5.9,1,60,36.36395,-105.72795
"Depth Charge","Shady Side > La Cueva > Organ Mountains > Las Cruces Area Climbing > New Mexico",https://www.mountainproject.com/route/105953299/depth-charge,2.0,-1,Trad,5.9,1,40,32.3351,-106.5942
"Red Knees","Cox Canyon (Main) > Cox Canyon > New Mexico, other Northern Areas > New Mexico",https://www.mountainproject.com/route/123327207/red-knees,2.0,-1,Sport,5.9,1,60,36.9916,-107.90922
"Nature loves courage","Sugarloaf East Wall > Sugarloaf Area > Organ Mountains > Las Cruces Area Climbing > New Mexico",https://www.mountainproject.com/route/113658710/nature-loves-courage,2.5,-1,"Trad, Alpine",5.9,1,90,32.3482,-106.54379
"Space Oddity","Frontera > Needle and Squaretops > Organ Mountains > Las Cruces Area Climbing > New Mexico",https://www.mountainproject.com/route/123845668/space-oddity,3.0,-1,"Trad, Aid","5.9 A0",4,400,32.34143,-106.55808
Orion,"Frontera > Needle and Squaretops > Organ Mountains > Las Cruces Area Climbing > New Mexico",https://www.mountainproject.com/route/123881876/orion,3.0,-1,"Trad, Aid","5.9 A0",3,400,32.34143,-106.55808
"Old School","The Northwest Passage > East Side > Luna Park > Red Rock Arroyo > Truth or Consequences Area > New Mexico",https://www.mountainproject.com/route/124325803/old-school,4.0,-1,Trad,5.9,1,80,33.4959,-107.41517
