Route,Location,URL,"Avg Stars","Your Stars","Route Type",Rating,Pitches,Length,"Area Latitude","Area Longitude"
"The Backbone","(s) Monkey Face > Smith Rock > Central Oregon > Oregon",https://www.mountainproject.com/route/105891922/the-backbone,4.0,-1,Sport,5.13a/b,4,400,44.37053,-121.14363
"Time's Up","(e) Western Ship - River Face > Smith Rock > Central Oregon > Oregon",https://www.mountainproject.com/route/106404810/times-up,3.5,-1,Sport,5.13a/b,1,85,44.367,-121.14277
"Purple Haze","Koala Rock > (w) The Marsupials > Smith Rock > Central Oregon > Oregon",https://www.mountainproject.com/route/115132827/purple-haze,4.0,-1,Sport,5.13a/b,1,45,44.36947,-121.12462
"Turbo Weasel","Larison Rock > Willamette Valley > Oregon",https://www.mountainproject.com/route/117889471/turbo-weasel,4.0,-1,Sport,5.13a/b,1,65,43.71143,-122.47179
"Silent but Deadly","The Einstein > Leslie Gulch > Southeast Oregon > Oregon",https://www.mountainproject.com/route/116759717/silent-but-deadly,3.3,-1,Sport,5.13a/b,1,80,43.33778,-117.31209
"Double Stain","Christian Brothers - East Side > (l) Christian Brothers > Smith Rock > Central Oregon > Oregon",https://www.mountainproject.com/route/113893766/double-stain,3.0,-1,Trad,5.13a/b,1,80,44.36598,-121.14688
"Fun Churning Buttress Linkups","(g) Morning Glory Wall > Smith Rock > Central Oregon > Oregon",https://www.mountainproject.com/route/108545318/fun-churning-buttress-linkups,3.0,-1,Sport,5.13a/b,1,100,44.36716,-121.14353
