Route,Location,URL,"Avg Stars","Your Stars","Route Type",Rating,Pitches,Length,"Area Latitude","Area Longitude"
"Slab Master","f. Super Slab Sector > Safe Harbor South > Safe Harbor > South Central PA > Pennsylvania",https://www.mountainproject.com/route/107458083/slab-master,2.9,-1,Sport,5.9,1,75,39.91766,-76.37693
"Eminent Domain","g. Autumn Arch Sector > Safe Harbor South > Safe Harbor > South Central PA > Pennsylvania",https://www.mountainproject.com/route/107394697/eminent-domain,2.4,-1,Sport,5.9,1,80,39.91868,-76.37749
"Under Fire","c Electric Co. Sector > Safe Harbor South > Safe Harbor > South Central PA > Pennsylvania",https://www.mountainproject.com/route/107441415/under-fire,2.4,-1,"Sport, TR",5.9,1,30,39.91599,-76.37581
"Lynn's Chin","e. Machismo Sector > Safe Harbor South > Safe Harbor > South Central PA > Pennsylvania",https://www.mountainproject.com/route/108365287/lynns-chin,2.7,-1,Sport,5.9,1,85,39.91712,-76.37657
"Adopted Son","k. Hydroman Sector > Safe Harbor South > Safe Harbor > South Central PA > Pennsylvania",https://www.mountainproject.com/route/107375208/adopted-son,2.3,-1,Sport,5.9,1,,39.92007,-76.37857
"(10) Grab Your Balls","Main Wall > Breakneck > Southwestern Highlands > Pennsylvania",https://www.mountainproject.com/route/106069427/10-grab-your-balls,2.7,-1,"Sport, TR",5.9,1,40,40.0321,-79.5408
Tonga,"i. Numero Uno Sector > Safe Harbor South > Safe Harbor > South Central PA > Pennsylvania",https://www.mountainproject.com/route/107375146/tonga,2.0,-1,Sport,5.9,1,,39.91931,-76.37796
"Ian's Climb","m. Reservoir Wall > Birdsboro Quarry > Southeastern Lowlands > Pennsylvania",https://www.mountainproject.com/route/107545400/ians-climb,2.5,-1,Sport,5.9,1,85,40.25053,-75.82294
"Welcome to Safe Harbor","n. Beer Wall (Reservoir Level) > Birdsboro Quarry > Southeastern Lowlands > Pennsylvania",https://www.mountainproject.com/route/106384811/welcome-to-safe-harbor,2.4,-1,Sport,5.9,1,30,40.24985,-75.82385
Tradatrocity,"i. Numero Uno Sector > Safe Harbor South > Safe Harbor > South Central PA > Pennsylvania",https://www.mountainproject.com/route/107958552/tradatrocity,2.5,-1,Sport,5.9,1,,39.91931,-76.37796
Neanderthal,"c. Neolithic Wall > Ralph Stover State Park (High Rocks) > Southeastern Lowlands > Pennsylvania",https://www.mountainproject.com/route/106135073/neanderthal,2.9,-1,Trad,5.9,2,105,40.44066,-75.09934
"Bye Bye Bolt","a. Main Wall > Birdsboro Quarry > Southeastern Lowlands > Pennsylvania",https://www.mountainproject.com/route/106381170/bye-bye-bolt,2.3,-1,Sport,5.9,1,,40.24965,-75.82247
"It's a Fine Line","4.49 Cemetery Wall - Fine Line Area > Safe Harbor North > Safe Harbor > South Central PA > Pennsylvania",https://www.mountainproject.com/route/108832235/its-a-fine-line,3.0,-1,Sport,5.9,1,90,39.92956,-76.40074
"Fool's Gold","Right Wall > Breakneck > Southwestern Highlands > Pennsylvania",https://www.mountainproject.com/route/106587617/fools-gold,2.5,-1,Sport,5.9,1,30,40.0324,-79.54099
"Jugovick's Detail","The North Wall > Eastern State Penitentiary > Southeastern Lowlands > Pennsylvania",https://www.mountainproject.com/route/119492205/jugovicks-detail,4.0,-1,"Trad, TR",5.9,1,30,39.96925,-75.17266
"A Very Clever Ladder","The North Wall > Eastern State Penitentiary > Southeastern Lowlands > Pennsylvania",https://www.mountainproject.com/route/119492256/a-very-clever-ladder,4.0,-1,"Trad, TR",5.9,1,30,39.96925,-75.17266
"Slippery When Wet","Rim Rock > The Northwest > Pennsylvania",https://www.mountainproject.com/route/107054452/slippery-when-wet,4.0,-1,"Trad, TR","5.9 PG13",1,70,41.8434,-78.9465
"Flying to Houston","h. High Wall > Mount Minsi > Delaware Water Gap (PA) > Northeast Ridges and Valleys > Pennsylvania",https://www.mountainproject.com/route/123511978/flying-to-houston,4.0,-1,TR,5.9,1,20,40.96097,-75.12493
"Stairway to Heaven","Rear Wall > The Library > Mocanaqua (aka Shickshinny) > Northeast Ridges and Valleys > Pennsylvania",https://www.mountainproject.com/route/107520347/stairway-to-heaven,2.8,-1,Sport,5.9,1,35,41.14588,-76.13831
"Please Don't Pop","Main Wall > Boxcar Rocks (Chinese Wall) > South Central PA > Pennsylvania",https://www.mountainproject.com/route/109488236/please-dont-pop,3.5,-1,Sport,5.9,1,50,40.5444,-76.5294
"Parabolic Corner (low variation)","k. Hydroman Sector > Safe Harbor South > Safe Harbor > South Central PA > Pennsylvania",https://www.mountainproject.com/route/107386378/parabolic-corner-low-variation,2.2,-1,"Sport, TR",5.9,1,50,39.92007,-76.37857
"Bat Girl","Front Walls > Lower Walls > Donation Rocks > Central PA > Pennsylvania",https://www.mountainproject.com/route/119906878/bat-girl,3.7,-1,"Sport, TR",5.9,1,55,40.57285,-77.94371
"Nasty Crack","11 - Jim's Wall > White Rocks > Pond Bank > South Central PA > Pennsylvania",https://www.mountainproject.com/route/107171285/nasty-crack,3.2,-1,Trad,5.9,1,100,39.8684,-77.5237
"Pigs in Space","8 - Coroner's Area > White Rocks > Pond Bank > South Central PA > Pennsylvania",https://www.mountainproject.com/route/107885059/pigs-in-space,3.0,-1,Trad,5.9,1,30,39.86785,-77.52389
"Black Velvet","c Electric Co. Sector > Safe Harbor South > Safe Harbor > South Central PA > Pennsylvania",https://www.mountainproject.com/route/109371077/black-velvet,2.0,-1,Sport,5.9,1,30,39.91599,-76.37581
Mia,"c Electric Co. Sector > Safe Harbor South > Safe Harbor > South Central PA > Pennsylvania",https://www.mountainproject.com/route/108028090/mia,2.0,-1,Sport,5.9,1,35,39.91599,-76.37581
"The Great Wall (center - aka the Pumper)","The Edge (Closed) > Southeastern Lowlands > Pennsylvania",https://www.mountainproject.com/route/109093548/the-great-wall-center-aka-the-pumper,3.3,-1,"Sport, TR",5.9,1,75,40.43351,-75.07383
"The Apprentice","Main Wall > Boxcar Rocks (Chinese Wall) > South Central PA > Pennsylvania",https://www.mountainproject.com/route/108342993/the-apprentice,3.3,-1,Sport,5.9,1,35,40.5444,-76.5294
"Grey Face","Main Block, Back Side > The Library > Mocanaqua (aka Shickshinny) > Northeast Ridges and Valleys > Pennsylvania",https://www.mountainproject.com/route/107520372/grey-face,2.5,-1,Sport,5.9,1,35,41.14588,-76.13831
"Pseudo Slab","n. Beer Wall (Reservoir Level) > Birdsboro Quarry > Southeastern Lowlands > Pennsylvania",https://www.mountainproject.com/route/106384829/pseudo-slab,1.9,-1,Sport,5.9,1,,40.24985,-75.82385
"Leap of Faith","Main Wall > Shaffer Rocks (The Hermitage) > South Central PA > Pennsylvania",https://www.mountainproject.com/route/106376012/leap-of-faith,3.1,-1,TR,5.9,1,,39.8123,-77.4822
Dopamine,"3.4 S. L. Area > Safe Harbor North > Safe Harbor > South Central PA > Pennsylvania",https://www.mountainproject.com/route/108805931/dopamine,2.8,-1,Sport,5.9,1,40,39.93527,-76.4191
"High Hanging Fruit (A.K.A. Legends of the Green)","Furthest Right Wall > Breakneck > Southwestern Highlands > Pennsylvania",https://www.mountainproject.com/route/118241945/high-hanging-fruit-aka-legends-of-the-green,2.8,-1,Trad,5.9,1,30,40.03464,-79.54311
"Old Spice","Cannabis Boulder (AKA The Lower Slab) > Breakneck > Southwestern Highlands > Pennsylvania",https://www.mountainproject.com/route/113707364/old-spice,2.6,-1,Sport,5.9,1,35,40.0326,-79.54099
Angulation,"12 - Angulation Wall > White Rocks > Pond Bank > South Central PA > Pennsylvania",https://www.mountainproject.com/route/107171166/angulation,2.6,-1,Trad,5.9,1,105,39.86864,-77.52362
"Triple Play","Front Walls > Lower Walls > Donation Rocks > Central PA > Pennsylvania",https://www.mountainproject.com/route/118036399/triple-play,2.8,-1,"Sport, TR",5.9,1,30,40.57285,-77.94371
"Monkey's Fist","Gorgeous Rocks > Lehigh Gorge State Park > Northeast Ridges and Valleys > Pennsylvania",https://www.mountainproject.com/route/107292863/monkeys-fist,3.0,-1,"Trad, TR",5.9,1,50,40.8848,-75.7634
"Last Man Standing","Bulge Block > The Lost Crag - CLOSED TO CLIMBING > Southwestern Highlands > Pennsylvania",https://www.mountainproject.com/route/106577532/last-man-standing,2.9,-1,Trad,5.9,1,40,39.91958,-79.5805
"Darwin's Dilemma","The Main Attraction > Blue Run Rocks > Central PA > Pennsylvania",https://www.mountainproject.com/route/107902859/darwins-dilemma,2.2,-1,Sport,5.9,1,30,41.80355,-77.54746
Resurrection,"Right Wall > Breakneck > Southwestern Highlands > Pennsylvania",https://www.mountainproject.com/route/107342981/resurrection,3.0,-1,TR,5.9,1,40,40.0324,-79.54099
"True Grit","Right Side > Main Wall > Donation Rocks > Central PA > Pennsylvania",https://www.mountainproject.com/route/118812971/true-grit,3.0,-1,"Trad, TR",5.9,1,30,40.57313,-77.94374
Damnation,"Right Side > Damnation Wall > Donation Rocks > Central PA > Pennsylvania",https://www.mountainproject.com/route/119688360/damnation,3.0,-1,"Trad, TR",5.9,1,50,40.57418,-77.94383
"The Big Chill","Main Wall > Boxcar Rocks (Chinese Wall) > South Central PA > Pennsylvania",https://www.mountainproject.com/route/118966437/the-big-chill,2.7,-1,"Trad, TR","5.9 R",1,45,40.5444,-76.5294
Backscratcher,"S.B.R. Block > The Lost Crag - CLOSED TO CLIMBING > Southwestern Highlands > Pennsylvania",https://www.mountainproject.com/route/106571168/backscratcher,3.0,-1,Trad,5.9,1,30,39.91958,-79.5805
"Your Mom","l. Ground Up Wall > Birdsboro Quarry > Southeastern Lowlands > Pennsylvania",https://www.mountainproject.com/route/110736616/your-mom,2.3,-1,Sport,5.9,1,50,40.25086,-75.82354
"Tinker Bell's Escape","Ship's Prow > Rim Road Climbing Area > McConnells Mill State Park > The Northwest > Pennsylvania",https://www.mountainproject.com/route/122552494/tinker-bells-escape,3.0,-1,TR,5.9,1,,40.95464,-80.17109
"Madame Bovary (FA's original name)","2.5 Alpine Wall (aka tall wall) > Safe Harbor North > Safe Harbor > South Central PA > Pennsylvania",https://www.mountainproject.com/route/108855412/madame-bovary-fas-original-name,2.8,-1,Trad,5.9,2,140,39.93895,-76.4339
"Odie After Dark","Pixel Wall > 7. Gibraltar (Main Overlook) > Susquehanna Riverlands State Park > South Central PA > Pennsylvania",https://www.mountainproject.com/route/123198911/odie-after-dark,3.0,-1,Trad,5.9,2,140,40.05578,-76.63127
"Southern Tier Pumpin","n. Beer Wall (Reservoir Level) > Birdsboro Quarry > Southeastern Lowlands > Pennsylvania",https://www.mountainproject.com/route/107125276/southern-tier-pumpin,1.9,-1,Sport,5.9,1,20,40.24985,-75.82385
"Somewhere In Between","Left Side > Damnation Wall > Donation Rocks > Central PA > Pennsylvania",https://www.mountainproject.com/route/118949030/somewhere-in-between,3.0,-1,TR,5.9,1,45,40.57422,-77.94383
"Pinches of Power","Beam Rocks, Bouldering > Beam Rocks > Southwestern Highlands > Pennsylvania",https://www.mountainproject.com/route/120622374/pinches-of-power,3.0,-1,"Trad, TR","5.9 PG13",1,75,40.13261,-79.15674
"Small Wave's Cousin","Middle Wall > Pike Run > Southwestern Highlands > Pennsylvania",https://www.mountainproject.com/route/118904557/small-waves-cousin,3.0,-1,TR,5.9,1,30,40.0804,-79.31845
Gonads,"11 - Jim's Wall > White Rocks > Pond Bank > South Central PA > Pennsylvania",https://www.mountainproject.com/route/107171243/gonads,2.5,-1,Trad,5.9,1,90,39.8684,-77.5237
Lumberjack,"Chimney Block > The Lost Crag - CLOSED TO CLIMBING > Southwestern Highlands > Pennsylvania",https://www.mountainproject.com/route/106571175/lumberjack,3.0,-1,Trad,5.9,1,25,39.91958,-79.5805
Chrysophylax,"Hay's Wall > Pittsburgh > Southwestern Highlands > Pennsylvania",https://www.mountainproject.com/route/123228237/chrysophylax,3.0,-1,"TR, Boulder","5.9 V1+",1,22,40.39106,-79.94495
"Land of the chiefs","f. Land of the Giants > Mount Minsi > Delaware Water Gap (PA) > Northeast Ridges and Valleys > Pennsylvania",https://www.mountainproject.com/route/123415316/land-of-the-chiefs,3.0,-1,Trad,5.9,2,180,40.96313,-75.12387
"18 and Life","h. The Righteous and the Wicked > Safe Harbor South > Safe Harbor > South Central PA > Pennsylvania",https://www.mountainproject.com/route/109225314/18-and-life,2.2,-1,Sport,5.9,1,60,39.91895,-76.37777
"Through the woods","f. Super Slab Sector > Safe Harbor South > Safe Harbor > South Central PA > Pennsylvania",https://www.mountainproject.com/route/108812350/through-the-woods,1.9,-1,Sport,5.9,1,80,39.91766,-76.37693
"Evil Edge","Short Stack > The Lost Crag - CLOSED TO CLIMBING > Southwestern Highlands > Pennsylvania",https://www.mountainproject.com/route/106456753/evil-edge,2.6,-1,Sport,5.9,1,35,39.92015,-79.58146
Directissima,"Main Rock > Livezey Rock > Wissahickon Valley Park > Philly > Southeastern Lowlands > Pennsylvania",https://www.mountainproject.com/route/106968512/directissima,2.5,-1,"Trad, TR",5.9,1,30,40.0477,-75.21129
FR-Agile,"g. Autumn Arch Sector > Safe Harbor South > Safe Harbor > South Central PA > Pennsylvania",https://www.mountainproject.com/route/108346138/fr-agile,1.9,-1,Sport,5.9,1,50,39.91868,-76.37749
"Solution Crack","Northwest Buttress > Chickies Rock > South Central PA > Pennsylvania",https://www.mountainproject.com/route/106758252/solution-crack,2.1,-1,"Trad, TR","5.9 PG13",1,60,40.05273,-76.52521
Sagaba,"4.49 Cemetery Wall - Fine Line Area > Safe Harbor North > Safe Harbor > South Central PA > Pennsylvania",https://www.mountainproject.com/route/117767999/sagaba,2.3,-1,Sport,5.9,1,60,39.92956,-76.40074
"Beginner's Slab","Main Wall > Mocanaqua (aka Shickshinny) > Northeast Ridges and Valleys > Pennsylvania",https://www.mountainproject.com/route/108041338/beginners-slab,2.8,-1,"Trad, TR",5.9,1,60,41.1485,-76.1133
"Me llamo John, Me gusta mucho bailar.","2.0 International Area > Safe Harbor North > Safe Harbor > South Central PA > Pennsylvania",https://www.mountainproject.com/route/115461838/me-llamo-john-me-gusta-mucho-bailar,2.1,-1,Sport,5.9,1,50,39.94521,-76.44262
"R.O.T.C. Route","Rappel Rock > Rim Road Climbing Area > McConnells Mill State Park > The Northwest > Pennsylvania",https://www.mountainproject.com/route/107371104/rotc-route,2.4,-1,TR,5.9,1,,40.95481,-80.1712
"Great Wall Left","The Edge (Closed) > Southeastern Lowlands > Pennsylvania",https://www.mountainproject.com/route/114971754/great-wall-left,2.6,-1,"Sport, TR",5.9,1,75,40.43351,-75.07383
"R.H. Crack","11 - Jim's Wall > White Rocks > Pond Bank > South Central PA > Pennsylvania",https://www.mountainproject.com/route/107171256/rh-crack,2.6,-1,Trad,5.9,1,120,39.8684,-77.5237
Unkown,"Breakneck Bridge > McConnells Mill State Park > The Northwest > Pennsylvania",https://www.mountainproject.com/route/119572072/unkown,2.7,-1,"Trad, TR","5.9 PG13",1,35,40.93762,-80.17826
"The 5.9 (a.k.a. New Frontier)","Main Rock > Livezey Rock > Wissahickon Valley Park > Philly > Southeastern Lowlands > Pennsylvania",https://www.mountainproject.com/route/107082784/the-59-aka-new-frontier,2.3,-1,TR,5.9,1,30,40.0477,-75.21129
Blap,"Gorgeous Rocks > Lehigh Gorge State Park > Northeast Ridges and Valleys > Pennsylvania",https://www.mountainproject.com/route/108379667/blap,2.4,-1,Sport,5.9,1,30,40.8848,-75.7634
"Psycho Thriller","2.5 Alpine Wall (aka tall wall) > Safe Harbor North > Safe Harbor > South Central PA > Pennsylvania",https://www.mountainproject.com/route/111787977/psycho-thriller,2.1,-1,Sport,5.9,1,90,39.93895,-76.4339
"Spider Woman","Triceps Wall > Lower Walls > Donation Rocks > Central PA > Pennsylvania",https://www.mountainproject.com/route/112844630/spider-woman,2.4,-1,"Sport, TR",5.9,1,50,40.57285,-77.94371
"Jake Said Ouch","Aider's Rock > Blue Run Rocks > Central PA > Pennsylvania",https://www.mountainproject.com/route/107903117/jake-said-ouch,2.2,-1,Sport,5.9,1,,41.8035,-77.5474
"Mossy Pocket","3.4 S. L. Area > Safe Harbor North > Safe Harbor > South Central PA > Pennsylvania",https://www.mountainproject.com/route/108813221/mossy-pocket,2.4,-1,Sport,5.9,1,40,39.93527,-76.4191
Slab-a-licious,"Aider's Rock > Blue Run Rocks > Central PA > Pennsylvania",https://www.mountainproject.com/route/107903125/slab-a-licious,2.3,-1,Sport,5.9,1,,41.8035,-77.5474
Alien,"Left Side > Damnation Wall > Donation Rocks > Central PA > Pennsylvania",https://www.mountainproject.com/route/118066934/alien,2.5,-1,TR,5.9,1,50,40.57422,-77.94383
Hearty,"Entrance Block > The Lost Crag - CLOSED TO CLIMBING > Southwestern Highlands > Pennsylvania",https://www.mountainproject.com/route/118226231/hearty,2.5,-1,Sport,5.9,1,,39.91985,-79.58093
"Unknown, 5.9","Far Block > The Knobs (Rob's Knob) - CLOSED TO CLIMBING > Southwestern Highlands > Pennsylvania",https://www.mountainproject.com/route/106848536/unknown-59,2.5,-1,Trad,5.9,1,25,39.91883,-79.57302
"Carl's Bunnies","River's End > Ohiopyle State Park > Southwestern Highlands > Pennsylvania",https://www.mountainproject.com/route/107781277/carls-bunnies,2.1,-1,Sport,5.9,1,30,39.91335,-79.48418
"Snow White and the Seven Dwarves","h. High Wall > Mount Minsi > Delaware Water Gap (PA) > Northeast Ridges and Valleys > Pennsylvania",https://www.mountainproject.com/route/107705777/snow-white-and-the-seven-dwarves,2.2,-1,"Trad, Sport",5.9,1,90,40.96097,-75.12493
"Cherry Top","Entrance Block > The Lost Crag - CLOSED TO CLIMBING > Southwestern Highlands > Pennsylvania",https://www.mountainproject.com/route/118226222/cherry-top,2.3,-1,Trad,5.9,1,,39.91985,-79.58093
Headstone,"Main Wall > Boxcar Rocks (Chinese Wall) > South Central PA > Pennsylvania",https://www.mountainproject.com/route/109181599/headstone,2.3,-1,"Trad, TR",5.9,1,30,40.5444,-76.5294
"Good Grief! Charlie Brown","xMann's Run > 1.5 Chimney of Horror Section > Safe Harbor North > Safe Harbor > South Central PA > Pennsylvania",https://www.mountainproject.com/route/118035072/good-grief-charlie-brown,2.1,-1,Sport,5.9,1,70,39.94897,-76.44931
"(1) Old School","Main Wall > Breakneck > Southwestern Highlands > Pennsylvania",https://www.mountainproject.com/route/106069341/1-old-school,1.8,-1,"Trad, Sport, TR",5.9,1,50,40.0321,-79.5408
"Marriage by Napster","h. The Righteous and the Wicked > Safe Harbor South > Safe Harbor > South Central PA > Pennsylvania",https://www.mountainproject.com/route/108164788/marriage-by-napster,2.0,-1,Sport,"5.9 R",1,70,39.91895,-76.37777
"The Notch","Main Wall > Chickies Rock > South Central PA > Pennsylvania",https://www.mountainproject.com/route/107272502/the-notch,2.0,-1,"Trad, TR",5.9,1,70,40.05153,-76.52507
"Blind and Deaf","o. Chain Reaction Buttress > Ralph Stover State Park (High Rocks) > Southeastern Lowlands > Pennsylvania",https://www.mountainproject.com/route/107341524/blind-and-deaf,2.2,-1,TR,5.9,1,75,40.44162,-75.09668
"PSA: Fire Prevention","3.75 Cat Fish Cliff Area > Safe Harbor North > Safe Harbor > South Central PA > Pennsylvania",https://www.mountainproject.com/route/108808485/psa-fire-prevention,2.0,-1,Sport,5.9,1,50,39.93242,-76.41374
"Puckered Green","Bulge Block > The Lost Crag - CLOSED TO CLIMBING > Southwestern Highlands > Pennsylvania",https://www.mountainproject.com/route/106577540/puckered-green,2.0,-1,Sport,5.9,1,35,39.91958,-79.5805
"Dean's List (arête variation)","g. The Great Buttress > Ralph Stover State Park (High Rocks) > Southeastern Lowlands > Pennsylvania",https://www.mountainproject.com/route/107335991/deans-list-arete-variation,2.2,-1,"Sport, TR",5.9,1,60,40.44115,-75.09862
"Iechyd da","2.0 International Area > Safe Harbor North > Safe Harbor > South Central PA > Pennsylvania",https://www.mountainproject.com/route/121665148/iechyd-da,2.0,-1,Sport,5.9,1,30,39.94521,-76.44262
"Tee Pee Tim","The Tee Pee > Breakneck > Southwestern Highlands > Pennsylvania",https://www.mountainproject.com/route/106069463/tee-pee-tim,2.0,-1,Sport,5.9,1,25,40.0322,-79.5408
"Unnamed 5.9","Short Stack > The Lost Crag - CLOSED TO CLIMBING > Southwestern Highlands > Pennsylvania",https://www.mountainproject.com/route/106572628/unnamed-59,2.0,-1,Trad,5.9,1,30,39.92015,-79.58146
"Like A Slabby Virgin","i. Sun Wall (Long Slabs) > Birdsboro Quarry > Southeastern Lowlands > Pennsylvania",https://www.mountainproject.com/route/107298556/like-a-slabby-virgin,2.1,-1,Sport,5.9,1,,40.25149,-75.82395
"Round Up","The Devil's Kitchen (a.k.a. the Duke?) > Bilger's Rocks > South Central PA > Pennsylvania",https://www.mountainproject.com/route/114601970/round-up,2.3,-1,"TR, Boulder","5.9 V0 R",1,30,40.9939,-78.59223
"Urban Orangutan","Brutal Block > The Lost Crag - CLOSED TO CLIMBING > Southwestern Highlands > Pennsylvania",https://www.mountainproject.com/route/106605843/urban-orangutan,2.0,-1,Sport,5.9,1,25,39.92017,-79.58137
"Uncle Mitch","j. Train in Vain Sector > Safe Harbor South > Safe Harbor > South Central PA > Pennsylvania",https://www.mountainproject.com/route/122279097/uncle-mitch,1.9,-1,Sport,5.9,1,55,39.91979,-76.37835
"Stick That Eddie (AKA Slip and Splash)","* Unsorted route list > Seldom Seen > Pittsburgh > Southwestern Highlands > Pennsylvania",https://www.mountainproject.com/route/120625607/stick-that-eddie-aka-slip-and-splash,2.0,-1,Sport,5.9,1,40,40.42551,-80.02095
Sockldager,"Pixel Wall > 7. Gibraltar (Main Overlook) > Susquehanna Riverlands State Park > South Central PA > Pennsylvania",https://www.mountainproject.com/route/123198845/sockldager,2.0,-1,Trad,5.9,2,100,40.05578,-76.63127
"Old's Cool","* Unsorted route list > Seldom Seen > Pittsburgh > Southwestern Highlands > Pennsylvania",https://www.mountainproject.com/route/122372114/olds-cool,2.0,-1,Sport,5.9,1,30,40.42551,-80.02095
"Dirty Martini","0.5 Sunset Wall > Safe Harbor North > Safe Harbor > South Central PA > Pennsylvania",https://www.mountainproject.com/route/116236267/dirty-martini,2.0,-1,Sport,5.9,1,30,39.95847,-76.45964
"Mike Jr.","The Block > Chickies Rock > South Central PA > Pennsylvania",https://www.mountainproject.com/route/122542515/mike-jr,2.4,-1,Trad,5.9,1,50,40.0512,-76.52493
"Tuna Magic","3.2 Fry's Run > Safe Harbor North > Safe Harbor > South Central PA > Pennsylvania",https://www.mountainproject.com/route/122297090/tuna-magic,2.0,-1,Sport,5.9,1,40,39.9352,-76.42251
"Big Ball","Middle Wall > Pike Run > Southwestern Highlands > Pennsylvania",https://www.mountainproject.com/route/119396034/big-ball,2.0,-1,TR,5.9,1,20,40.0804,-79.31845
"Chickies Traverse","Trail Valley > Chickies Rock > South Central PA > Pennsylvania",https://www.mountainproject.com/route/111731433/chickies-traverse,2.0,-1,"TR, Boulder","5.9 V1",1,80,40.05202,-76.52513
Unknown,"3.35 Gold Line Corners > Safe Harbor North > Safe Harbor > South Central PA > Pennsylvania",https://www.mountainproject.com/route/114621545/unknown,2.0,-1,TR,5.9,1,,39.93596,-76.42094
Espresso,"c. The Practice Face > Mount Minsi > Delaware Water Gap (PA) > Northeast Ridges and Valleys > Pennsylvania",https://www.mountainproject.com/route/107709454/espresso,2.0,-1,Trad,5.9,3,200,40.96397,-75.12355
"Cold Shut","The Cave Crag (Yough Cliffs) > Washington Run Gorge (Perryopolis) > Southwestern Highlands > Pennsylvania",https://www.mountainproject.com/route/111687191/cold-shut,2.0,-1,TR,5.9,1,30,40.08872,-79.7302
Shit!,"The Cave Crag (Yough Cliffs) > Washington Run Gorge (Perryopolis) > Southwestern Highlands > Pennsylvania",https://www.mountainproject.com/route/112470426/shit,2.0,-1,"Trad, TR",5.9,1,25,40.08872,-79.7302
[Redacted],"4.4 Choss Wall > Safe Harbor North > Safe Harbor > South Central PA > Pennsylvania",https://www.mountainproject.com/route/108855510/redacted,2.0,-1,Sport,5.9,1,50,39.92983,-76.40189
"Fun Two","Fun Block > The Knobs (Rob's Knob) - CLOSED TO CLIMBING > Southwestern Highlands > Pennsylvania",https://www.mountainproject.com/route/111757450/fun-two,2.0,-1,Trad,5.9,1,30,39.91883,-79.57302
"100th Monkey","4.4 Choss Wall > Safe Harbor North > Safe Harbor > South Central PA > Pennsylvania",https://www.mountainproject.com/route/108855541/100th-monkey,2.0,-1,Sport,5.9,1,50,39.92983,-76.40189
"Wing Wang Woof","Main Wall > Shaffer Rocks (The Hermitage) > South Central PA > Pennsylvania",https://www.mountainproject.com/route/106376038/wing-wang-woof,2.0,-1,TR,5.9,1,,39.8123,-77.4822
"The Wind and the Willows","The Oaks > Hunter's Rocks (Rocky Ridge Natural Area) > Central PA > Pennsylvania",https://www.mountainproject.com/route/107413383/the-wind-and-the-willows,2.0,-1,TR,5.9,1,25,40.5649,-77.849
SpamJam,"7 - Zorro Was Here Area > White Rocks > Pond Bank > South Central PA > Pennsylvania",https://www.mountainproject.com/route/107206498/spamjam,2.0,-1,"Trad, TR",5.9,1,40,39.86785,-77.52389
"Crack Up","Mungo Jelly Block > The Knobs (Rob's Knob) - CLOSED TO CLIMBING > Southwestern Highlands > Pennsylvania",https://www.mountainproject.com/route/106849549/crack-up,2.0,-1,Trad,5.9,1,25,39.91883,-79.57302
"High Performance","Bob Block > The Lost Crag - CLOSED TO CLIMBING > Southwestern Highlands > Pennsylvania",https://www.mountainproject.com/route/106576046/high-performance,2.0,-1,Sport,5.9,1,30,39.92038,-79.58151
"Green Wall Right","Bulge Block > The Lost Crag - CLOSED TO CLIMBING > Southwestern Highlands > Pennsylvania",https://www.mountainproject.com/route/106605740/green-wall-right,2.0,-1,Sport,5.9,1,30,39.91958,-79.5805
"Unnamed 5.9","Crack World > The Lost Crag - CLOSED TO CLIMBING > Southwestern Highlands > Pennsylvania",https://www.mountainproject.com/route/106572800/unnamed-59,2.0,-1,TR,5.9,1,,39.91958,-79.5805
"SBR Right","S.B.R. Block > The Lost Crag - CLOSED TO CLIMBING > Southwestern Highlands > Pennsylvania",https://www.mountainproject.com/route/106605748/sbr-right,2.0,-1,Trad,5.9,1,30,39.91958,-79.5805
"Ultraworld humanoid lobes","g. The Morning Wall Area > Mount Minsi > Delaware Water Gap (PA) > Northeast Ridges and Valleys > Pennsylvania",https://www.mountainproject.com/route/123406062/ultraworld-humanoid-lobes,2.0,-1,Trad,5.9,1,90,40.96283,-75.12422
"Clickity Clack","* Unsorted route list > Seldom Seen > Pittsburgh > Southwestern Highlands > Pennsylvania",https://www.mountainproject.com/route/123530921/clickity-clack,2.0,-1,"Sport, TR",5.9,1,25,40.42551,-80.02095
"5.9 crack","k. Hydroman Sector > Safe Harbor South > Safe Harbor > South Central PA > Pennsylvania",https://www.mountainproject.com/route/108833209/59-crack,2.0,-1,Trad,5.9,1,40,39.92007,-76.37857
"The Kenderline","8. Castellon > Susquehanna Riverlands State Park > South Central PA > Pennsylvania",https://www.mountainproject.com/route/123803125/the-kenderline,3.0,-1,Trad,"5.9 PG13",1,55,40.05567,-76.63051
"Games Without Frontiers","o. Chain Reaction Buttress > Ralph Stover State Park (High Rocks) > Southeastern Lowlands > Pennsylvania",https://www.mountainproject.com/route/123841834/games-without-frontiers,2.0,-1,"Trad, TR","5.9 PG13",1,65,40.44162,-75.09668
"Tree Route","Frank Curto Park > Pittsburgh > Southwestern Highlands > Pennsylvania",https://www.mountainproject.com/route/123936695/tree-route,3.0,-1,"Sport, TR",5.9,1,30,40.45236,-79.97492
"Group Clean Up","Frank Curto Park > Pittsburgh > Southwestern Highlands > Pennsylvania",https://www.mountainproject.com/route/123936709/group-clean-up,2.5,-1,"Sport, TR",5.9,1,30,40.45236,-79.97492
"Disorderly Conduct","Frank Curto Park > Pittsburgh > Southwestern Highlands > Pennsylvania",https://www.mountainproject.com/route/123936741/disorderly-conduct,2.8,-1,"Sport, TR",5.9,1,30,40.45236,-79.97492
"City Sanctioned","Frank Curto Park > Pittsburgh > Southwestern Highlands > Pennsylvania",https://www.mountainproject.com/route/123936758/city-sanctioned,3.0,-1,"Sport, TR",5.9,1,30,40.45236,-79.97492
"Urban Dreams","Frank Curto Park > Pittsburgh > Southwestern Highlands > Pennsylvania",https://www.mountainproject.com/route/123936766/urban-dreams,3.0,-1,"Sport, TR",5.9,1,30,40.45236,-79.97492
"Johnny Appleseed","Frank Curto Park > Pittsburgh > Southwestern Highlands > Pennsylvania",https://www.mountainproject.com/route/123936774/johnny-appleseed,3.0,-1,"Sport, TR",5.9,1,30,40.45236,-79.97492
"Send City","Frank Curto Park > Pittsburgh > Southwestern Highlands > Pennsylvania",https://www.mountainproject.com/route/123936780/send-city,3.0,-1,"Sport, TR",5.9,1,30,40.45236,-79.97492
"Sunset Treasure","Frank Curto Park > Pittsburgh > Southwestern Highlands > Pennsylvania",https://www.mountainproject.com/route/123936789/sunset-treasure,3.0,-1,"Sport, TR",5.9,1,30,40.45236,-79.97492
"Schulls' Cheek","4. Pride Roq > Susquehanna Riverlands State Park > South Central PA > Pennsylvania",https://www.mountainproject.com/route/124368993/schulls-cheek,3.0,-1,Trad,5.9,1,40,40.05664,-76.63565
"Hugh's Roof","Trail Valley > Chickies Rock > South Central PA > Pennsylvania",https://www.mountainproject.com/route/124373046/hughs-roof,2.0,-1,Trad,"5.9 R",2,180,40.05202,-76.52513
"Stick Shift","The Bridge Wall > Seldom Seen > Pittsburgh > Southwestern Highlands > Pennsylvania",https://www.mountainproject.com/route/124396596/stick-shift,2.0,-1,Sport,5.9,1,,40.42552,-80.02097
"Stick Shift","* Unsorted route list > Seldom Seen > Pittsburgh > Southwestern Highlands > Pennsylvania",https://www.mountainproject.com/route/124399354/stick-shift,3.0,-1,"Sport, TR",5.9,1,35,40.42551,-80.02095
"Sunday Afternoon","Main Wall > Chickies Rock > South Central PA > Pennsylvania",https://www.mountainproject.com/route/124541335/sunday-afternoon,2.5,-1,Trad,"5.9 PG13",1,100,40.05153,-76.52507
"Layback Overhang","The Block > Chickies Rock > South Central PA > Pennsylvania",https://www.mountainproject.com/route/124541886/layback-overhang,3.0,-1,Trad,"5.9 PG13",1,50,40.0512,-76.52493
"University's Library","3. Battlements > Susquehanna Riverlands State Park > South Central PA > Pennsylvania",https://www.mountainproject.com/route/124639108/universitys-library,3.0,-1,Trad,5.9,1,40,40.05675,-76.63677
"Dragons Lair","h. High Wall > Mount Minsi > Delaware Water Gap (PA) > Northeast Ridges and Valleys > Pennsylvania",https://www.mountainproject.com/route/124757030/dragons-lair,3.0,-1,Trad,5.9,2,200,40.96097,-75.12493
"Jungle Creed","Inspiration Wall > 6. Doldrums > Susquehanna Riverlands State Park > South Central PA > Pennsylvania",https://www.mountainproject.com/route/124904956/jungle-creed,3.0,-1,Trad,5.9,1,100,40.05631,-76.6333
