Route,Location,URL,"Avg Stars","Your Stars","Route Type",Rating,Pitches,Length,"Area Latitude","Area Longitude"
Crossroads,"k. Hydroman Sector > Safe Harbor South > Safe Harbor > South Central PA > Pennsylvania",https://www.mountainproject.com/route/107405210/crossroads,2.5,-1,Sport,5.10b/c,1,60,39.92007,-76.37857
"The Flake","Big Gully > Main Wall > Donation Rocks > Central PA > Pennsylvania",https://www.mountainproject.com/route/118007523/the-flake,3.8,-1,"Sport, TR",5.10b/c,1,50,40.5731,-77.94374
I-Beam,"Paradise > Mocanaqua (aka Shickshinny) > Northeast Ridges and Valleys > Pennsylvania",https://www.mountainproject.com/route/106812537/i-beam,3.0,-1,"Trad, TR",5.10b/c,1,60,41.14677,-76.14145
"Mr. Clean","Sunshine Wall > Rim Road Climbing Area > McConnells Mill State Park > The Northwest > Pennsylvania",https://www.mountainproject.com/route/107370985/mr-clean,2.6,-1,TR,5.10b/c,1,,40.95392,-80.17141
"JSF (Jay's Scare Fest)","k. Hydroman Sector > Safe Harbor South > Safe Harbor > South Central PA > Pennsylvania",https://www.mountainproject.com/route/108164825/jsf-jays-scare-fest,2.0,-1,Sport,5.10b/c,1,40,39.92007,-76.37857
"Mike's Roof","The Block > Chickies Rock > South Central PA > Pennsylvania",https://www.mountainproject.com/route/124333989/mikes-roof,3.5,-1,Trad,"5.10b/c PG13",1,60,40.0512,-76.52493
