Route,Location,URL,"Avg Stars","Your Stars","Route Type",Rating,Pitches,Length,"Area Latitude","Area Longitude"
"Got a Habit Like a Rabbit","The Bunny Slope > Sunshine > Spearfish Canyon > South Dakota",https://www.mountainproject.com/route/108082183/got-a-habit-like-a-rabbit,2.9,-1,Sport,5.10c/d,1,80,44.29403,-103.89322
"Husker Don't","Big Black Face > Sunshine > Spearfish Canyon > South Dakota",https://www.mountainproject.com/route/107960054/husker-dont,2.7,-1,Sport,5.10c/d,1,100,44.29371,-103.8935
"Urine Trouble","The Can > Big Picture Gully > Spearfish Canyon > South Dakota",https://www.mountainproject.com/route/105911895/urine-trouble,2.6,-1,Sport,5.10c/d,1,50,44.31726,-103.90147
"Kanye Heads Out West","Blowin' Kisses Wall > The Danks > Spearfish Canyon > South Dakota",https://www.mountainproject.com/route/107591673/kanye-heads-out-west,3.2,-1,Sport,5.10c/d,1,69,44.27819,-103.90419
"Indian Summer","Weather Watchers Wall > Raspberry Rocks > Iron Mountain > The Needles Of Rushmore > South Dakota",https://www.mountainproject.com/route/105715172/indian-summer,3.0,-1,"Trad, Sport",5.10c/d,1,80,43.83905,-103.40947
"Hash It Out","Half-Baked Wall > The Danks > Spearfish Canyon > South Dakota",https://www.mountainproject.com/route/108123571/hash-it-out,2.6,-1,Sport,5.10c/d,1,75,44.27824,-103.90414
"Original Sin","Weather Watchers Wall > Raspberry Rocks > Iron Mountain > The Needles Of Rushmore > South Dakota",https://www.mountainproject.com/route/105715295/original-sin,2.8,-1,Trad,5.10c/d,2,200,43.83905,-103.40947
"Lost Soul","The Gully Of Biblical Proportions > The Mohican > Spearfish Canyon > South Dakota",https://www.mountainproject.com/route/107182012/lost-soul,2.1,-1,Sport,5.10c/d,1,60,44.33171,-103.9001
