Route,Location,URL,"Avg Stars","Your Stars","Route Type",Rating,Pitches,Length,"Area Latitude","Area Longitude"
"Triple Overhangs","Summit Wall > Lone Peak Cirque > Central Wasatch > Wasatch Range > Utah",https://www.mountainproject.com/route/105741389/triple-overhangs,3.8,-1,"Trad, Alpine",5.10a,4,550,40.52645,-111.75527
"Vertical Smile","Summit Wall > Lone Peak Cirque > Central Wasatch > Wasatch Range > Utah",https://www.mountainproject.com/route/105741782/vertical-smile,3.8,-1,"Trad, Alpine",5.10a,1,,40.52645,-111.75527
"Mexican Crack","Crescent Crack Buttress > Little Cottonwood Canyon > Central Wasatch > Wasatch Range > Utah",https://www.mountainproject.com/route/105740603/mexican-crack,3.7,-1,Trad,5.10a,1,90,40.5733,-111.771
"Winds of Fire","Hard Rock > American Fork Canyon > Southern Wasatch > Wasatch Range > Utah",https://www.mountainproject.com/route/106003242/winds-of-fire,3.6,-1,Sport,5.10a,1,100,40.4507,-111.6717
"Disco Duck","Waterfront, The > Little Cottonwood Canyon > Central Wasatch > Wasatch Range > Utah",https://www.mountainproject.com/route/105741404/disco-duck,3.5,-1,Trad,5.10a,1,70,40.5739,-111.7562
"Squeeze Play","Cerberus Gendarme > Zion National Park > Southwest Utah > Utah",https://www.mountainproject.com/route/105792795/squeeze-play,3.5,-1,Trad,5.10a,1,80,37.27435,-112.94437
"Extreme Unction","Watchtower Main > The Watchtower > Ferguson Canyon > Central Wasatch > Wasatch Range > Utah",https://www.mountainproject.com/route/105739907/extreme-unction,3.4,-1,"Trad, TR",5.10a,1,50,40.61349,-111.77922
"Call it a Knight","Ed and Terry Wall > Rock Canyon > Southern Wasatch > Wasatch Range > Utah",https://www.mountainproject.com/route/105931238/call-it-a-knight,3.4,-1,"Sport, TR",5.10a,1,110,40.2645,-111.6232
"Deface Crack","Bluff Street Cracks > Saint George > Southwest Utah > Utah",https://www.mountainproject.com/route/105926590/deface-crack,3.4,-1,Trad,5.10a,1,55,37.1215,-113.5932
"Black Elk","Good Medicine Area > Ruth Lake > Uinta Mountains > Northeast Utah > Utah",https://www.mountainproject.com/route/105741140/black-elk,3.4,-1,Sport,5.10a,1,70,40.73091,-110.87835
"Men in Tights","The Cinema > Take-Out Beach > River Road > Southeast Utah > Utah",https://www.mountainproject.com/route/112542533/men-in-tights,3.3,-1,Sport,5.10a,1,95,38.66006,-109.49974
"Social Engineering","The Dead Snag > Big Cottonwood Canyon > Central Wasatch > Wasatch Range > Utah",https://www.mountainproject.com/route/110312893/social-engineering,3.4,-1,Trad,5.10a,1,130,40.62082,-111.74466
"The Viewing","Coffin Buttress > Little Cottonwood Canyon > Central Wasatch > Wasatch Range > Utah",https://www.mountainproject.com/route/105740639/the-viewing,3.3,-1,Sport,"5.10a R",1,100,40.57418,-111.77065
"Wheels on Fire Direct","Green Adjective Gully > Little Cottonwood Canyon > Central Wasatch > Wasatch Range > Utah",https://www.mountainproject.com/route/105740882/wheels-on-fire-direct,3.3,-1,Trad,5.10a,1,120,40.5741,-111.7543
"Plumb Line","Plumb Line Gully > Little Cottonwood Canyon > Central Wasatch > Wasatch Range > Utah",https://www.mountainproject.com/route/105740648/plumb-line,3.3,-1,"Trad, TR",5.10a,1,50,40.57437,-111.75696
"Sticky Revelations","Prophesy Wall > Saint George > Southwest Utah > Utah",https://www.mountainproject.com/route/105718492/sticky-revelations,3.1,-1,Sport,5.10a,3,210,37.2939,-113.6932
"Right Toilet Bowl Crack","Temple of Sinawava > Zion National Park > Southwest Utah > Utah",https://www.mountainproject.com/route/108617444/right-toilet-bowl-crack,3.1,-1,Trad,5.10a,5,,37.28494,-112.94922
"Roar of the Greasepaint","Circus Wall > Island In The Sky > Snow Canyon State Park > Saint George > Southwest Utah > Utah",https://www.mountainproject.com/route/105718219/roar-of-the-greasepaint,3.1,-1,Sport,5.10a,2,150,37.19743,-113.64353
"Nervous in Suburbia","Wall Street > Potash Road > Southeast Utah > Utah",https://www.mountainproject.com/route/105717502/nervous-in-suburbia,3.1,-1,Sport,5.10a,1,50,38.54668,-109.59959
"Platinum Blonde","Hard Rock > American Fork Canyon > Southern Wasatch > Wasatch Range > Utah",https://www.mountainproject.com/route/105742064/platinum-blonde,3.0,-1,Sport,5.10a,1,100,40.4507,-111.6717
"Black Mouse Squeaks","Rodent Ranch > Logan Canyon > Cache Valley > Northern Wasatch > Wasatch Range > Utah",https://www.mountainproject.com/route/106593862/black-mouse-squeaks,3.0,-1,Sport,5.10a,1,,41.80592,-111.63168
"Kermit's Wad","Kermits Wall > Little Cottonwood Canyon > Central Wasatch > Wasatch Range > Utah",https://www.mountainproject.com/route/105740690/kermits-wad,3.0,-1,"Sport, TR",5.10a,1,90,40.5738,-111.7549
"Dream Slate","Narcolepsy Area > Big Cottonwood Canyon > Central Wasatch > Wasatch Range > Utah",https://www.mountainproject.com/route/105740204/dream-slate,3.0,-1,Sport,5.10a,1,70,40.6214,-111.7472
"Flak Jacket","Bridge Area > Maple Canyon Road > Maple Canyon > Central Utah > Utah",https://www.mountainproject.com/route/106025644/flak-jacket,3.0,-1,Sport,5.10a,1,45,39.555,-111.6832
Boomerang,"Plumb Line Gully > Little Cottonwood Canyon > Central Wasatch > Wasatch Range > Utah",https://www.mountainproject.com/route/105741932/boomerang,3.0,-1,Trad,5.10a,2,250,40.57437,-111.75696
"Red Warrior","Bluff Street Cracks > Saint George > Southwest Utah > Utah",https://www.mountainproject.com/route/106108794/red-warrior,3.0,-1,Trad,5.10a,1,55,37.1215,-113.5932
"Battalion of Saints","Battalion of Saints Wall > Big Cottonwood Canyon > Central Wasatch > Wasatch Range > Utah",https://www.mountainproject.com/route/105989011/battalion-of-saints,3.0,-1,Sport,5.10a,1,60,40.63995,-111.69518
"Old Pine","The Alley > Sunset Alley > Beaver Dam Road > Saint George > Southwest Utah > Utah",https://www.mountainproject.com/route/110583336/old-pine,3.0,-1,Sport,5.10a,1,80,37.13323,-113.84403
"Magic Carpet Ride","The Sunny Side > Mill Creek > La Sal Mountains > Southeast Utah > Utah",https://www.mountainproject.com/route/106049215/magic-carpet-ride,3.0,-1,Sport,5.10a,1,50,38.49649,-109.31053
"Caress of Steel","The Membrane > American Fork Canyon > Southern Wasatch > Wasatch Range > Utah",https://www.mountainproject.com/route/105739949/caress-of-steel,2.9,-1,Sport,5.10a,1,,40.44666,-111.68668
"Many Options","Hard Rock > American Fork Canyon > Southern Wasatch > Wasatch Range > Utah",https://www.mountainproject.com/route/105885699/many-options,2.9,-1,Sport,5.10a,1,60,40.4507,-111.6717
"Welcome to Black Rocks","Shady Side > Black Rocks > Saint George > Southwest Utah > Utah",https://www.mountainproject.com/route/106665682/welcome-to-black-rocks,2.9,-1,Sport,5.10a,1,50,37.1548,-113.6074
"Errant Edge","Lizard Head Wall > Little Cottonwood Canyon > Central Wasatch > Wasatch Range > Utah",https://www.mountainproject.com/route/106124672/errant-edge,2.9,-1,Trad,5.10a,1,100,40.5733,-111.7596
"Leggo My Eggo","The Egg > Little Cottonwood Canyon > Central Wasatch > Wasatch Range > Utah",https://www.mountainproject.com/route/105740990/leggo-my-eggo,2.9,-1,Sport,5.10a,1,150,40.57405,-111.76875
"Tourist Crack","Temple of Sinawava > Zion National Park > Southwest Utah > Utah",https://www.mountainproject.com/route/105717835/tourist-crack,3.4,-1,Trad,5.10a,1,100,37.28494,-112.94922
Kingpin,"Pictograph Wall > Left Fork > Maple Canyon > Central Utah > Utah",https://www.mountainproject.com/route/105855762/kingpin,2.8,-1,Sport,5.10a,1,80,39.5557,-111.6869
"Wide Boy","Bluff Street Cracks > Saint George > Southwest Utah > Utah",https://www.mountainproject.com/route/106108789/wide-boy,2.9,-1,Trad,5.10a,1,45,37.1215,-113.5932
"To Boo, or Not to Boo","The Theater > Take-Out Beach > River Road > Southeast Utah > Utah",https://www.mountainproject.com/route/112556981/to-boo-or-not-to-boo,2.9,-1,Sport,5.10a,1,75,38.66113,-109.4994
Chupacabra,"The Wild > Rock Canyon > Southern Wasatch > Wasatch Range > Utah",https://www.mountainproject.com/route/106211512/chupacabra,2.8,-1,Sport,5.10a,1,40,40.2646,-111.6122
"Chambered Nautilus","East Face > Challenge Buttress > Big Cottonwood Canyon > Central Wasatch > Wasatch Range > Utah",https://www.mountainproject.com/route/105740234/chambered-nautilus,2.8,-1,Sport,5.10a,1,70,40.62202,-111.74528
Antidote,"The Melting Mud Wall > East Hellgate > Hellgate Cliffs > Little Cottonwood Canyon > Central Wasatch > Wasatch Range > Utah",https://www.mountainproject.com/route/106020326/antidote,2.8,-1,Sport,5.10a,1,80,40.58991,-111.64385
"Meet the Buddha","Zen Garden > Right Fork > Maple Canyon > Central Utah > Utah",https://www.mountainproject.com/route/105857287/meet-the-buddha,2.8,-1,Sport,5.10a,1,60,39.5632,-111.6908
"Sacred Hoop","Good Medicine Area > Ruth Lake > Uinta Mountains > Northeast Utah > Utah",https://www.mountainproject.com/route/105741146/sacred-hoop,2.8,-1,Sport,5.10a,1,60,40.73091,-110.87835
"Tales of Flails","Cerberus Gendarme > Zion National Park > Southwest Utah > Utah",https://www.mountainproject.com/route/106080079/tales-of-flails,3.0,-1,Trad,5.10a,1,130,37.27435,-112.94437
"Shits and Giggles","The Alley > Sunset Alley > Beaver Dam Road > Saint George > Southwest Utah > Utah",https://www.mountainproject.com/route/111362720/shits-and-giggles,2.7,-1,Sport,5.10a,1,60,37.13323,-113.84403
"Twist and Shout","Escape Buttress > American Fork Canyon > Southern Wasatch > Wasatch Range > Utah",https://www.mountainproject.com/route/105741323/twist-and-shout,2.7,-1,Sport,5.10a,1,50,40.4511,-111.6701
"Barefoot in Barbados","Waterfront, The > Little Cottonwood Canyon > Central Wasatch > Wasatch Range > Utah",https://www.mountainproject.com/route/105741176/barefoot-in-barbados,2.6,-1,"Sport, TR",5.10a,1,70,40.5739,-111.7562
"A Fistful of Potash","Wall Street > Potash Road > Southeast Utah > Utah",https://www.mountainproject.com/route/105717595/a-fistful-of-potash,2.6,-1,Trad,5.10a,1,,38.54668,-109.59959
"Crime and Punishment","Black and Tan > Woodbury Road Crags > Utah Hills > Saint George > Southwest Utah > Utah",https://www.mountainproject.com/route/106684989/crime-and-punishment,2.8,-1,Sport,5.10a,1,85,37.0175,-113.8518
"Buddha's Belly","The Pipe Dream > Right Fork > Maple Canyon > Central Utah > Utah",https://www.mountainproject.com/route/106515503/buddhas-belly,2.6,-1,Sport,5.10a,1,80,39.56569,-111.69639
Solace,"Chuckwalla Wall > Saint George > Southwest Utah > Utah",https://www.mountainproject.com/route/105792753/solace,2.6,-1,Sport,5.10a,1,45,37.13919,-113.60558
"El Cracko Diablo","Wall Street > Potash Road > Southeast Utah > Utah",https://www.mountainproject.com/route/105717478/el-cracko-diablo,2.6,-1,Trad,5.10a,1,,38.54668,-109.59959
"Banana Peel","Wall Street > Potash Road > Southeast Utah > Utah",https://www.mountainproject.com/route/105891803/banana-peel,2.6,-1,Sport,5.10a,1,55,38.54668,-109.59959
"Ceremonial Execution","Stone Garden > Uinta Mountains > Northeast Utah > Utah",https://www.mountainproject.com/route/106006589/ceremonial-execution,2.6,-1,Sport,5.10a,1,75,40.74985,-110.87912
"Leia's Leash","Tatooine > Galaxy Area > Rock Canyon > Southern Wasatch > Wasatch Range > Utah",https://www.mountainproject.com/route/106427306/leias-leash,3.3,-1,Sport,5.10a,1,135,40.26667,-111.61443
"Visible Panty Line","Wall Street > Potash Road > Southeast Utah > Utah",https://www.mountainproject.com/route/105717727/visible-panty-line,2.6,-1,Trad,5.10a,1,70,38.54668,-109.59959
"Born Again","Hard Rock > American Fork Canyon > Southern Wasatch > Wasatch Range > Utah",https://www.mountainproject.com/route/107826594/born-again,2.5,-1,Sport,5.10a,1,45,40.4507,-111.6717
"MA   1","Green Adjective Gully > Little Cottonwood Canyon > Central Wasatch > Wasatch Range > Utah",https://www.mountainproject.com/route/105740525/ma-1,2.5,-1,Trad,5.10a,2,90,40.5741,-111.7543
"Les is More","Division Wall > American Fork Canyon > Southern Wasatch > Wasatch Range > Utah",https://www.mountainproject.com/route/105971842/les-is-more,2.5,-1,Sport,5.10a,1,60,40.4503,-111.668
"Arc Angel","Wall Street > Potash Road > Southeast Utah > Utah",https://www.mountainproject.com/route/110015952/arc-angel,2.4,-1,Sport,5.10a,1,,38.54668,-109.59959
Witchhunt,"Salt Lake Slips > Big Cottonwood Canyon > Central Wasatch > Wasatch Range > Utah",https://www.mountainproject.com/route/105739913/witchhunt,2.5,-1,Sport,5.10a,1,40,40.6226,-111.748
"Fire and Brimstone","Watchtower Main > The Watchtower > Ferguson Canyon > Central Wasatch > Wasatch Range > Utah",https://www.mountainproject.com/route/105740021/fire-and-brimstone,2.5,-1,Trad,5.10a,1,50,40.61349,-111.77922
Mylanta,"Engagement Alcove > Left Fork > Maple Canyon > Central Utah > Utah",https://www.mountainproject.com/route/105969134/mylanta,2.5,-1,Sport,5.10a,1,45,39.5545,-111.6881
"Urban Sprawl","S-Curve - Upper Wall > S-Curves > Big Cottonwood Canyon > Central Wasatch > Wasatch Range > Utah",https://www.mountainproject.com/route/105740576/urban-sprawl,2.5,-1,"Sport, TR","5.10a PG13",1,60,40.63471,-111.72262
"The Burnt","The Burnt Wall > Big Cottonwood Canyon > Central Wasatch > Wasatch Range > Utah",https://www.mountainproject.com/route/105988881/the-burnt,2.6,-1,Sport,5.10a,1,50,40.63995,-111.69463
"The Scarecrow","Orangutan Wall > Left Fork > Maple Canyon > Central Utah > Utah",https://www.mountainproject.com/route/107302921/the-scarecrow,2.5,-1,Sport,5.10a,1,80,39.55474,-111.68811
"Moses Had a Stick Clip","Sunny Side > Black Rocks > Saint George > Southwest Utah > Utah",https://www.mountainproject.com/route/105718513/moses-had-a-stick-clip,2.5,-1,Sport,5.10a,1,50,37.155,-113.6073
Tarzan,"Beckey's Wall Area > Gate Buttress > Little Cottonwood Canyon > Central Wasatch > Wasatch Range > Utah",https://www.mountainproject.com/route/105741461/tarzan,2.4,-1,Trad,5.10a,1,120,40.5729,-111.7529
"Drop Zone","The Membrane > American Fork Canyon > Southern Wasatch > Wasatch Range > Utah",https://www.mountainproject.com/route/107744446/drop-zone,2.4,-1,Sport,5.10a,1,50,40.44666,-111.68668
"Puppet Strings","Green Valley Gap > Saint George > Southwest Utah > Utah",https://www.mountainproject.com/route/105795911/puppet-strings,2.5,-1,Sport,5.10a,1,35,37.08852,-113.63779
"Conditional Bliss","Prophesy Wall > Saint George > Southwest Utah > Utah",https://www.mountainproject.com/route/106603985/conditional-bliss,3.1,-1,Sport,5.10a,1,130,37.2939,-113.6932
Dirtbag,"Chuckwalla Wall > Saint George > Southwest Utah > Utah",https://www.mountainproject.com/route/105718201/dirtbag,2.3,-1,Sport,5.10a,1,50,37.13919,-113.60558
[Redacted],"The Membrane > American Fork Canyon > Southern Wasatch > Wasatch Range > Utah",https://www.mountainproject.com/route/105844347/redacted,2.3,-1,Sport,5.10a,1,40,40.44666,-111.68668
"Scenic Byway","Scenic Byway Wall > Upper Buckhorn > Buckhorn Wash > San Rafael Swell - North > San Rafael Swell > South Central Utah > Utah",https://www.mountainproject.com/route/108187660/scenic-byway,3.2,-1,Trad,5.10a,4,400,39.15435,-110.71998
"Bloody Impaction","The Red Rock > Red Rock > Draper Area Crags > Central Wasatch > Wasatch Range > Utah",https://www.mountainproject.com/route/105742022/bloody-impaction,2.3,-1,"Sport, TR",5.10a,1,,40.48757,-111.85656
30,"The B-52 Wall > American Fork Canyon > Southern Wasatch > Wasatch Range > Utah",https://www.mountainproject.com/route/118035965/30,3.3,-1,Sport,5.10a,6,400,40.44548,-111.69298
"Community Effort","Fucoidal Quartzite > Logan Canyon > Cache Valley > Northern Wasatch > Wasatch Range > Utah",https://www.mountainproject.com/route/105796338/community-effort,2.3,-1,Sport,5.10a,1,70,41.78063,-111.64374
"Walk on the Wide Side","Wall Street > Potash Road > Southeast Utah > Utah",https://www.mountainproject.com/route/105718267/walk-on-the-wide-side,2.8,-1,,5.10a,1,80,38.54668,-109.59959
"Toxic Watermelon","The Pipe Dream > Right Fork > Maple Canyon > Central Utah > Utah",https://www.mountainproject.com/route/105989478/toxic-watermelon,2.2,-1,Sport,5.10a,1,50,39.56569,-111.69639
"Dayglow Abortions","The Melting Mud Wall > East Hellgate > Hellgate Cliffs > Little Cottonwood Canyon > Central Wasatch > Wasatch Range > Utah",https://www.mountainproject.com/route/106020481/dayglow-abortions,2.2,-1,Sport,5.10a,1,50,40.58991,-111.64385
"Stego Slab","Wall Street > Potash Road > Southeast Utah > Utah",https://www.mountainproject.com/route/107461463/stego-slab,2.1,-1,Sport,5.10a,1,35,38.54668,-109.59959
"Vixen Blonde (aka Punch the Clock)","Hard Rock > American Fork Canyon > Southern Wasatch > Wasatch Range > Utah",https://www.mountainproject.com/route/105866263/vixen-blonde-aka-punch-the-clock,2.2,-1,Sport,5.10a,1,55,40.4507,-111.6717
Nosferatu,"Salt Lake Slips > Big Cottonwood Canyon > Central Wasatch > Wasatch Range > Utah",https://www.mountainproject.com/route/106067877/nosferatu,2.1,-1,Sport,5.10a,1,50,40.6226,-111.748
"Walkin' Talkin' Bob","Fin Wall > Indian Creek > Southeast Utah > Utah",https://www.mountainproject.com/route/105718675/walkin-talkin-bob,2.1,-1,Trad,5.10a,1,50,38.10031,-109.57313
Gunsmoke,"The Frontera > Maple Canyon Road > Maple Canyon > Central Utah > Utah",https://www.mountainproject.com/route/108253223/gunsmoke,2.9,-1,Sport,5.10a,1,60,39.5551,-111.6795
"Sweet Meats","2nd Meat Wall > Indian Creek > Southeast Utah > Utah",https://www.mountainproject.com/route/107326469/sweet-meats,2.1,-1,Trad,5.10a,1,50,38.1302,-109.5862
"The Kind","Green Stash Wall > Cecret Lake > Albion Basin > Little Cottonwood Canyon > Central Wasatch > Wasatch Range > Utah",https://www.mountainproject.com/route/105990027/the-kind,2.9,-1,Sport,5.10a,1,99,40.5699,-111.62454
"Pocket City","Goat Gully Wall > East Hellgate > Hellgate Cliffs > Little Cottonwood Canyon > Central Wasatch > Wasatch Range > Utah",https://www.mountainproject.com/route/106025450/pocket-city,2.7,-1,Sport,5.10a,1,45,40.59012,-111.64445
"Bad Case of Gingervitus","The Red Rock > Red Rock > Draper Area Crags > Central Wasatch > Wasatch Range > Utah",https://www.mountainproject.com/route/107104200/bad-case-of-gingervitus,2.3,-1,"Sport, TR",5.10a,1,50,40.48757,-111.85656
Cyclops,"Sunny Side > Black Rocks > Saint George > Southwest Utah > Utah",https://www.mountainproject.com/route/105787989/cyclops,2.2,-1,Sport,5.10a,1,35,37.155,-113.6073
"Chief Salad","Chief Wall > Ruth Lake > Uinta Mountains > Northeast Utah > Utah",https://www.mountainproject.com/route/109475359/chief-salad,2.8,-1,Sport,5.10a,1,45,40.7313,-110.87607
"Can't Say","The Dry Wall > Echo Canyon > Wasatch Back > Wasatch Range > Utah",https://www.mountainproject.com/route/107844833/cant-say,1.9,-1,Sport,5.10a,1,,41.00293,-111.38901
"R.R. Crossing","PA's Mother > Rock Canyon > Southern Wasatch > Wasatch Range > Utah",https://www.mountainproject.com/route/105975588/rr-crossing,2.7,-1,Sport,5.10a,1,65,40.2656,-111.6204
"Caging the Zealot","Prophesy Wall > Saint George > Southwest Utah > Utah",https://www.mountainproject.com/route/106065711/caging-the-zealot,2.7,-1,Sport,5.10a,2,200,37.2939,-113.6932
"Black Hole","Division Wall > American Fork Canyon > Southern Wasatch > Wasatch Range > Utah",https://www.mountainproject.com/route/105741698/black-hole,1.9,-1,Sport,5.10a,1,60,40.4503,-111.668
"Mini Skirt","Wall Street > Potash Road > Southeast Utah > Utah",https://www.mountainproject.com/route/108039039/mini-skirt,2.3,-1,Sport,5.10a,1,65,38.54668,-109.59959
"Red Light District","S-Curve - Lower > S-Curves > Big Cottonwood Canyon > Central Wasatch > Wasatch Range > Utah",https://www.mountainproject.com/route/105739919/red-light-district,1.9,-1,Sport,5.10a,1,70,40.63387,-111.72201
"Kermit's Direct Start","Kermits Wall > Little Cottonwood Canyon > Central Wasatch > Wasatch Range > Utah",https://www.mountainproject.com/route/105741443/kermits-direct-start,2.9,-1,"Trad, TR","5.10a R",1,80,40.5738,-111.7549
"Little Kahuna","Schoolroom Area > Maple Canyon Road > Maple Canyon > Central Utah > Utah",https://www.mountainproject.com/route/107755695/little-kahuna,2.1,-1,Sport,5.10a,1,30,39.5565,-111.6858
"Solar Flare","South-Facing Wall > The Hinterlands > Southern Wasatch > Wasatch Range > Utah",https://www.mountainproject.com/route/110137569/solar-flare,3.1,-1,Sport,5.10a,1,60,40.27488,-111.62795
"Buddha Belly","Zen Garden > Right Fork > Maple Canyon > Central Utah > Utah",https://www.mountainproject.com/route/105857292/buddha-belly,1.8,-1,Sport,5.10a,1,40,39.5632,-111.6908
"Social Realism","Tower Two > Hellgate Cliffs > Little Cottonwood Canyon > Central Wasatch > Wasatch Range > Utah",https://www.mountainproject.com/route/105841535/social-realism,2.9,-1,Trad,5.10a,1,80,40.59036,-111.64841
Ananab,"Wall Street > Potash Road > Southeast Utah > Utah",https://www.mountainproject.com/route/113957710/ananab,2.4,-1,Sport,5.10a,1,45,38.54668,-109.59959
"Purple Pumper","Purple Wall > Maybird Slide Area > Little Cottonwood Canyon > Central Wasatch > Wasatch Range > Utah",https://www.mountainproject.com/route/105985721/purple-pumper,2.6,-1,Sport,5.10a,1,50,40.5752,-111.7082
Psychostematic,"Psychobabble Wall > Storm Mountain Picnic Area > Big Cottonwood Canyon > Central Wasatch > Wasatch Range > Utah",https://www.mountainproject.com/route/105740672/psychostematic,2.7,-1,Trad,5.10a,1,80,40.6262,-111.7461
"Chief Sick-ee-Gnar","Chief Wall > Ruth Lake > Uinta Mountains > Northeast Utah > Utah",https://www.mountainproject.com/route/109475403/chief-sick-ee-gnar,2.8,-1,Sport,5.10a,1,40,40.7313,-110.87607
"Involuntary Release","Narcolepsy Area > Big Cottonwood Canyon > Central Wasatch > Wasatch Range > Utah",https://www.mountainproject.com/route/105740894/involuntary-release,2.6,-1,"Trad, TR",5.10a,1,80,40.6214,-111.7472
"Dirty Harry","Clint Eastwood Wall > Bear Hollow > Echo Canyon > Wasatch Back > Wasatch Range > Utah",https://www.mountainproject.com/route/110344158/dirty-harry,2.5,-1,"Sport, TR",5.10a,1,60,41.00109,-111.39143
"A Rose is a Rose","Black Rose > Rock Canyon > Southern Wasatch > Wasatch Range > Utah",https://www.mountainproject.com/route/105742061/a-rose-is-a-rose,2.7,-1,"Trad, TR",5.10a,1,50,40.2652,-111.6237
"Rezin Scraper","Tower One > Hellgate Cliffs > Little Cottonwood Canyon > Central Wasatch > Wasatch Range > Utah",https://www.mountainproject.com/route/106001526/rezin-scraper,2.5,-1,Sport,5.10a,1,100,40.59015,-111.64812
"What's New Pussycat?","Sand Dunes > Island In The Sky > Snow Canyon State Park > Saint George > Southwest Utah > Utah",https://www.mountainproject.com/route/106108969/whats-new-pussycat,2.9,-1,Sport,5.10a,2,160,37.19133,-113.64333
"Tooele Tower","Eagle Crag > Zion National Park > Southwest Utah > Utah",https://www.mountainproject.com/route/105976912/tooele-tower,3.1,-1,Trad,5.10a,3,,37.12895,-113.00859
"No Recess","Red Rock Wall > Big Cottonwood Canyon > Central Wasatch > Wasatch Range > Utah",https://www.mountainproject.com/route/106062161/no-recess,3.2,-1,Sport,5.10a,1,150,40.65369,-111.6527
"Jack in the Wood","West Wall > Maple Corridor > Maple Canyon Road > Maple Canyon > Central Utah > Utah",https://www.mountainproject.com/route/105741533/jack-in-the-wood,2.3,-1,Sport,5.10a,1,40,39.5555,-111.68289
"Devils Advocate on Crack","Melting Mud West > East Hellgate > Hellgate Cliffs > Little Cottonwood Canyon > Central Wasatch > Wasatch Range > Utah",https://www.mountainproject.com/route/106233315/devils-advocate-on-crack,2.7,-1,"Sport, Alpine",5.10a,1,105,40.59001,-111.64447
Resolve,"Black and Tan > Woodbury Road Crags > Utah Hills > Saint George > Southwest Utah > Utah",https://www.mountainproject.com/route/106685018/resolve,2.6,-1,Sport,5.10a,1,105,37.0175,-113.8518
"Fret Arête","Brighton's Frighton Wall > Brighton Area > Big Cottonwood Canyon > Central Wasatch > Wasatch Range > Utah",https://www.mountainproject.com/route/107700397/fret-arete,2.9,-1,Sport,5.10a,1,60,40.59312,-111.58863
"Reach For The Sky","Anti-Gravity Rock > Maple Canyon Road > Maple Canyon > Central Utah > Utah",https://www.mountainproject.com/route/106473434/reach-for-the-sky,2.1,-1,"Sport, TR",5.10a,1,40,39.5552,-111.6723
"Two Stroke Bugaboo","Roadside Crag > Echo Canyon > Wasatch Back > Wasatch Range > Utah",https://www.mountainproject.com/route/110235322/two-stroke-bugaboo,2.6,-1,Sport,5.10a,1,40,41.00686,-111.3826
"The Wine Drip","Purple Wall > Maybird Slide Area > Little Cottonwood Canyon > Central Wasatch > Wasatch Range > Utah",https://www.mountainproject.com/route/105984609/the-wine-drip,2.3,-1,Sport,5.10a,1,35,40.5752,-111.7082
"Ad Lib","The Dead Snag > Big Cottonwood Canyon > Central Wasatch > Wasatch Range > Utah",https://www.mountainproject.com/route/110304401/ad-lib,2.7,-1,Trad,5.10a,1,55,40.62082,-111.74466
"Dancing With Feral Debutantes","Bad Bananas > Rock Canyon > Southern Wasatch > Wasatch Range > Utah",https://www.mountainproject.com/route/106307318/dancing-with-feral-debutantes,2.9,-1,Sport,5.10a,3,315,40.2666,-111.6263
"Unknown 5.10a","Roadside Crag > Echo Canyon > Wasatch Back > Wasatch Range > Utah",https://www.mountainproject.com/route/110878994/unknown-510a,2.5,-1,"Sport, TR",5.10a,1,50,41.00686,-111.3826
"White Chocolate","Orangutan Wall > Left Fork > Maple Canyon > Central Utah > Utah",https://www.mountainproject.com/route/105855666/white-chocolate,2.1,-1,Sport,5.10a,1,90,39.55474,-111.68811
"Coco's Lichen It","Lower Jungle > Jungle, on the Aquarius Plateau > South Central Utah > Utah",https://www.mountainproject.com/route/106495129/cocos-lichen-it,2.9,-1,"Trad, Alpine",5.10a,1,60,37.7503,-111.8708
K-1,"Kelly's Rock > Woodbury Road Crags > Utah Hills > Saint George > Southwest Utah > Utah",https://www.mountainproject.com/route/107209273/k-1,2.6,-1,Sport,5.10a,1,40,37.0183,-113.8498
"Scatterbrain (AKA Final Hurrah)","Mullein Land > Logan Canyon > Cache Valley > Northern Wasatch > Wasatch Range > Utah",https://www.mountainproject.com/route/107177618/scatterbrain-aka-final-hurrah,2.8,-1,Sport,5.10a,1,70,41.76825,-111.66486
"Eye of the Needle","Eye of the Needle Wall > Marjum Canyon > House Range > West Desert > Utah",https://www.mountainproject.com/route/107445729/eye-of-the-needle,3.5,-1,Sport,5.10a,3,200,39.2442,-113.4052
Interstellar,"Ramp Routes > The Schoolroom > Ogden > Northern Wasatch > Wasatch Range > Utah",https://www.mountainproject.com/route/105804436/interstellar,2.4,-1,Sport,5.10a,1,60,41.2248,-111.92513
"Sunrise Buttress","Sunrise Buttress > Crawdad Canyon / Veyo > Saint George > Southwest Utah > Utah",https://www.mountainproject.com/route/106390601/sunrise-buttress,3.1,-1,Sport,5.10a,1,50,37.33576,-113.68767
"Unknown 5.10a","Hard Rock > American Fork Canyon > Southern Wasatch > Wasatch Range > Utah",https://www.mountainproject.com/route/106015991/unknown-510a,2.5,-1,Sport,5.10a,1,90,40.4507,-111.6717
"Dream Realized","Fucoidal Quartzite > Logan Canyon > Cache Valley > Northern Wasatch > Wasatch Range > Utah",https://www.mountainproject.com/route/107330285/dream-realized,2.6,-1,Sport,5.10a,1,90,41.78063,-111.64374
"Blah, Blah, Blah","Stone Garden > Uinta Mountains > Northeast Utah > Utah",https://www.mountainproject.com/route/105845997/blah-blah-blah,2.1,-1,Sport,5.10a,1,75,40.74985,-110.87912
Calypso,"Baby Rubicon > Crawdad Canyon / Veyo > Saint George > Southwest Utah > Utah",https://www.mountainproject.com/route/105824393/calypso,2.8,-1,Sport,5.10a,1,50,37.33604,-113.68702
Butterface,"The Appendage > Rock Canyon > Southern Wasatch > Wasatch Range > Utah",https://www.mountainproject.com/route/106156200/butterface,2.0,-1,Sport,5.10a,1,30,40.2661,-111.6208
"Morning Moo's","Low Standard Cave > Maple Canyon Road > Maple Canyon > Central Utah > Utah",https://www.mountainproject.com/route/107129129/morning-moos,2.7,-1,Sport,5.10a,1,75,39.55839,-111.68761
"Unknown 5.9","Hard Rock > American Fork Canyon > Southern Wasatch > Wasatch Range > Utah",https://www.mountainproject.com/route/106015977/unknown-59,2.1,-1,Sport,5.10a,1,70,40.4507,-111.6717
Raindance,"Indian Wall > Island In The Sky > Snow Canyon State Park > Saint George > Southwest Utah > Utah",https://www.mountainproject.com/route/105718564/raindance,2.7,-1,Sport,5.10a,1,90,37.18995,-113.64341
"DuffMan is Thrusting Yes","Simpson Rock > Right Fork > Maple Canyon > Central Utah > Utah",https://www.mountainproject.com/route/106819104/duffman-is-thrusting-yes,2.3,-1,Sport,5.10a,1,70,39.56135,-111.68774
Overlooked,"29th Street > Ogden > Northern Wasatch > Wasatch Range > Utah",https://www.mountainproject.com/route/106725789/overlooked,2.5,-1,"Sport, TR",5.10a,1,35,41.2102,-111.9294
"Angle of Repose","The Millstone > Big Cottonwood Canyon > Central Wasatch > Wasatch Range > Utah",https://www.mountainproject.com/route/105829956/angle-of-repose,2.4,-1,Sport,5.10a,1,60,40.62738,-111.71719
"Once You Go Black","Wall of Colors > Logan Canyon > Cache Valley > Northern Wasatch > Wasatch Range > Utah",https://www.mountainproject.com/route/112334678/once-you-go-black,3.4,-1,Sport,5.10a,1,120,41.80828,-111.63175
"Nubbins Direct","Pentapitch Area > Little Cottonwood Canyon > Central Wasatch > Wasatch Range > Utah",https://www.mountainproject.com/route/105837922/nubbins-direct,2.8,-1,Trad,"5.10a PG13",1,80,40.56859,-111.73767
"Oh Yeah","The Blank Cave > Sunset Alley > Beaver Dam Road > Saint George > Southwest Utah > Utah",https://www.mountainproject.com/route/112565066/oh-yeah,2.4,-1,Sport,5.10a,1,70,37.13401,-113.84451
"The Right Stuff","Milky Way Wall > Galaxy Area > Rock Canyon > Southern Wasatch > Wasatch Range > Utah",https://www.mountainproject.com/route/106202793/the-right-stuff,2.9,-1,Sport,5.10a,1,,40.26569,-111.61284
"Evening Falls","Great White Icicle Area > Little Cottonwood Canyon > Central Wasatch > Wasatch Range > Utah",https://www.mountainproject.com/route/105741731/evening-falls,2.7,-1,Trad,5.10a,1,180,40.56883,-111.74168
"Behind The Beige Vinyl Curtain","The Solstice > Woodbury Road Crags > Utah Hills > Saint George > Southwest Utah > Utah",https://www.mountainproject.com/route/106359413/behind-the-beige-vinyl-curtain,2.8,-1,Sport,5.10a,1,110,37.0286,-113.864
"Slow Dance with Liberty","Mosquito Wall > Uinta Mountains > Northeast Utah > Utah",https://www.mountainproject.com/route/106859190/slow-dance-with-liberty,2.6,-1,Sport,5.10a,1,70,40.75439,-110.87989
"Michael Fitzpatrick","EFS Wall > Box Canyon > Maple Canyon Road > Maple Canyon > Central Utah > Utah",https://www.mountainproject.com/route/114307522/michael-fitzpatrick,2.4,-1,Sport,5.10a,1,30,39.55538,-111.67556
Jubal,"Eavesdown Docks > Serenity > American Fork Canyon > Southern Wasatch > Wasatch Range > Utah",https://www.mountainproject.com/route/108326311/jubal,2.1,-1,Sport,5.10a,1,35,40.45095,-111.66614
"The Sands of Time","Mule Hollow Wall > Big Cottonwood Canyon > Central Wasatch > Wasatch Range > Utah",https://www.mountainproject.com/route/106563428/the-sands-of-time,3.2,-1,Sport,5.10a,1,90,40.63207,-111.75115
"I Don't Want a Pickle","Rock Island > Maple Canyon Road > Maple Canyon > Central Utah > Utah",https://www.mountainproject.com/route/106277254/i-dont-want-a-pickle,2.3,-1,Sport,5.10a,1,40,39.5596,-111.6876
Lightfoot,"Clint Eastwood Wall > Bear Hollow > Echo Canyon > Wasatch Back > Wasatch Range > Utah",https://www.mountainproject.com/route/109573744/lightfoot,2.2,-1,Sport,5.10a,1,50,41.00109,-111.39143
"Italian Route","Vagination Alcove > Lambs Knoll > Saint George > Southwest Utah > Utah",https://www.mountainproject.com/route/112572894/italian-route,2.7,-1,Sport,5.10a,1,60,37.30823,-113.11005
"Lying Crack","Powder Ridge Wall > Big Cottonwood Canyon > Central Wasatch > Wasatch Range > Utah",https://www.mountainproject.com/route/105945925/lying-crack,2.3,-1,"Sport, TR",5.10a,1,50,40.6152,-111.78
Makhpiya-Luta,"Chief Wall > Ruth Lake > Uinta Mountains > Northeast Utah > Utah",https://www.mountainproject.com/route/106580473/makhpiya-luta,2.4,-1,Sport,5.10a,1,40,40.7313,-110.87607
Hummer,"Rodent Ranch > Logan Canyon > Cache Valley > Northern Wasatch > Wasatch Range > Utah",https://www.mountainproject.com/route/106813919/hummer,2.4,-1,Sport,5.10a,1,120,41.80592,-111.63168
"Don't Question Me or I'll Kill You Right Now","Assassin Wall > Ruth Lake > Uinta Mountains > Northeast Utah > Utah",https://www.mountainproject.com/route/106011987/dont-question-me-or-ill-kill-you-right-now,2.4,-1,Sport,5.10a,1,70,40.73063,-110.87969
"Minimum Security","Penitentiary Wall > Big Cottonwood Canyon > Central Wasatch > Wasatch Range > Utah",https://www.mountainproject.com/route/105740861/minimum-security,2.9,-1,"Trad, TR","5.10a R",1,90,40.6221,-111.7634
"Tale of the Scorpion","The Streaked Wall > Zion National Park > Southwest Utah > Utah",https://www.mountainproject.com/route/105986438/tale-of-the-scorpion,4.0,-1,Aid,"5.10a A3+",9,,37.22471,-112.98535
"Jungle Boogie","Lower Jungle > Jungle, on the Aquarius Plateau > South Central Utah > Utah",https://www.mountainproject.com/route/107292939/jungle-boogie,2.6,-1,"Sport, Alpine",5.10a,1,65,37.7503,-111.8708
"Big Man On Campus","Higher Education Ridge, West Face > Gully of Higher Education Area > Big Cottonwood Canyon > Central Wasatch > Wasatch Range > Utah",https://www.mountainproject.com/route/105740306/big-man-on-campus,1.9,-1,Sport,5.10a,1,40,40.63012,-111.74032
Sputnik,"Lunar Wall > White Rocks > West Desert > Utah",https://www.mountainproject.com/route/110985468/sputnik,2.6,-1,Sport,5.10a,1,65,40.3244,-112.90279
"Bumbling Gumbies","The Diamond > Ogden Canyon > Ogden > Northern Wasatch > Wasatch Range > Utah",https://www.mountainproject.com/route/105795419/bumbling-gumbies,2.3,-1,Sport,5.10a,1,30,41.23676,-111.91825
Grasshopper,"Hop Garden > Sunset Alley > Beaver Dam Road > Saint George > Southwest Utah > Utah",https://www.mountainproject.com/route/110586713/grasshopper,2.5,-1,Sport,5.10a,1,65,37.13215,-113.8418
"Light of the World","Wall Street > Potash Road > Southeast Utah > Utah",https://www.mountainproject.com/route/117566372/light-of-the-world,2.6,-1,"Sport, TR",5.10a,1,90,38.54668,-109.59959
"Agree to Disagree","The Pass Crag > Bald Mountain > Uinta Mountains > Northeast Utah > Utah",https://www.mountainproject.com/route/119540257/agree-to-disagree,3.5,-1,"Sport, Alpine",5.10a,1,105,40.69303,-110.90323
"Lichen Life","The Diamond > Ogden Canyon > Ogden > Northern Wasatch > Wasatch Range > Utah",https://www.mountainproject.com/route/105795422/lichen-life,2.2,-1,Sport,5.10a,1,,41.23676,-111.91825
"Lifesaver 360","Tetas De Cabre > Pine Valley > Saint George > Southwest Utah > Utah",https://www.mountainproject.com/route/107235012/lifesaver-360,2.9,-1,Sport,5.10a,1,80,37.40808,-113.53567
"Two-Nut Muffin","Bolt Slab > Rock Canyon > Southern Wasatch > Wasatch Range > Utah",https://www.mountainproject.com/route/106149784/two-nut-muffin,3.4,-1,Trad,5.10a,1,70,40.2654,-111.6221
"Precious Lost","Coal Pit Buttress > Little Cottonwood Canyon > Central Wasatch > Wasatch Range > Utah",https://www.mountainproject.com/route/105741812/precious-lost,2.0,-1,Trad,5.10a,7,650,40.5685,-111.73617
"False Premonitions","Capitol Gorge > Capitol Reef > South Central Utah > Utah",https://www.mountainproject.com/route/106280063/false-premonitions,3.5,-1,Trad,5.10a,1,90,38.21115,-111.18541
"Mister Cruel","Mullein Land > Logan Canyon > Cache Valley > Northern Wasatch > Wasatch Range > Utah",https://www.mountainproject.com/route/107174314/mister-cruel,2.4,-1,Sport,5.10a,1,115,41.76825,-111.66486
Colliewobbles,"The Breakfast Nook > Snow Canyon State Park > Saint George > Southwest Utah > Utah",https://www.mountainproject.com/route/110564236/colliewobbles,2.9,-1,Sport,5.10a,1,70,37.19624,-113.64184
"Going Under","Short Stuff Crag > Zion National Park > Southwest Utah > Utah",https://www.mountainproject.com/route/120293212/going-under,4.0,-1,Trad,5.10a,1,,37.21776,-112.9764
"Kat's against humanity","Kanab Creek Crag > Kanab Area > Southwest Utah > Utah",https://www.mountainproject.com/route/111393747/kats-against-humanity,4.0,-1,"Trad, TR","5.10a PG13",1,90,37.2721,-112.52108
unknown,"Big Cliff > Causey Reservoir Deep Water Soloing > Causey Reservoir > Northern Wasatch > Wasatch Range > Utah",https://www.mountainproject.com/route/119750493/unknown,3.5,-1,"Trad, TR, Alpine","5.10a R",1,,41.29685,-111.58258
"Nerve Damage","9th Street > Ogden > Northern Wasatch > Wasatch Range > Utah",https://www.mountainproject.com/route/116618062/nerve-damage,2.6,-1,"Trad, TR",5.10a,1,,41.24972,-111.93404
Chillax,"Layer Cake > Rock Canyon > Southern Wasatch > Wasatch Range > Utah",https://www.mountainproject.com/route/106146349/chillax,2.1,-1,Sport,5.10a,1,80,40.2667,-111.6245
"Send For The Man","AC/DC Wall > Rock Canyon > Southern Wasatch > Wasatch Range > Utah",https://www.mountainproject.com/route/106131396/send-for-the-man,2.6,-1,Sport,5.10a,2,140,40.267,-111.6246
"Raspberry Ripple","East Face > Challenge Buttress > Big Cottonwood Canyon > Central Wasatch > Wasatch Range > Utah",https://www.mountainproject.com/route/105741992/raspberry-ripple,2.0,-1,Trad,5.10a,1,70,40.62202,-111.74528
"Willie the Pimp","The Starting Block > The Overlook > Brian Head > Southwest Utah > Utah",https://www.mountainproject.com/route/105854512/willie-the-pimp,2.6,-1,"Sport, Alpine",5.10a,1,50,37.7154,-112.7747
"Fist Full of Cobbles","Hourglass Canyon > Maple Canyon Road > Maple Canyon > Central Utah > Utah",https://www.mountainproject.com/route/112072457/fist-full-of-cobbles,2.7,-1,Sport,5.10a,1,120,39.55568,-111.67331
"The Fornification of Kings","The Solstice > Woodbury Road Crags > Utah Hills > Saint George > Southwest Utah > Utah",https://www.mountainproject.com/route/106624264/the-fornification-of-kings,2.5,-1,Sport,5.10a,1,85,37.0286,-113.864
"Pig Lloyd","Bluff Street Cracks > Saint George > Southwest Utah > Utah",https://www.mountainproject.com/route/106667945/pig-lloyd,2.3,-1,Trad,5.10a,1,60,37.1215,-113.5932
"Special Sauce","South Fork > South Fork of Taylor > Kolob Canyon > Zion National Park > Southwest Utah > Utah",https://www.mountainproject.com/route/116778347/special-sauce,3.8,-1,"Trad, Aid","5.10a A0",4,300,37.45082,-113.16139
"Hell's Bells","AC/DC Wall > Rock Canyon > Southern Wasatch > Wasatch Range > Utah",https://www.mountainproject.com/route/106222219/hells-bells,2.5,-1,Sport,5.10a,1,50,40.267,-111.6246
Anti-Gravity,"Milky Way Wall > Galaxy Area > Rock Canyon > Southern Wasatch > Wasatch Range > Utah",https://www.mountainproject.com/route/106202771/anti-gravity,2.8,-1,Sport,5.10a,1,,40.26569,-111.61284
"Frat Boy","Higher Education Ridge, West Face > Gully of Higher Education Area > Big Cottonwood Canyon > Central Wasatch > Wasatch Range > Utah",https://www.mountainproject.com/route/113244524/frat-boy,2.2,-1,Sport,5.10a,1,80,40.63012,-111.74032
"After Life","The Watchtower > CLOSED - The Soul Asylum > Utah Hills > Saint George > Southwest Utah > Utah",https://www.mountainproject.com/route/106380838/after-life,2.7,-1,Sport,5.10a,1,60,37.07398,-113.81909
"Flim Flam","Tetas De Cabre > Pine Valley > Saint George > Southwest Utah > Utah",https://www.mountainproject.com/route/107239544/flim-flam,2.9,-1,Sport,5.10a,1,80,37.40808,-113.53567
"Nobody's Darlings","Second Tier > Hermit Canyon > Marjum Canyon > House Range > West Desert > Utah",https://www.mountainproject.com/route/106760597/nobodys-darlings,3.4,-1,Sport,5.10a,2,215,39.24648,-113.40296
Dope,"Ganja Wall > Lower Dakota Crag > La Sal Mountains > Southeast Utah > Utah",https://www.mountainproject.com/route/110794729/dope,2.7,-1,Sport,5.10a,1,,38.47144,-109.27882
Smitten,"Date Wall > Logan Canyon > Cache Valley > Northern Wasatch > Wasatch Range > Utah",https://www.mountainproject.com/route/106373240/smitten,2.0,-1,Sport,5.10a,1,40,41.7428,-111.7827
Moonshine,"North Face > Quartermoon Tower > Ibex > West Desert > Utah",https://www.mountainproject.com/route/106592649/moonshine,2.7,-1,Sport,5.10a,1,100,38.9906,-113.3896
"Narrow Beginnings","North Narrows > Upper Narrows > Narrows > South Willow Canyon > Stansbury Mountains > West Desert > Utah",https://www.mountainproject.com/route/108172737/narrow-beginnings,1.8,-1,Sport,5.10a,1,50,40.4916,-112.59539
Xanadu,"South Fork > South Fork of Taylor > Kolob Canyon > Zion National Park > Southwest Utah > Utah",https://www.mountainproject.com/route/108620113/xanadu,3.7,-1,"Trad, Aid","5.10a A3+",9,900,37.45082,-113.16139
"The Fools Progress","Dark West Face > Back of Beyond > Big Cottonwood Canyon > Central Wasatch > Wasatch Range > Utah",https://www.mountainproject.com/route/107696757/the-fools-progress,3.1,-1,Sport,5.10a,1,180,40.61709,-111.75679
"Red Cloud","The Watchtower > CLOSED - The Soul Asylum > Utah Hills > Saint George > Southwest Utah > Utah",https://www.mountainproject.com/route/106943984/red-cloud,2.7,-1,Sport,5.10a,1,160,37.07398,-113.81909
"Chief Mo'o-wai (Shaking Hand)","Chief Wall > Ruth Lake > Uinta Mountains > Northeast Utah > Utah",https://www.mountainproject.com/route/109475288/chief-moo-wai-shaking-hand,2.1,-1,Sport,5.10a,1,45,40.7313,-110.87607
"Beer Mule","Iron Hayden Wall > Hayden Peak > Uinta Mountains > Northeast Utah > Utah",https://www.mountainproject.com/route/108202691/beer-mule,2.6,-1,"Trad, Alpine",5.10a,1,100,40.73238,-110.84964
"The Kind","Isolated Climbs > Kane Springs Canyon > Southeast Utah > Utah",https://www.mountainproject.com/route/105718417/the-kind,3.7,-1,Trad,5.10a,1,80,38.5232,-109.6024
"Zippy Zebra","Zippy Zebra Wall > Arches National Park > Southeast Utah > Utah",https://www.mountainproject.com/route/105956533/zippy-zebra,3.3,-1,Trad,5.10a,1,120,38.62102,-109.60457
"Sunhat Memo","Utopia > Logan Canyon > Cache Valley > Northern Wasatch > Wasatch Range > Utah",https://www.mountainproject.com/route/109518614/sunhat-memo,3.3,-1,Sport,5.10a,1,85,41.81216,-111.62677
"Time Will Tell","Trenchtown > Upper Dakota Crag > La Sal Mountains > Southeast Utah > Utah",https://www.mountainproject.com/route/110794201/time-will-tell,2.9,-1,Sport,5.10a,1,80,38.47028,-109.27448
"Clay Pigeons","Shotgun Alley > Saint George > Southwest Utah > Utah",https://www.mountainproject.com/route/106818159/clay-pigeons,2.6,-1,"Sport, TR",5.10a,1,45,37.1709,-113.71399
"Domestic Tension","The Watchtower > American Fork Canyon > Southern Wasatch > Wasatch Range > Utah",https://www.mountainproject.com/route/106008038/domestic-tension,1.9,-1,Sport,5.10a,1,60,40.4462,-111.6958
Intimidator,"Layer Cake > Rock Canyon > Southern Wasatch > Wasatch Range > Utah",https://www.mountainproject.com/route/106149336/intimidator,2.6,-1,Sport,5.10a,2,70,40.2667,-111.6245
"Catch 22","The Solstice > Woodbury Road Crags > Utah Hills > Saint George > Southwest Utah > Utah",https://www.mountainproject.com/route/106624273/catch-22,2.3,-1,Sport,5.10a,1,85,37.0286,-113.864
"Stevens Nielson Dihedral","Pictograph Panel > Upper Buckhorn > Buckhorn Wash > San Rafael Swell - North > San Rafael Swell > South Central Utah > Utah",https://www.mountainproject.com/route/116844802/stevens-nielson-dihedral,2.5,-1,Trad,5.10a,1,40,39.12318,-110.69575
"Keystone Arete","Sunny Side > Black Rocks > Saint George > Southwest Utah > Utah",https://www.mountainproject.com/route/106650022/keystone-arete,2.2,-1,Sport,5.10a,1,40,37.155,-113.6073
"Scorpios Make Great Lovers","Scorpion Slab > South Corridor > Ibex > West Desert > Utah",https://www.mountainproject.com/route/109847482/scorpios-make-great-lovers,2.9,-1,"Sport, TR",5.10a,1,85,38.99848,-113.38091
"Hard Cranking Dude","The Rubicon > Crawdad Canyon / Veyo > Saint George > Southwest Utah > Utah",https://www.mountainproject.com/route/107596226/hard-cranking-dude,3.1,-1,Sport,5.10a,1,55,37.33636,-113.68693
Hooked,"Date Wall > Logan Canyon > Cache Valley > Northern Wasatch > Wasatch Range > Utah",https://www.mountainproject.com/route/106373248/hooked,2.0,-1,Sport,5.10a,1,40,41.7428,-111.7827
"Mosquito Coast","Mosquito Wall > Uinta Mountains > Northeast Utah > Utah",https://www.mountainproject.com/route/106886391/mosquito-coast,2.6,-1,Sport,5.10a,1,55,40.75439,-110.87989
"Baked Potato","Shinobe > Parowan Gap (all crags) > Parowan > Southwest Utah > Utah",https://www.mountainproject.com/route/106570653/baked-potato,2.4,-1,Sport,5.10a,1,50,37.89782,-112.94882
"Hang 'em High","Hourglass Canyon > Maple Canyon Road > Maple Canyon > Central Utah > Utah",https://www.mountainproject.com/route/112072463/hang-em-high,2.4,-1,Sport,5.10a,1,120,39.55568,-111.67331
"10 TR","Ice Cream Parlor > Kane Springs Canyon > Southeast Utah > Utah",https://www.mountainproject.com/route/107606540/10-tr,2.0,-1,"Sport, TR",5.10a,1,50,38.5092,-109.5995
Habudabi,"Walls of Liberation > Right Fork > Maple Canyon > Central Utah > Utah",https://www.mountainproject.com/route/107679972/habudabi,2.2,-1,Sport,5.10a,1,30,39.56175,-111.6876
Glenlivet,"S-Curve - Upper Wall > S-Curves > Big Cottonwood Canyon > Central Wasatch > Wasatch Range > Utah",https://www.mountainproject.com/route/106144655/glenlivet,2.6,-1,Trad,5.10a,1,150,40.63471,-111.72262
Powerslave,"Iron Hayden Wall > Hayden Peak > Uinta Mountains > Northeast Utah > Utah",https://www.mountainproject.com/route/114938136/powerslave,3.3,-1,"Sport, Alpine",5.10a,1,100,40.73238,-110.84964
Evenflow,"The Confluence > Mill Creek > La Sal Mountains > Southeast Utah > Utah",https://www.mountainproject.com/route/111958968/evenflow,3.3,-1,Sport,5.10a,1,115,38.49515,-109.31586
"Barbie Twins","Visionary Wall > Tank Canyon > American Fork Canyon > Southern Wasatch > Wasatch Range > Utah",https://www.mountainproject.com/route/106492437/barbie-twins,2.1,-1,Sport,5.10a,1,35,40.45039,-111.68789
"Soul Rebel","The Pass Crag > Bald Mountain > Uinta Mountains > Northeast Utah > Utah",https://www.mountainproject.com/route/119540945/soul-rebel,3.2,-1,"Trad, Alpine",5.10a,1,110,40.69303,-110.90323
"Soak It Insideher","Wall Of Tiers > Uinta Mountains > Northeast Utah > Utah",https://www.mountainproject.com/route/107252202/soak-it-insideher,3.1,-1,Trad,5.10a,1,,40.67989,-110.88505
Keres,"Shoshone Wall > Nuwuvi Ledge > Central Utah > Utah",https://www.mountainproject.com/route/114437121/keres,3.5,-1,"Sport, TR",5.10a,1,100,38.85964,-111.85971
"Nurse Ratched","Top Rope Boulder > North Cukoo's > 5. The Cukoo's Nest > A. 1st Roadside Pullout > 1. Roadside Boulders > Big Water Boulders > Glen Canyon > South Central Utah > Utah",https://www.mountainproject.com/route/112231223/nurse-ratched,3.5,-1,TR,5.10a,1,30,37.06871,-111.60854
Detoured,"Hellgate Condos > Hellgate Cliffs > Little Cottonwood Canyon > Central Wasatch > Wasatch Range > Utah",https://www.mountainproject.com/route/108188041/detoured,2.1,-1,Sport,5.10a,1,55,40.58831,-111.6503
Chossalicious!,"This is the Choss. . . A Choss Climbing Park > Emigration Canyon > Central Wasatch > Wasatch Range > Utah",https://www.mountainproject.com/route/107249426/chossalicious,2.1,-1,Sport,5.10a,1,65,40.7536,-111.7962
"Maguilla Gorilla","Upper Jungle > Jungle, on the Aquarius Plateau > South Central Utah > Utah",https://www.mountainproject.com/route/106822863/maguilla-gorilla,2.7,-1,"Sport, Alpine",5.10a,1,80,37.7499,-111.8726
"Mother Hen","The Sunny Side > Mill Creek > La Sal Mountains > Southeast Utah > Utah",https://www.mountainproject.com/route/106280366/mother-hen,2.2,-1,Sport,5.10a,1,60,38.49649,-109.31053
"Upper Cut","Hoss Garden > Big Cottonwood Canyon > Central Wasatch > Wasatch Range > Utah",https://www.mountainproject.com/route/113286339/upper-cut,2.5,-1,Sport,5.10a,1,60,40.63458,-111.70453
"A Cloud In The Sky","The Clamshell > East Hellgate > Hellgate Cliffs > Little Cottonwood Canyon > Central Wasatch > Wasatch Range > Utah",https://www.mountainproject.com/route/107666139/a-cloud-in-the-sky,2.7,-1,Sport,5.10a,1,100,40.59043,-111.64567
"If You Wanna Rock N' Roll","AC/DC Wall > Rock Canyon > Southern Wasatch > Wasatch Range > Utah",https://www.mountainproject.com/route/110304434/if-you-wanna-rock-n-roll,2.9,-1,Sport,5.10a,1,90,40.267,-111.6246
"Margin for Air","Margin for Air Wall and Environs > Big Cottonwood Canyon > Central Wasatch > Wasatch Range > Utah",https://www.mountainproject.com/route/105872673/margin-for-air,3.1,-1,Trad,5.10a,1,150,40.6231,-111.774
"Twinkie's Hatchet","Brighton's Frighton Wall > Brighton Area > Big Cottonwood Canyon > Central Wasatch > Wasatch Range > Utah",https://www.mountainproject.com/route/107727123/twinkies-hatchet,2.8,-1,Trad,5.10a,1,60,40.59312,-111.58863
"Pipe Dreams","The Pipelines > Crawdad Canyon / Veyo > Saint George > Southwest Utah > Utah",https://www.mountainproject.com/route/108349750/pipe-dreams,2.7,-1,Sport,5.10a,1,40,37.33362,-113.69073
"Big Toasty Buns","Fast Food Joint > Maple Canyon Road > Maple Canyon > Central Utah > Utah",https://www.mountainproject.com/route/112781398/big-toasty-buns,2.4,-1,Sport,5.10a,1,60,39.55479,-111.67671
"Primate Primer","Upper Jungle > Jungle, on the Aquarius Plateau > South Central Utah > Utah",https://www.mountainproject.com/route/106494811/primate-primer,2.8,-1,"Trad, Alpine",5.10a,1,70,37.7499,-111.8726
"Two to Tango","Bolt Slab > Rock Canyon > Southern Wasatch > Wasatch Range > Utah",https://www.mountainproject.com/route/106167193/two-to-tango,3.2,-1,"Trad, TR",5.10a,1,70,40.2654,-111.6221
"Rookie of the Year/An All Star","Training Camp > Rock Canyon > Southern Wasatch > Wasatch Range > Utah",https://www.mountainproject.com/route/106131738/rookie-of-the-yearan-all-star,3.0,-1,Sport,5.10a,2,140,40.2666,-111.6273
"White Men Can't Jam","Slickrock Divide > Capitol Reef > South Central Utah > Utah",https://www.mountainproject.com/route/105968330/white-men-cant-jam,3.3,-1,Trad,5.10a,1,75,38.2326,-111.21669
"Barbarian Horde","Cool Aid Gully > White Rocks > West Desert > Utah",https://www.mountainproject.com/route/109766716/barbarian-horde,2.6,-1,Sport,5.10a,1,80,40.32405,-112.9029
"Two Buck Chuck","First Switchback > Long Canyon > Potash Road > Southeast Utah > Utah",https://www.mountainproject.com/route/121706793/two-buck-chuck,3.2,-1,Trad,5.10a,1,65,38.55038,-109.6855
Spliff,"Ganja Wall > Lower Dakota Crag > La Sal Mountains > Southeast Utah > Utah",https://www.mountainproject.com/route/122703609/spliff,3.2,-1,Sport,5.10a,1,,38.47144,-109.27882
Headliner,"Volkswagon Wall > Spring Canyon > Central Utah > Utah",https://www.mountainproject.com/route/113870387/headliner,3.3,-1,Sport,5.10a,1,45,39.70034,-110.91995
"Adventures of the Two-Day Napkin","Campsite East > Hermit Canyon > Marjum Canyon > House Range > West Desert > Utah",https://www.mountainproject.com/route/107445598/adventures-of-the-two-day-napkin,2.9,-1,Sport,5.10a,1,50,39.24622,-113.40313
"Papa Was a Rolling Cobble","Soul Train Wall > Bear Hollow > Echo Canyon > Wasatch Back > Wasatch Range > Utah",https://www.mountainproject.com/route/115190065/papa-was-a-rolling-cobble,2.7,-1,Sport,5.10a,1,80,41.00084,-111.39254
"Lonely Sinner","Hidden Heavenly Slab > Tanners Gulch > Little Cottonwood Canyon > Central Wasatch > Wasatch Range > Utah",https://www.mountainproject.com/route/106278012/lonely-sinner,2.7,-1,Trad,5.10a,2,400,40.57744,-111.7029
Hard,"The Adjective > Rock Canyon > Southern Wasatch > Wasatch Range > Utah",https://www.mountainproject.com/route/106492475/hard,2.4,-1,Sport,5.10a,1,40,40.2645,-111.612
Cobra,"Cobrazone > Bald Mountain > Uinta Mountains > Northeast Utah > Utah",https://www.mountainproject.com/route/111099703/cobra,2.9,-1,"Sport, Alpine",5.10a,1,200,40.694,-110.90243
"Pork Soda","Ice Cream Parlor > Kane Springs Canyon > Southeast Utah > Utah",https://www.mountainproject.com/route/107606557/pork-soda,3.0,-1,Trad,"5.10a PG13",1,100,38.5092,-109.5995
Prybar,"The Bungalow > Parley's Canyon > Central Wasatch > Wasatch Range > Utah",https://www.mountainproject.com/route/108869316/prybar,2.5,-1,Sport,5.10a,1,45,40.71094,-111.78952
"80 Proof","Tokey Dokey > The Valley of Zion > Stansbury Mountains > West Desert > Utah",https://www.mountainproject.com/route/107876739/80-proof,2.5,-1,Sport,5.10a,1,,40.7389,-112.6404
"Last American Ninja","Kung Fu Theater > Mount Carmel Tunnel > Zion National Park > Southwest Utah > Utah",https://www.mountainproject.com/route/113485635/last-american-ninja,2.8,-1,Trad,5.10a,1,75,37.21267,-112.96644
"Boris Ascends Again","Upper Jungle > Jungle, on the Aquarius Plateau > South Central Utah > Utah",https://www.mountainproject.com/route/106494779/boris-ascends-again,2.3,-1,"Sport, Alpine",5.10a,1,60,37.7499,-111.8726
"High as a Kite","The Pipe Dream > Right Fork > Maple Canyon > Central Utah > Utah",https://www.mountainproject.com/route/119015407/high-as-a-kite,2.5,-1,Sport,5.10a,3,225,39.56569,-111.69639
Euphorbia,"Plumb Line Gully > Little Cottonwood Canyon > Central Wasatch > Wasatch Range > Utah",https://www.mountainproject.com/route/114450092/euphorbia,2.6,-1,Trad,5.10a,1,120,40.57437,-111.75696
"Golden Plates","Hidden Heavenly Slab > Tanners Gulch > Little Cottonwood Canyon > Central Wasatch > Wasatch Range > Utah",https://www.mountainproject.com/route/106294207/golden-plates,2.6,-1,Trad,5.10a,1,100,40.57744,-111.7029
"Sweet Lady J","Cliff Lake > Uinta Mountains > Northeast Utah > Utah",https://www.mountainproject.com/route/119616261/sweet-lady-j,2.9,-1,"Sport, TR",5.10a,1,50,40.6879,-110.9686
Buckshot,"The Matrix > Middle Fork > Maple Canyon > Central Utah > Utah",https://www.mountainproject.com/route/114443879/buckshot,2.0,-1,Sport,5.10a,1,45,39.5572,-111.6916
"Jungle Bungle","The Playpen > Pine Valley > Saint George > Southwest Utah > Utah",https://www.mountainproject.com/route/107229068/jungle-bungle,2.2,-1,Sport,5.10a,1,80,37.4064,-113.53835
"Good Plantains","Bad Bananas > Rock Canyon > Southern Wasatch > Wasatch Range > Utah",https://www.mountainproject.com/route/106312985/good-plantains,2.5,-1,Trad,5.10a,3,325,40.2666,-111.6263
"Scattered Marbles","Zen Wall > Saint George > Southwest Utah > Utah",https://www.mountainproject.com/route/107740157/scattered-marbles,2.3,-1,Sport,5.10a,1,70,37.07013,-113.64737
"The Flake","Fin Wall > Indian Creek > Southeast Utah > Utah",https://www.mountainproject.com/route/113859894/the-flake,1.9,-1,Trad,5.10a,1,40,38.10031,-109.57313
"The Penguin","The Penguin > Big Cottonwood Canyon > Central Wasatch > Wasatch Range > Utah",https://www.mountainproject.com/route/107528649/the-penguin,3.1,-1,Sport,5.10a,1,40,40.63608,-111.7316
"Magic Helmet","The Wasp > Rock Canyon > Southern Wasatch > Wasatch Range > Utah",https://www.mountainproject.com/route/106126318/magic-helmet,2.1,-1,Sport,5.10a,1,50,40.2665,-111.625
"Fools Rush In","April Fools Wall > Lower Buckhorn > Buckhorn Wash > San Rafael Swell - North > San Rafael Swell > South Central Utah > Utah",https://www.mountainproject.com/route/113687640/fools-rush-in,3.0,-1,Trad,5.10a,1,60,39.0951,-110.66093
"Higher Heights","Blob's Your Uncle > The Valley of Zion > Stansbury Mountains > West Desert > Utah",https://www.mountainproject.com/route/111662482/higher-heights,2.7,-1,Sport,5.10a,2,200,40.7403,-112.6394
"Fire A Blaze","Tokey Dokey > The Valley of Zion > Stansbury Mountains > West Desert > Utah",https://www.mountainproject.com/route/111077299/fire-a-blaze,2.7,-1,Sport,5.10a,1,,40.7389,-112.6404
Ozone,"Eco-Terrorist Wall > Maple Canyon Road > Maple Canyon > Central Utah > Utah",https://www.mountainproject.com/route/113598059/ozone,2.6,-1,Sport,5.10a,1,,39.5556,-111.6719
"Rigor Mortis","Tombstone > Lost World  Butte Area > Southeast Utah > Utah",https://www.mountainproject.com/route/105718033/rigor-mortis,2.9,-1,"Trad, Aid","5.10a C2",3,340,38.6852,-109.9169
"Dog Farts","Stinky Stash Wall > Cecret Lake > Albion Basin > Little Cottonwood Canyon > Central Wasatch > Wasatch Range > Utah",https://www.mountainproject.com/route/106001877/dog-farts,2.0,-1,Sport,5.10a,1,35,40.56958,-111.62556
"Mary Jane Unicorn","Schoolroom Area > Maple Canyon Road > Maple Canyon > Central Utah > Utah",https://www.mountainproject.com/route/111118555/mary-jane-unicorn,2.3,-1,Sport,5.10a,1,80,39.5565,-111.6858
"Viewmaster Arête","Buena Vista Wall > Big Cottonwood Canyon > Central Wasatch > Wasatch Range > Utah",https://www.mountainproject.com/route/111994600/viewmaster-arete,2.8,-1,Trad,5.10a,1,160,40.61904,-111.74468
Faceplant,"Graveside Matter Slab > Graveside Matter Wall > Cedar Canyon > Cedar City > Southwest Utah > Utah",https://www.mountainproject.com/route/106266597/faceplant,2.4,-1,Sport,5.10a,1,50,37.61637,-112.92946
"Safety Check","Upper Sector > Disciple Ridge > Big Cottonwood Canyon > Central Wasatch > Wasatch Range > Utah",https://www.mountainproject.com/route/115170413/safety-check,2.8,-1,Sport,5.10a,1,115,40.61946,-111.74337
Scorpious,"The Watchtower > CLOSED - The Soul Asylum > Utah Hills > Saint George > Southwest Utah > Utah",https://www.mountainproject.com/route/119808773/scorpious,2.8,-1,Sport,5.10a,1,80,37.07398,-113.81909
"Sharon's crack","Terrible Twos Wall > Grand Wash > Fruita Area > Capitol Reef > South Central Utah > Utah",https://www.mountainproject.com/route/110504128/sharons-crack,2.8,-1,Trad,5.10a,1,60,38.26036,-111.22124
"The Emptiness","Zen Wall > Saint George > Southwest Utah > Utah",https://www.mountainproject.com/route/107887122/the-emptiness,2.5,-1,Sport,5.10a,1,70,37.07013,-113.64737
Ginseng,"Pentapitch Area > Little Cottonwood Canyon > Central Wasatch > Wasatch Range > Utah",https://www.mountainproject.com/route/105740624/ginseng,2.0,-1,Trad,5.10a,1,,40.56859,-111.73767
Siesta,"Beckey's Wall Area > Gate Buttress > Little Cottonwood Canyon > Central Wasatch > Wasatch Range > Utah",https://www.mountainproject.com/route/111654080/siesta,2.4,-1,Trad,5.10a,1,40,40.5729,-111.7529
"Chief Running Bush","Distant Drum > Jungle, on the Aquarius Plateau > South Central Utah > Utah",https://www.mountainproject.com/route/107740630/chief-running-bush,2.9,-1,"Trad, Alpine",5.10a,1,70,37.754,-111.8714
"Lost in Leverage","The Shooting Gallery (upper canyon) > Cove Wash > Saint George > Southwest Utah > Utah",https://www.mountainproject.com/route/114122293/lost-in-leverage,3.0,-1,Sport,5.10a,1,40,37.11822,-113.66987
"Life Sentence","Penitentiary Wall > Big Cottonwood Canyon > Central Wasatch > Wasatch Range > Utah",https://www.mountainproject.com/route/105740165/life-sentence,2.5,-1,"Trad, TR","5.10a R",1,70,40.6221,-111.7634
Nope,"The Alcove > Sunset Alley > Beaver Dam Road > Saint George > Southwest Utah > Utah",https://www.mountainproject.com/route/117955080/nope,2.5,-1,Sport,5.10a,1,70,37.13291,-113.84322
"Crunch Boy","Pocket Rocks > Cedar City > Southwest Utah > Utah",https://www.mountainproject.com/route/106435272/crunch-boy,2.6,-1,Sport,5.10a,1,30,37.64232,-113.29134
"Los Pantalones De Alex","East Face Slab > Back of Beyond > Big Cottonwood Canyon > Central Wasatch > Wasatch Range > Utah",https://www.mountainproject.com/route/107703428/los-pantalones-de-alex,2.5,-1,Sport,5.10a,1,60,40.61741,-111.75701
Homage,"Maximum Main Wall > The Maximum > Right Fork > Maple Canyon > Central Utah > Utah",https://www.mountainproject.com/route/114382785/homage,2.6,-1,Sport,5.10a,1,75,39.56296,-111.69017
"Persecuted for Righteousness","Prophesy Wall > Saint George > Southwest Utah > Utah",https://www.mountainproject.com/route/116118959/persecuted-for-righteousness,2.8,-1,TR,5.10a,2,160,37.2939,-113.6932
"Jug Roof","Wall Street > Potash Road > Southeast Utah > Utah",https://www.mountainproject.com/route/105974447/jug-roof,2.1,-1,Trad,5.10a,1,70,38.54668,-109.59959
"Give Me Fire","Wall 7 > The Valley of Zion > Stansbury Mountains > West Desert > Utah",https://www.mountainproject.com/route/111077366/give-me-fire,3.0,-1,Sport,5.10a,1,50,40.73691,-112.63934
"Kiah Crack","Hideout Wall > La Sal Mountains > Southeast Utah > Utah",https://www.mountainproject.com/route/106353031/kiah-crack,3.0,-1,Trad,5.10a,1,60,38.68715,-109.18336
"One-finger Pockets Suck","The High Rise Area > The Overlook > Brian Head > Southwest Utah > Utah",https://www.mountainproject.com/route/108184604/one-finger-pockets-suck,3.0,-1,"Trad, Alpine",5.10a,1,45,37.7154,-112.7747
"P.C. Thug","Ataxia Tower > Mount Carmel Tunnel > Zion National Park > Southwest Utah > Utah",https://www.mountainproject.com/route/112187685/pc-thug,2.8,-1,Trad,5.10a,1,,37.21191,-112.96193
"The Era of Tara","Farmington Crag > Farmington > Davis County > Northern Wasatch > Wasatch Range > Utah",https://www.mountainproject.com/route/106799005/the-era-of-tara,3.0,-1,Trad,5.10a,1,55,40.9805,-111.8715
"Leftover Penguin","Kentucky Fried Penguin > Logan Canyon > Cache Valley > Northern Wasatch > Wasatch Range > Utah",https://www.mountainproject.com/route/117659932/leftover-penguin,2.4,-1,Sport,5.10a,1,70,41.7679,-111.6637
"The Trooper","Iron Hayden Wall > Hayden Peak > Uinta Mountains > Northeast Utah > Utah",https://www.mountainproject.com/route/119483732/the-trooper,2.7,-1,"Trad, Alpine",5.10a,1,100,40.73238,-110.84964
"Kentucky Brown Plate","Habitado > Indian Creek > Southeast Utah > Utah",https://www.mountainproject.com/route/120625896/kentucky-brown-plate,2.7,-1,Sport,5.10a,1,50,38.04004,-109.53368
"Sunday Afternoon w/ The Family","Cougar Cliffs > Saint George > Southwest Utah > Utah",https://www.mountainproject.com/route/107356639/sunday-afternoon-w-the-family,2.4,-1,Sport,"5.10a PG13",1,40,37.1618,-113.6102
"Look Ma, No Hands!","The Diamond > Utah Hills > Saint George > Southwest Utah > Utah",https://www.mountainproject.com/route/113869176/look-ma-no-hands,2.4,-1,Sport,5.10a,1,100,37.06547,-113.82085
"Seniors Rule","The Rest Home > Cedar Canyon > Cedar City > Southwest Utah > Utah",https://www.mountainproject.com/route/115368323/seniors-rule,3.0,-1,Sport,5.10a,1,75,37.6245,-112.93198
"Dead Baby Goat","South Summit > Mount Olympus > Central Wasatch > Wasatch Range > Utah",https://www.mountainproject.com/route/111907827/dead-baby-goat,3.0,-1,Trad,5.10a,3,400,40.6569,-111.771
"Future Artifacts","Eddie's High Somewhere > Hayden Peak > Uinta Mountains > Northeast Utah > Utah",https://www.mountainproject.com/route/111883519/future-artifacts,3.0,-1,"Sport, Alpine",5.10a,2,180,40.7333,-110.8496
"Seriously where the f*** is Duc","South Summit > Mount Olympus > Central Wasatch > Wasatch Range > Utah",https://www.mountainproject.com/route/111907802/seriously-where-the-f-is-duc,3.0,-1,TR,5.10a,1,70,40.6569,-111.771
"MRE Face","Mars Rock > White Rocks > West Desert > Utah",https://www.mountainproject.com/route/121990812/mre-face,3.0,-1,TR,5.10a,1,40,40.31888,-112.89755
"Crow Shit Peak","Town Area > Hanksville Area > South Central Utah > Utah",https://www.mountainproject.com/route/112337265/crow-shit-peak,3.0,-1,Trad,5.10a,1,60,38.37551,-110.7044
"Venice Venture","50 Mile Creek > Escalante Arm > Lake Powell > Glen Canyon > South Central Utah > Utah",https://www.mountainproject.com/route/111874112/venice-venture,3.0,-1,Trad,5.10a,1,25,37.32993,-110.93537
"Question of Insanity","Madness Buttress > Ibex > West Desert > Utah",https://www.mountainproject.com/route/115964532/question-of-insanity,3.0,-1,Trad,5.10a,1,80,38.9926,-113.3883
"Pecos Bill","Tall Tales Wall > Redmond Rocks > Central Utah > Utah",https://www.mountainproject.com/route/114379114/pecos-bill,3.3,-1,Sport,5.10a,1,45,39.02725,-111.77934
"Santaqueen Prom Queen","Santaqueen Wall > Santaquin Canyon > Southern Wasatch > Wasatch Range > Utah",https://www.mountainproject.com/route/106453503/santaqueen-prom-queen,3.0,-1,Sport,5.10a,1,90,39.9107,-111.7413
"Wall of Shame","The Shame Wall > Grey Cliffs Picnic Area > American Fork Canyon > Southern Wasatch > Wasatch Range > Utah",https://www.mountainproject.com/route/107408075/wall-of-shame,2.0,-1,Sport,5.10a,1,40,40.45,-111.6742
"Cross Words","The Puzzle > Maybird Slide Area > Little Cottonwood Canyon > Central Wasatch > Wasatch Range > Utah",https://www.mountainproject.com/route/106185256/cross-words,3.0,-1,Sport,5.10a,1,80,40.5754,-111.7083
"Slab route","Sunny Slabs > Cedar Canyon > Cedar City > Southwest Utah > Utah",https://www.mountainproject.com/route/106439635/slab-route,3.0,-1,Sport,"5.10a PG13",1,40,37.61602,-112.93205
Alien,"Creekside Crag > Big Cottonwood Canyon > Central Wasatch > Wasatch Range > Utah",https://www.mountainproject.com/route/105741995/alien,2.0,-1,Trad,"5.10a R",1,60,40.62208,-111.74928
"The Birthday Route","The Sunny Side > Mill Creek > La Sal Mountains > Southeast Utah > Utah",https://www.mountainproject.com/route/123327180/the-birthday-route,2.4,-1,Sport,5.10a,1,60,38.49649,-109.31053
"Shot Down in Flames","AC/DC Wall > Rock Canyon > Southern Wasatch > Wasatch Range > Utah",https://www.mountainproject.com/route/106131388/shot-down-in-flames,1.8,-1,Sport,5.10a,1,60,40.267,-111.6246
"The 5 AM Lookouts","Shady Side > Black Rocks > Saint George > Southwest Utah > Utah",https://www.mountainproject.com/route/108010218/the-5-am-lookouts,2.2,-1,Sport,5.10a,1,50,37.1548,-113.6074
"A Fall From Grace","The Solstice > Woodbury Road Crags > Utah Hills > Saint George > Southwest Utah > Utah",https://www.mountainproject.com/route/106359423/a-fall-from-grace,2.0,-1,Sport,5.10a,1,60,37.0286,-113.864
"Quintessential Tortellini","Tracy's Tower North > Tracy's Towers > Farmington > Davis County > Northern Wasatch > Wasatch Range > Utah",https://www.mountainproject.com/route/118721099/quintessential-tortellini,2.8,-1,"Sport, TR",5.10a,1,50,40.98094,-111.87086
Cacophony,"Blob's Your Uncle > The Valley of Zion > Stansbury Mountains > West Desert > Utah",https://www.mountainproject.com/route/122346050/cacophony,3.0,-1,Sport,5.10a,1,60,40.7403,-112.6394
Retrobution,"JHCOB Wall > Big Cottonwood Canyon > Central Wasatch > Wasatch Range > Utah",https://www.mountainproject.com/route/105741077/retrobution,2.1,-1,Sport,5.10a,2,180,40.62108,-111.74946
"Prism of Shadows","The Dark Continent Area > Jungle, on the Aquarius Plateau > South Central Utah > Utah",https://www.mountainproject.com/route/121159996/prism-of-shadows,2.5,-1,"Sport, Alpine",5.10a,1,50,37.7634,-111.87064
"Split Seam","North and West Faces > Challenge Buttress > Big Cottonwood Canyon > Central Wasatch > Wasatch Range > Utah",https://www.mountainproject.com/route/111828809/split-seam,2.8,-1,Trad,"5.10a R",1,60,40.62207,-111.74571
"Fist Action","White Harlem Wall > Cooks Mesa > Capitol Reef > South Central Utah > Utah",https://www.mountainproject.com/route/119433385/fist-action,2.5,-1,Trad,5.10a,1,80,38.33335,-111.36422
"Zippy OW Boulder - W Side","Zippy Zebra Wall > Arches National Park > Southeast Utah > Utah",https://www.mountainproject.com/route/118356524/zippy-ow-boulder-w-side,3.0,-1,Trad,5.10a,1,20,38.62102,-109.60457
"No Rhyme or Reason","The Starting Block > The Overlook > Brian Head > Southwest Utah > Utah",https://www.mountainproject.com/route/119198074/no-rhyme-or-reason,3.0,-1,"Trad, TR, Alpine",5.10a,1,40,37.7154,-112.7747
"Slice of Bread","Waterfront, The > Little Cottonwood Canyon > Central Wasatch > Wasatch Range > Utah",https://www.mountainproject.com/route/111936630/slice-of-bread,3.0,-1,"Trad, Aid","5.10a C2 PG13",3,250,40.5739,-111.7562
"Sunglasses and Mustaches","Uncle Paul Wall > Bald Mountain > Uinta Mountains > Northeast Utah > Utah",https://www.mountainproject.com/route/123049472/sunglasses-and-mustaches,3.0,-1,"Sport, Alpine",5.10a,1,,40.69883,-110.89788
"Show and Tell","School Room > The Running Scared Wall > Brian Head > Southwest Utah > Utah",https://www.mountainproject.com/route/120877010/show-and-tell,3.5,-1,Sport,5.10a,1,40,37.66609,-112.71351
"Leaning Shard","Short Stuff Crag > Zion National Park > Southwest Utah > Utah",https://www.mountainproject.com/route/120293416/leaning-shard,3.0,-1,Trad,5.10a,1,,37.21776,-112.9764
Overexposed,"Petrichor Wall > Rock Canyon > Southern Wasatch > Wasatch Range > Utah",https://www.mountainproject.com/route/110745200/overexposed,2.8,-1,Sport,5.10a,1,70,40.26426,-111.61342
Ki'yatni,"Yathamo Wall > Redmond Rocks > Central Utah > Utah",https://www.mountainproject.com/route/114478210/kiyatni,3.0,-1,"Sport, TR",5.10a,1,45,39.02681,-111.7796
"Thor's Unhappy","Castle Lake > Uinta Mountains > Northeast Utah > Utah",https://www.mountainproject.com/route/106263643/thors-unhappy,2.8,-1,"Trad, Sport",5.10a,1,65,40.72378,-110.87756
"Bizarre Garb","Smithfield Dry Canyon > Smithfield Dry Canyon > Cache Valley > Northern Wasatch > Wasatch Range > Utah",https://www.mountainproject.com/route/110761012/bizarre-garb,3.0,-1,Trad,5.10a,1,45,41.832,-111.76858
"Ultimate Gross Out Crack","Cedar Canyon > Bullfrog Bay Area > Lake Powell > Glen Canyon > South Central Utah > Utah",https://www.mountainproject.com/route/111873718/ultimate-gross-out-crack,3.0,-1,Trad,5.10a,1,50,37.60189,-110.58903
"Gumby's Delight","Deuces > West Sawtooth Canyon > House Range > West Desert > Utah",https://www.mountainproject.com/route/112933493/gumbys-delight,3.0,-1,Sport,5.10a,1,60,39.14899,-113.43736
"Pick Pocket","Ouch Wall > Green Canyon > Cache Valley > Northern Wasatch > Wasatch Range > Utah",https://www.mountainproject.com/route/122960196/pick-pocket,3.0,-1,"Sport, TR",5.10a,1,50,41.77163,-111.74588
"On The Fly","DeMoisy Peak > Wasatch Alpine Areas > Wasatch Range > Utah",https://www.mountainproject.com/route/107705070/on-the-fly,3.0,-1,"Trad, Alpine",5.10a,2,230,40.52763,-111.72408
"The Weasley's","Devils Chair > Millville Canyon > Cache Valley > Northern Wasatch > Wasatch Range > Utah",https://www.mountainproject.com/route/107473179/the-weasleys,3.0,-1,TR,5.10a,1,45,40.5618,-111.687
"The Dursley's","Devils Chair > Millville Canyon > Cache Valley > Northern Wasatch > Wasatch Range > Utah",https://www.mountainproject.com/route/107473191/the-dursleys,3.0,-1,TR,5.10a,1,45,40.5618,-111.687
"The Holey Ghost","G Crags > Eastern Reef Area.. AKA The Sandstone Alps > San Rafael Swell - South > San Rafael Swell > South Central Utah > Utah",https://www.mountainproject.com/route/106050741/the-holey-ghost,3.0,-1,Trad,5.10a,6,1160,38.88347,-110.45548
"No Where To Run","L Crags (Sinister Slab Area) > Eastern Reef Area.. AKA The Sandstone Alps > San Rafael Swell - South > San Rafael Swell > South Central Utah > Utah",https://www.mountainproject.com/route/105852675/no-where-to-run,3.0,-1,Trad,5.10a,4,610,38.88347,-110.45548
Prudence,"West Canyon > Snow Canyon State Park > Saint George > Southwest Utah > Utah",https://www.mountainproject.com/route/112180398/prudence,2.5,-1,Trad,"5.10a PG13",5,380,37.1974,-113.64919
"The Rosary","Watchtower Main > The Watchtower > Ferguson Canyon > Central Wasatch > Wasatch Range > Utah",https://www.mountainproject.com/route/106490913/the-rosary,2.0,-1,Trad,5.10a,1,50,40.61349,-111.77922
"Insufficient Landing Strip","The Air Strip > Jungle, on the Aquarius Plateau > South Central Utah > Utah",https://www.mountainproject.com/route/117389346/insufficient-landing-strip,2.6,-1,"Trad, Alpine",5.10a,1,55,37.77727,-111.8992
"Rastaman Roof","Wall 7 > The Valley of Zion > Stansbury Mountains > West Desert > Utah",https://www.mountainproject.com/route/111077338/rastaman-roof,2.7,-1,Sport,5.10a,1,65,40.73691,-112.63934
"Running Bare","Last Stand Wall > Ruth Lake > Uinta Mountains > Northeast Utah > Utah",https://www.mountainproject.com/route/119446356/running-bare,2.4,-1,Sport,5.10a,-1,70,40.73076,-110.87897
Geeker,"Addict Crag > Ophir Canyon > Oquirrh Mountains > West Desert > Utah",https://www.mountainproject.com/route/107788327/geeker,2.6,-1,Sport,5.10a,1,60,40.36283,-112.27025
"Remembrance Day","West-facing Wall > The Hideaway > American Fork Canyon > Southern Wasatch > Wasatch Range > Utah",https://www.mountainproject.com/route/114264099/remembrance-day,2.2,-1,Sport,5.10a,1,80,40.4475,-111.7003
Unknown,"Tokey Dokey > The Valley of Zion > Stansbury Mountains > West Desert > Utah",https://www.mountainproject.com/route/111077295/unknown,2.3,-1,Sport,5.10a,1,,40.7389,-112.6404
"Weapons In The Wrong Hands","Blob's Your Uncle > The Valley of Zion > Stansbury Mountains > West Desert > Utah",https://www.mountainproject.com/route/108363147/weapons-in-the-wrong-hands,2.3,-1,Sport,5.10a,1,75,40.7403,-112.6394
"The Wad","The Shooting Gallery (upper canyon) > Cove Wash > Saint George > Southwest Utah > Utah",https://www.mountainproject.com/route/114122307/the-wad,2.8,-1,Sport,5.10a,1,35,37.11822,-113.66987
"Wake Up","The Abyss > Sunset Alley > Beaver Dam Road > Saint George > Southwest Utah > Utah",https://www.mountainproject.com/route/114358382/wake-up,2.3,-1,Sport,5.10a,1,80,37.13296,-113.84369
"Oh My Heck","Sunny Side > Black Rocks > Saint George > Southwest Utah > Utah",https://www.mountainproject.com/route/108443844/oh-my-heck,2.0,-1,Sport,5.10a,1,35,37.155,-113.6073
"Sonic Bat Tsaheylu","Banshee Wall > Jungle, on the Aquarius Plateau > South Central Utah > Utah",https://www.mountainproject.com/route/112086899/sonic-bat-tsaheylu,2.4,-1,"Trad, Alpine",5.10a,1,70,37.76645,-111.88602
"Free Passage","The Moore Wall > Moosehorn > Uinta Mountains > Northeast Utah > Utah",https://www.mountainproject.com/route/106864572/free-passage,3.0,-1,"Trad, Alpine",5.10a,1,100,40.70027,-110.89817
"Buried Treasure","Treasure Island > Rock Canyon > Southern Wasatch > Wasatch Range > Utah",https://www.mountainproject.com/route/106204472/buried-treasure,1.9,-1,Sport,5.10a,1,35,40.2655,-111.621
"Bird of Pray","Flying Raptor's Area > Jungle, on the Aquarius Plateau > South Central Utah > Utah",https://www.mountainproject.com/route/110657530/bird-of-pray,2.8,-1,"Trad, Alpine",5.10a,1,50,37.75447,-111.87682
[Redacted],"Devil's Castle > Albion Basin > Little Cottonwood Canyon > Central Wasatch > Wasatch Range > Utah",https://www.mountainproject.com/route/113516557/redacted,2.5,-1,"Trad, Alpine",5.10a,3,275,40.56562,-111.61357
"The Pabst Schmear","East Fin Gully > The Fin > Little Cottonwood Canyon > Central Wasatch > Wasatch Range > Utah",https://www.mountainproject.com/route/107905458/the-pabst-schmear,2.6,-1,Sport,5.10a,1,80,40.57399,-111.76119
FDR,"Ramp Routes > The Schoolroom > Ogden > Northern Wasatch > Wasatch Range > Utah",https://www.mountainproject.com/route/105804479/fdr,2.3,-1,Trad,5.10a,1,50,41.2248,-111.92513
Overture,"East Face > Challenge Buttress > Big Cottonwood Canyon > Central Wasatch > Wasatch Range > Utah",https://www.mountainproject.com/route/105740240/overture,2.1,-1,Trad,"5.10a R",1,70,40.62202,-111.74528
"Choo Choo Express","Prophesy Wall > Saint George > Southwest Utah > Utah",https://www.mountainproject.com/route/118837740/choo-choo-express,2.2,-1,Trad,5.10a,3,190,37.2939,-113.6932
"Cannibas Crew (aka Bobbin Heads)","Cannabis Crew Wall > The Valley of Zion > Stansbury Mountains > West Desert > Utah",https://www.mountainproject.com/route/108166587/cannibas-crew-aka-bobbin-heads,2.1,-1,Sport,5.10a,1,32,40.73875,-112.6417
"Listen to the Echo","The Enclosure > Snow Canyon State Park > Saint George > Southwest Utah > Utah",https://www.mountainproject.com/route/106745815/listen-to-the-echo,2.4,-1,Sport,5.10a,1,60,37.19297,-113.64827
"Suzi Has No Choice","Neighbor Of Putterman > Tusher Canyon > Southeast Utah > Utah",https://www.mountainproject.com/route/105717682/suzi-has-no-choice,2.5,-1,Trad,5.10a,1,,38.68684,-109.76682
"Cleanse, Fold, and Manipulate","Tear Garden > Big Cottonwood Canyon > Central Wasatch > Wasatch Range > Utah",https://www.mountainproject.com/route/105740315/cleanse-fold-and-manipulate,2.7,-1,Sport,5.10a,1,90,40.63617,-111.73166
Shipwrecked,"The Shipyard > Long Canyon > Potash Road > Southeast Utah > Utah",https://www.mountainproject.com/route/106369852/shipwrecked,2.1,-1,Trad,5.10a,1,70,38.55073,-109.65957
"Feels Like the First Time","Tear Garden > Big Cottonwood Canyon > Central Wasatch > Wasatch Range > Utah",https://www.mountainproject.com/route/105740318/feels-like-the-first-time,2.6,-1,Sport,5.10a,1,90,40.63617,-111.73166
FILO,"The Cove > Right Fork > Maple Canyon > Central Utah > Utah",https://www.mountainproject.com/route/114345854/filo,2.3,-1,Sport,5.10a,1,60,39.56336,-111.68939
Camlock,"Sunny Side > Black Rocks > Saint George > Southwest Utah > Utah",https://www.mountainproject.com/route/107358037/camlock,2.2,-1,TR,5.10a,1,40,37.155,-113.6073
"VooDoo Billy Man","Wall of Mirrors > Moosehorn > Uinta Mountains > Northeast Utah > Utah",https://www.mountainproject.com/route/110708691/voodoo-billy-man,2.2,-1,"Sport, Alpine",5.10a,1,25,40.7008,-110.89827
"Midnight Lovin","The Ice Wall > Ogden Canyon > Ogden > Northern Wasatch > Wasatch Range > Utah",https://www.mountainproject.com/route/112218934/midnight-lovin,2.0,-1,Sport,5.10a,1,40,41.2375,-111.91749
"Science Friction","Candyland Buttress > West Sawtooth Canyon > House Range > West Desert > Utah",https://www.mountainproject.com/route/113878099/science-friction,2.3,-1,Trad,5.10a,2,150,39.15457,-113.43897
"Red Neck Slab","Lizard Head Wall > Little Cottonwood Canyon > Central Wasatch > Wasatch Range > Utah",https://www.mountainproject.com/route/106194664/red-neck-slab,1.9,-1,Trad,5.10a,1,50,40.5733,-111.7596
Simba,"Hero Wall > Pine Valley > Saint George > Southwest Utah > Utah",https://www.mountainproject.com/route/107296451/simba,2.6,-1,Sport,5.10a,1,55,37.4095,-113.5373
"Homo cragus","Lower Jungle > Jungle, on the Aquarius Plateau > South Central Utah > Utah",https://www.mountainproject.com/route/106820867/homo-cragus,2.1,-1,"Sport, Alpine",5.10a,1,60,37.7503,-111.8708
"Layback crack","Port of Entry Crag > Kanab Area > Southwest Utah > Utah",https://www.mountainproject.com/route/119812255/layback-crack,2.0,-1,Trad,5.10a,1,,37.0977,-112.54477
Babe,"Tall Tales Wall > Redmond Rocks > Central Utah > Utah",https://www.mountainproject.com/route/114379136/babe,2.7,-1,Sport,5.10a,1,45,39.02725,-111.77934
"White Waltz","New Sub-Area 1 > Friction Slab > Entrance Corridor > Indian Creek > Southeast Utah > Utah",https://www.mountainproject.com/route/106684789/white-waltz,2.7,-1,Trad,5.10a,1,90,38.0258,-109.54
"Daffy's Shaft","South Face > Black Peeler Buttress > Little Cottonwood Canyon > Central Wasatch > Wasatch Range > Utah",https://www.mountainproject.com/route/105741923/daffys-shaft,2.2,-1,Trad,"5.10a R",1,120,40.57399,-111.7486
"Chips and Salsa","Chips Wall > Big Cottonwood Canyon > Central Wasatch > Wasatch Range > Utah",https://www.mountainproject.com/route/105864035/chips-and-salsa,2.5,-1,Trad,"5.10a PG13",1,90,40.6337,-111.72
"Standard Deviation","JHCOB Wall > Big Cottonwood Canyon > Central Wasatch > Wasatch Range > Utah",https://www.mountainproject.com/route/114417869/standard-deviation,2.4,-1,Sport,5.10a,1,90,40.62108,-111.74946
Prestidigitator,"Sand Dunes > Island In The Sky > Snow Canyon State Park > Saint George > Southwest Utah > Utah",https://www.mountainproject.com/route/116707806/prestidigitator,2.3,-1,Trad,5.10a,5,325,37.19133,-113.64333
"Cabeza de Pollo","East Gate Buttress > Gate Buttress > Little Cottonwood Canyon > Central Wasatch > Wasatch Range > Utah",https://www.mountainproject.com/route/111307902/cabeza-de-pollo,2.3,-1,Trad,5.10a,1,50,40.57387,-111.75163
"The Liberator","Liberator Ridge > Gully of Higher Education Area > Big Cottonwood Canyon > Central Wasatch > Wasatch Range > Utah",https://www.mountainproject.com/route/113333296/the-liberator,2.4,-1,Sport,5.10a,1,60,40.62933,-111.74137
"Unnamed 5.10 (left)","Technicolor Wall > Indian Creek > Southeast Utah > Utah",https://www.mountainproject.com/route/105802233/unnamed-510-left,2.3,-1,Trad,5.10a,1,60,38.05715,-109.58647
"17 Seconds","Smith Rock > Logan Canyon > Cache Valley > Northern Wasatch > Wasatch Range > Utah",https://www.mountainproject.com/route/107743580/17-seconds,2.3,-1,Sport,5.10a,1,,41.7493,-111.742
"Hop Rising Point","Vector Madness Wall > Big Cottonwood Canyon > Central Wasatch > Wasatch Range > Utah",https://www.mountainproject.com/route/109463741/hop-rising-point,2.4,-1,Trad,5.10a,1,60,40.6191,-111.74385
"Jugs Judy","Scenic Turnout > Rock Canyon > Southern Wasatch > Wasatch Range > Utah",https://www.mountainproject.com/route/106291466/jugs-judy,2.4,-1,Sport,5.10a,1,50,40.2643,-111.6232
"The Flying Nun","The Nuns > Castle Valley > Southeast Utah > Utah",https://www.mountainproject.com/route/105718354/the-flying-nun,2.1,-1,Trad,5.10a,1,100,38.6836,-109.4227
Logarithm,"Schoolhouse Rock > Log Canyon > Central Utah > Utah",https://www.mountainproject.com/route/110748959/logarithm,2.4,-1,Sport,5.10a,1,90,39.64935,-111.70181
"Avoiding Mordor","Zen Wall > Saint George > Southwest Utah > Utah",https://www.mountainproject.com/route/107887131/avoiding-mordor,2.4,-1,Sport,5.10a,1,60,37.07013,-113.64737
"Mischievous Moroni","Hidden Heavenly Slab > Tanners Gulch > Little Cottonwood Canyon > Central Wasatch > Wasatch Range > Utah",https://www.mountainproject.com/route/106295090/mischievous-moroni,2.2,-1,Trad,5.10a,2,200,40.57744,-111.7029
Bar-B-Que,"The Cartoon Crag > Crawdad Canyon / Veyo > Saint George > Southwest Utah > Utah",https://www.mountainproject.com/route/106762155/bar-b-que,2.2,-1,Sport,5.10a,1,40,37.33517,-113.68913
Atlantis,"Glass Ocean and Environs > Big Cottonwood Canyon > Central Wasatch > Wasatch Range > Utah",https://www.mountainproject.com/route/105740255/atlantis,2.0,-1,"Trad, TR","5.10a R",1,50,40.61981,-111.74575
"Right Hook","Hoss Garden > Big Cottonwood Canyon > Central Wasatch > Wasatch Range > Utah",https://www.mountainproject.com/route/113286198/right-hook,1.9,-1,Sport,5.10a,1,60,40.63458,-111.70453
"Cooler than Jesus","Top of the World Overlook > Mystery Towers & Top of the World Overlook > Onion Creek > Southeast Utah > Utah",https://www.mountainproject.com/route/105718447/cooler-than-jesus,2.5,-1,Trad,5.10a,3,300,38.7191,-109.2836
"Under the Radar","The Air Strip > Jungle, on the Aquarius Plateau > South Central Utah > Utah",https://www.mountainproject.com/route/119077593/under-the-radar,2.6,-1,"Sport, Alpine","5.10a PG13",1,70,37.77727,-111.8992
Subdivisions,"Shady Side West > Black Rocks > Saint George > Southwest Utah > Utah",https://www.mountainproject.com/route/106665896/subdivisions,2.2,-1,Sport,5.10a,1,35,37.15314,-113.60929
"Syd Barrett's Corner","Upper Utah Wall > Ogden Canyon > Ogden > Northern Wasatch > Wasatch Range > Utah",https://www.mountainproject.com/route/106767752/syd-barretts-corner,2.5,-1,"Trad, Sport","5.10a PG13",1,50,41.2368,-111.929
"Unnamed 5.10a","The Recess > Uinta Mountains > Northeast Utah > Utah",https://www.mountainproject.com/route/106003532/unnamed-510a,2.5,-1,Trad,5.10a,1,45,40.58667,-111.05287
"Psycho City Kid","Wall of Mirrors > Moosehorn > Uinta Mountains > Northeast Utah > Utah",https://www.mountainproject.com/route/110708667/psycho-city-kid,2.1,-1,"Sport, Alpine",5.10a,1,25,40.7008,-110.89827
"Close Encounters","Milky Way Wall > Galaxy Area > Rock Canyon > Southern Wasatch > Wasatch Range > Utah",https://www.mountainproject.com/route/106202801/close-encounters,2.1,-1,Sport,5.10a,1,,40.26569,-111.61284
R&B,"The Dead Snag > Big Cottonwood Canyon > Central Wasatch > Wasatch Range > Utah",https://www.mountainproject.com/route/105878001/rb,1.9,-1,Trad,5.10a,1,120,40.62082,-111.74466
"Shyster U","Higher Education Ridge, West Face > Gully of Higher Education Area > Big Cottonwood Canyon > Central Wasatch > Wasatch Range > Utah",https://www.mountainproject.com/route/118880053/shyster-u,2.2,-1,Trad,5.10a,1,70,40.63012,-111.74032
"Puff Puff Pass","Cecret Stash > Cecret Lake > Albion Basin > Little Cottonwood Canyon > Central Wasatch > Wasatch Range > Utah",https://www.mountainproject.com/route/106003140/puff-puff-pass,1.9,-1,Sport,5.10a,1,55,40.5691,-111.62648
"Pep's boots","Dark Lands (Mid Canyon) > Cove Wash > Saint George > Southwest Utah > Utah",https://www.mountainproject.com/route/114122406/peps-boots,2.3,-1,Sport,5.10a,1,,37.11769,-113.66602
Goldbagger,"Goldenfingers Wall > Ferguson Canyon > Central Wasatch > Wasatch Range > Utah",https://www.mountainproject.com/route/106538851/goldbagger,2.2,-1,"Trad, Sport",5.10a,1,25,40.61312,-111.77794
"Red Rucksack","ERM Wall > Moosehorn > Uinta Mountains > Northeast Utah > Utah",https://www.mountainproject.com/route/110668495/red-rucksack,2.2,-1,"Sport, Alpine",5.10a,1,60,40.70209,-110.89844
"Bush Bullshit","Devil's Castle > Albion Basin > Little Cottonwood Canyon > Central Wasatch > Wasatch Range > Utah",https://www.mountainproject.com/route/106023984/bush-bullshit,2.4,-1,"Sport, Alpine",5.10a,1,45,40.56562,-111.61357
Deicing,"The Air Strip > Jungle, on the Aquarius Plateau > South Central Utah > Utah",https://www.mountainproject.com/route/117516872/deicing,2.3,-1,"Trad, Alpine",5.10a,1,45,37.77727,-111.8992
"Choss Tower","Bird Nest Boulder > Pioneer Park > Saint George > Southwest Utah > Utah",https://www.mountainproject.com/route/106723152/choss-tower,2.2,-1,TR,5.10a,1,,37.11712,-113.57607
"Grim Reaper","Big Bend Butte > River Road > Southeast Utah > Utah",https://www.mountainproject.com/route/112869159/grim-reaper,2.3,-1,Trad,5.10a,4,400,38.65077,-109.47332
"Jehovah Hireh","The Principality > Brian Head > Southwest Utah > Utah",https://www.mountainproject.com/route/107195916/jehovah-hireh,2.4,-1,Sport,5.10a,1,40,37.7,-112.6923
"The Urinal","The Trash Compactor > Maple Canyon Road > Maple Canyon > Central Utah > Utah",https://www.mountainproject.com/route/106920635/the-urinal,2.0,-1,Sport,5.10a,1,70,39.55976,-111.68822
"Roof Problem","Second Practice Wall > Logan Canyon > Cache Valley > Northern Wasatch > Wasatch Range > Utah",https://www.mountainproject.com/route/105740801/roof-problem,2.0,-1,TR,5.10a,1,60,41.7451,-111.7524
"The Lung","Hideout Wall > La Sal Mountains > Southeast Utah > Utah",https://www.mountainproject.com/route/106366218/the-lung,2.4,-1,Trad,5.10a,1,120,38.68715,-109.18336
"Sting, The","Shady Lane > Big Cottonwood Canyon > Central Wasatch > Wasatch Range > Utah",https://www.mountainproject.com/route/105740357/sting-the,2.3,-1,Sport,5.10a,1,60,40.6193,-111.789
"The Spawn","Main Hellgate > Hellgate Cliffs > Little Cottonwood Canyon > Central Wasatch > Wasatch Range > Utah",https://www.mountainproject.com/route/113417771/the-spawn,2.3,-1,Sport,5.10a,1,85,40.59065,-111.6495
"Ophir Broke","Portwoods Wall - Upper > Ophir Canyon > Oquirrh Mountains > West Desert > Utah",https://www.mountainproject.com/route/105947458/ophir-broke,2.3,-1,Sport,5.10a,1,110,40.3607,-112.27388
"Obie Wan Shinobe","The Roller Rink > Parowan Gap (all crags) > Parowan > Southwest Utah > Utah",https://www.mountainproject.com/route/107739621/obie-wan-shinobe,2.5,-1,Sport,5.10a,1,70,37.8978,-112.9475
"4. Black Streak","Green Meadow Crags > Uinta Mountains > Northeast Utah > Utah",https://www.mountainproject.com/route/120885703/4-black-streak,2.5,-1,"Trad, TR, Alpine",5.10a,1,60,40.71718,-110.85687
"Straight Talk","Aqueduct Area, The > Big Cottonwood Canyon > Central Wasatch > Wasatch Range > Utah",https://www.mountainproject.com/route/105740723/straight-talk,1.8,-1,Trad,5.10a,1,50,40.6232,-111.77
"Self Isolation","Cretaceous Crag > Dry Canyon > Southern Wasatch > Wasatch Range > Utah",https://www.mountainproject.com/route/118859931/self-isolation,2.5,-1,"Sport, TR",5.10a,1,90,40.34219,-111.67637
"Chocolate Moose","Good Medicine Area > Ruth Lake > Uinta Mountains > Northeast Utah > Utah",https://www.mountainproject.com/route/107754894/chocolate-moose,2.0,-1,Trad,5.10a,1,70,40.73091,-110.87835
"Arete Bernadette","Goldenfingers Wall > Ferguson Canyon > Central Wasatch > Wasatch Range > Utah",https://www.mountainproject.com/route/107614371/arete-bernadette,2.1,-1,"Trad, Sport",5.10a,1,30,40.61312,-111.77794
"Baby Huey","Moab Rim Trail Towers > Moab Rim Area > Southeast Utah > Utah",https://www.mountainproject.com/route/106118584/baby-huey,2.5,-1,"Trad, Aid","5.10a A2",3,300,38.5428,-109.5526
Indecision,"Cretaceous Crag > Dry Canyon > Southern Wasatch > Wasatch Range > Utah",https://www.mountainproject.com/route/118859867/indecision,2.5,-1,Sport,5.10a,1,90,40.34219,-111.67637
"A Red Sun Rises","Shotgun Alley > Saint George > Southwest Utah > Utah",https://www.mountainproject.com/route/109327780/a-red-sun-rises,2.5,-1,"Sport, TR",5.10a,1,35,37.1709,-113.71399
Kewa,"Summit Wall > Lone Peak Cirque > Central Wasatch > Wasatch Range > Utah",https://www.mountainproject.com/route/111962303/kewa,2.5,-1,"Trad, Alpine","5.10a PG13",1,90,40.52645,-111.75527
"Captain Ahab","Tall Tales Wall > Redmond Rocks > Central Utah > Utah",https://www.mountainproject.com/route/114379175/captain-ahab,2.5,-1,"Sport, TR",5.10a,1,35,39.02725,-111.77934
"Sensi In The Sun","Wall 7 > The Valley of Zion > Stansbury Mountains > West Desert > Utah",https://www.mountainproject.com/route/111077355/sensi-in-the-sun,2.5,-1,Sport,5.10a,1,60,40.73691,-112.63934
"Mr Ranger Sir","Mary Ellen's Gulch > Southern Wasatch > Wasatch Range > Utah",https://www.mountainproject.com/route/107721346/mr-ranger-sir,2.5,-1,Sport,5.10a,1,30,40.53072,-111.61742
"Poison Idea","Aqueduct Area, The > Big Cottonwood Canyon > Central Wasatch > Wasatch Range > Utah",https://www.mountainproject.com/route/105818160/poison-idea,2.1,-1,Trad,5.10a,1,75,40.6232,-111.77
"Love And Simplicity","Superbowl > China Wall > Logan Canyon > Cache Valley > Northern Wasatch > Wasatch Range > Utah",https://www.mountainproject.com/route/106192772/love-and-simplicity,2.5,-1,Sport,5.10a,1,80,41.78685,-111.64164
"Indie Dog Memorial Route","Hidden Heavenly Slab > Tanners Gulch > Little Cottonwood Canyon > Central Wasatch > Wasatch Range > Utah",https://www.mountainproject.com/route/106276958/indie-dog-memorial-route,2.1,-1,Trad,5.10a,3,280,40.57744,-111.7029
"A Country Mile","Gangsta' Ledge > Asbury Park > The Schoolroom > Ogden > Northern Wasatch > Wasatch Range > Utah",https://www.mountainproject.com/route/105804526/a-country-mile,2.2,-1,Trad,5.10a,1,70,41.2226,-111.92461
"The Creeper","Lisa Falls West > Lisa Falls > Little Cottonwood Canyon > Central Wasatch > Wasatch Range > Utah",https://www.mountainproject.com/route/105988607/the-creeper,2.1,-1,Sport,5.10a,1,80,40.5748,-111.728
Unknown,"Pete's Rock > Pete's Rock Area > Mount Olympus > Central Wasatch > Wasatch Range > Utah",https://www.mountainproject.com/route/105853121/unknown,2.2,-1,"Trad, Sport, TR",5.10a,1,70,40.65299,-111.806
"Funky Boss","The Starting Block > The Overlook > Brian Head > Southwest Utah > Utah",https://www.mountainproject.com/route/115389414/funky-boss,2.1,-1,"Sport, TR, Alpine",5.10a,1,50,37.7154,-112.7747
"Body Count","5.10 Slab > The Schoolroom > Ogden > Northern Wasatch > Wasatch Range > Utah",https://www.mountainproject.com/route/105805168/body-count,1.9,-1,Sport,5.10a,1,60,41.2217,-111.9236
Necromancer,"Necromancer > American Fork Canyon > Southern Wasatch > Wasatch Range > Utah",https://www.mountainproject.com/route/106018707/necromancer,1.9,-1,Sport,5.10a,1,35,40.4323,-111.751
"Donald Pump","Southern Corral Crag > Corral Crags > Ibex > West Desert > Utah",https://www.mountainproject.com/route/111713123/donald-pump,2.1,-1,Sport,5.10a,1,40,38.98448,-113.39156
"Money for Nothing","Free Wall > Maple Canyon Road > Maple Canyon > Central Utah > Utah",https://www.mountainproject.com/route/119125579/money-for-nothing,2.0,-1,Sport,5.10a,1,40,39.5578,-111.68722
G-Force,"Garulean Wall > Redmond Rocks > Central Utah > Utah",https://www.mountainproject.com/route/114379049/g-force,2.8,-1,Sport,5.10a,1,35,39.02806,-111.77878
"Kister Twister","Hideout Wall > La Sal Mountains > Southeast Utah > Utah",https://www.mountainproject.com/route/106358062/kister-twister,2.3,-1,Trad,5.10a,1,100,38.68715,-109.18336
"Scenic Turnout","Scenic Turnout > Rock Canyon > Southern Wasatch > Wasatch Range > Utah",https://www.mountainproject.com/route/105993228/scenic-turnout,2.2,-1,Sport,5.10a,1,50,40.2643,-111.6232
Trapeze,"Circus Wall > Island In The Sky > Snow Canyon State Park > Saint George > Southwest Utah > Utah",https://www.mountainproject.com/route/106053490/trapeze,2.2,-1,Trad,"5.10a R",1,150,37.19743,-113.64353
Sabrina,"Critic's Choice > Indian Creek > Southeast Utah > Utah",https://www.mountainproject.com/route/106065344/sabrina,2.3,-1,Trad,5.10a,1,70,38.03075,-109.60173
"Gnawing on the Rind","Lonely Challenge Area > Big Cottonwood Canyon > Central Wasatch > Wasatch Range > Utah",https://www.mountainproject.com/route/113371467/gnawing-on-the-rind,2.2,-1,Trad,5.10a,2,200,40.62048,-111.74596
"[We like] Cobbles & Crimps","Parowan Gap Wall > Parowan Gap (all crags) > Parowan > Southwest Utah > Utah",https://www.mountainproject.com/route/117288830/we-like-cobbles-crimps,2.2,-1,"Sport, TR",5.10a,1,35,37.90394,-112.95057
"Checking For Structural Integrity","The Air Strip > Jungle, on the Aquarius Plateau > South Central Utah > Utah",https://www.mountainproject.com/route/117313348/checking-for-structural-integrity,2.3,-1,"Sport, Alpine",5.10a,1,45,37.77727,-111.8992
"Bush Fire","Ren and Stimpy Wall > CLOSED - The Soul Asylum > Utah Hills > Saint George > Southwest Utah > Utah",https://www.mountainproject.com/route/115406953/bush-fire,2.3,-1,Sport,5.10a,1,28,37.07353,-113.81905
"The Right Nut","The Testes > Arches National Park > Southeast Utah > Utah",https://www.mountainproject.com/route/106311680/the-right-nut,2.2,-1,Trad,5.10a,1,125,38.68518,-109.58396
M&M,"Shotgun Alley > Saint George > Southwest Utah > Utah",https://www.mountainproject.com/route/106846885/mm,2.0,-1,Sport,"5.10a PG13",1,35,37.1709,-113.71399
"Coming Full Circle","Santaqueen Wall > Santaquin Canyon > Southern Wasatch > Wasatch Range > Utah",https://www.mountainproject.com/route/106453483/coming-full-circle,2.3,-1,Sport,5.10a,1,70,39.9107,-111.7413
Proscenium,"Altered States Gully > Little Cottonwood Canyon > Central Wasatch > Wasatch Range > Utah",https://www.mountainproject.com/route/106706914/proscenium,2.2,-1,Trad,"5.10a R",1,110,40.57388,-111.75938
"Silicon Abuse","Addict Crag > Ophir Canyon > Oquirrh Mountains > West Desert > Utah",https://www.mountainproject.com/route/107788334/silicon-abuse,2.4,-1,Sport,5.10a,1,60,40.36283,-112.27025
"Schweppe's Swing","Roadside Attraction > Ogden Canyon > Ogden > Northern Wasatch > Wasatch Range > Utah",https://www.mountainproject.com/route/106186668/schweppes-swing,2.3,-1,Trad,5.10a,1,75,41.2368,-111.929
"Dionysius Thrax","Dork Dot Rock > Rock Canyon > Southern Wasatch > Wasatch Range > Utah",https://www.mountainproject.com/route/106520007/dionysius-thrax,1.9,-1,Sport,5.10a,1,30,40.26628,-111.62282
"Bohemian Crystal","Church Fork Wall > Millcreek Canyon > Central Wasatch > Wasatch Range > Utah",https://www.mountainproject.com/route/105889786/bohemian-crystal,2.0,-1,Sport,5.10a,1,80,40.7047,-111.7438
Bensass,"Viewfinder Towers > San Rafael Swell - South > San Rafael Swell > South Central Utah > Utah",https://www.mountainproject.com/route/106121355/bensass,2.0,-1,Trad,5.10a,1,45,38.79847,-110.45724
"Empty Jugs","Cannabis Crew Wall > The Valley of Zion > Stansbury Mountains > West Desert > Utah",https://www.mountainproject.com/route/111077511/empty-jugs,2.0,-1,Sport,5.10a,1,40,40.73875,-112.6417
"Hand Drilling 101","The Hidden > Rock Canyon > Southern Wasatch > Wasatch Range > Utah",https://www.mountainproject.com/route/106473736/hand-drilling-101,2.0,-1,Sport,5.10a,1,35,40.2649,-111.6105
"Ransom Demand","The Picnic Wall > Crawdad Canyon / Veyo > Saint George > Southwest Utah > Utah",https://www.mountainproject.com/route/106390635/ransom-demand,2.0,-1,Sport,5.10a,1,55,37.33556,-113.68788
"Mud dahbber","Reservoir Wall > Indian Creek > Southeast Utah > Utah",https://www.mountainproject.com/route/107198812/mud-dahbber,1.8,-1,Trad,5.10a,1,50,38.08284,-109.56274
"Little Miss Demeanor","Sand Dunes > Island In The Sky > Snow Canyon State Park > Saint George > Southwest Utah > Utah",https://www.mountainproject.com/route/112286726/little-miss-demeanor,2.0,-1,Sport,5.10a,2,100,37.19133,-113.64333
"Babylon's Burning","The Clamshell > East Hellgate > Hellgate Cliffs > Little Cottonwood Canyon > Central Wasatch > Wasatch Range > Utah",https://www.mountainproject.com/route/117291006/babylons-burning,2.0,-1,Sport,5.10a,1,90,40.59043,-111.64567
"Blood, Sweat and Bolts","Soul Train Wall > Bear Hollow > Echo Canyon > Wasatch Back > Wasatch Range > Utah",https://www.mountainproject.com/route/115190093/blood-sweat-and-bolts,2.0,-1,Sport,5.10a,1,80,41.00084,-111.39254
"Where Men Are Men and Sheep Are Nervous","Central Corral Crag > Corral Crags > Ibex > West Desert > Utah",https://www.mountainproject.com/route/113698560/where-men-are-men-and-sheep-are-nervous,1.9,-1,Sport,5.10a,1,60,38.98551,-113.39088
"Funky Monkey","Lower Jungle > Jungle, on the Aquarius Plateau > South Central Utah > Utah",https://www.mountainproject.com/route/106806401/funky-monkey,2.0,-1,"Sport, Alpine",5.10a,1,50,37.7503,-111.8708
"Salty Biscuits","The Trash Compactor > Maple Canyon Road > Maple Canyon > Central Utah > Utah",https://www.mountainproject.com/route/107762800/salty-biscuits,2.1,-1,Sport,5.10a,1,45,39.55976,-111.68822
"Smurfs on Steroids","The Cartoon Crag > Crawdad Canyon / Veyo > Saint George > Southwest Utah > Utah",https://www.mountainproject.com/route/108143254/smurfs-on-steroids,2.0,-1,Sport,5.10a,1,,37.33517,-113.68913
"Of Mice and Men","The Moore Wall > Moosehorn > Uinta Mountains > Northeast Utah > Utah",https://www.mountainproject.com/route/106863726/of-mice-and-men,2.0,-1,"Trad, Alpine",5.10a,1,90,40.70027,-110.89817
"Pig Charmer","Cougar Narrows > Tank Canyon > American Fork Canyon > Southern Wasatch > Wasatch Range > Utah",https://www.mountainproject.com/route/106496065/pig-charmer,2.0,-1,Sport,5.10a,1,45,40.4469,-111.6881
"A Dream within a Dream","Picturesque Wall > Uinta Mountains > Northeast Utah > Utah",https://www.mountainproject.com/route/105998219/a-dream-within-a-dream,2.0,-1,"Sport, TR",5.10a,1,40,40.7473,-110.511
"Hello Hummingbird","Parowan Gap Wall > Parowan Gap (all crags) > Parowan > Southwest Utah > Utah",https://www.mountainproject.com/route/114392013/hello-hummingbird,2.0,-1,"Sport, TR",5.10a,1,35,37.90394,-112.95057
Prescription,"Black Rose > Rock Canyon > Southern Wasatch > Wasatch Range > Utah",https://www.mountainproject.com/route/106503995/prescription,2.0,-1,"Trad, TR","5.10a R",1,40,40.2652,-111.6237
"Black Rattle","Cosmic Thing Wall > Ferguson Canyon > Central Wasatch > Wasatch Range > Utah",https://www.mountainproject.com/route/122983883/black-rattle,2.2,-1,Trad,5.10a,1,80,40.61273,-111.77827
"The Dingo Bite","Prune Face Slab > Gate Buttress > Little Cottonwood Canyon > Central Wasatch > Wasatch Range > Utah",https://www.mountainproject.com/route/112238999/the-dingo-bite,1.9,-1,Trad,5.10a,1,60,40.57274,-111.75377
Morpheus,"The Thumb Area > Little Cottonwood Canyon > Central Wasatch > Wasatch Range > Utah",https://www.mountainproject.com/route/120606693/morpheus,2.0,-1,Trad,5.10a,1,35,40.5746,-111.7574
Unknown,"Juniper Wall > American Fork Canyon > Southern Wasatch > Wasatch Range > Utah",https://www.mountainproject.com/route/121311758/unknown,2.3,-1,Sport,5.10a,1,50,40.4461,-111.6948
"Linguistic Mystic","Dark Lands (Mid Canyon) > Cove Wash > Saint George > Southwest Utah > Utah",https://www.mountainproject.com/route/114122470/linguistic-mystic,2.0,-1,Trad,5.10a,1,25,37.11769,-113.66602
Murphy,"The Lair > The Maximum > Right Fork > Maple Canyon > Central Utah > Utah",https://www.mountainproject.com/route/114382711/murphy,2.4,-1,Sport,5.10a,1,50,39.563,-111.69024
Petrified,"Coral Canyon Ridge > Saint George > Southwest Utah > Utah",https://www.mountainproject.com/route/106978388/petrified,2.0,-1,Sport,5.10a,1,45,37.1515,-113.4416
"Sneak-a-Peak Arete Direct Start","Beachball Crag > Big Cottonwood Canyon > Central Wasatch > Wasatch Range > Utah",https://www.mountainproject.com/route/105793253/sneak-a-peak-arete-direct-start,2.0,-1,Trad,"5.10a R",1,40,40.623,-111.761
[Redacted],"Black and Tan > Woodbury Road Crags > Utah Hills > Saint George > Southwest Utah > Utah",https://www.mountainproject.com/route/119065510/redacted,2.0,-1,Sport,5.10a,2,100,37.0175,-113.8518
"Botticelli Wasn't a Good Turtle Name","Shredder > Sheep Creek - Windy Ridge > Flaming Gorge > Northeast Utah > Utah",https://www.mountainproject.com/route/120638276/botticelli-wasnt-a-good-turtle-name,2.0,-1,Sport,5.10a,1,40,40.891,-109.76765
"It's Not There","Mammoth > West Sector > Desert Mountain > West Desert > Utah",https://www.mountainproject.com/route/116717778/its-not-there,2.3,-1,Trad,5.10a,1,60,39.75494,-112.64239
"Hep you","Mammoth Wall > Dry Canyon > Southern Wasatch > Wasatch Range > Utah",https://www.mountainproject.com/route/117807017/hep-you,2.0,-1,Sport,5.10a,1,80,40.34579,-111.6723
Unknown,"Sunny Side > Black Rocks > Saint George > Southwest Utah > Utah",https://www.mountainproject.com/route/116529371/unknown,2.0,-1,Sport,5.10a,1,40,37.155,-113.6073
