Route,Location,URL,"Avg Stars","Your Stars","Route Type",Rating,Pitches,Length,"Area Latitude","Area Longitude"
Namaste,"Namaste Wall > South Fork of Taylor > Kolob Canyon > Zion National Park > Southwest Utah > Utah",https://www.mountainproject.com/route/105717892/namaste,3.9,-1,Sport,5.11d,1,140,37.45133,-113.16338
"Coyne Crack","Supercrack Buttress > Indian Creek > Southeast Utah > Utah",https://www.mountainproject.com/route/105717343/coyne-crack,3.7,-1,Trad,5.11d,1,,38.03635,-109.54551
"Banana Dance","Turtle Wall > Saint George > Southwest Utah > Utah",https://www.mountainproject.com/route/106375869/banana-dance,3.8,-1,Sport,5.11d,1,40,37.1498,-113.61204
"Sunset Lanes","The Alley > Sunset Alley > Beaver Dam Road > Saint George > Southwest Utah > Utah",https://www.mountainproject.com/route/109456245/sunset-lanes,3.6,-1,Sport,5.11d,1,100,37.13323,-113.84403
"Zoaster Toaster","The Minimum Crag > Right Fork > Maple Canyon > Central Utah > Utah",https://www.mountainproject.com/route/105808831/zoaster-toaster,3.5,-1,Sport,5.11d,1,90,39.5622,-111.6906
Division,"Division Wall > American Fork Canyon > Southern Wasatch > Wasatch Range > Utah",https://www.mountainproject.com/route/105741254/division,3.4,-1,Sport,5.11d,1,60,40.4503,-111.668
Lunchables,"The Minimum Crag > Right Fork > Maple Canyon > Central Utah > Utah",https://www.mountainproject.com/route/105808849/lunchables,3.1,-1,Sport,5.11d,1,80,39.5622,-111.6906
Pipeline,"The Pipeline > Left Fork > Maple Canyon > Central Utah > Utah",https://www.mountainproject.com/route/106058609/pipeline,3.1,-1,Sport,5.11d,1,40,39.5555,-111.687
"Right Pile","S-Curve - The Pile > S-Curves > Big Cottonwood Canyon > Central Wasatch > Wasatch Range > Utah",https://www.mountainproject.com/route/105742010/right-pile,3.1,-1,Sport,5.11d,1,40,40.63494,-111.72419
"Reaching for Razors","Hell Wall > Hell Area > American Fork Canyon > Southern Wasatch > Wasatch Range > Utah",https://www.mountainproject.com/route/106518812/reaching-for-razors,2.9,-1,Sport,5.11d,1,35,40.44645,-111.69416
"Mother of Pearl","Green Adjective Gully > Little Cottonwood Canyon > Central Wasatch > Wasatch Range > Utah",https://www.mountainproject.com/route/105873388/mother-of-pearl,3.9,-1,Trad,5.11d,1,120,40.5741,-111.7543
Afterglow,"The Minimum Crag > Right Fork > Maple Canyon > Central Utah > Utah",https://www.mountainproject.com/route/105808844/afterglow,2.8,-1,Sport,5.11d,1,80,39.5622,-111.6906
"Le Spunk","The Pipe Dream > Right Fork > Maple Canyon > Central Utah > Utah",https://www.mountainproject.com/route/105837304/le-spunk,2.8,-1,Sport,5.11d,1,60,39.56569,-111.69639
"Coyne Crack","The Thumb Area > Little Cottonwood Canyon > Central Wasatch > Wasatch Range > Utah",https://www.mountainproject.com/route/106275110/coyne-crack,3.3,-1,Trad,5.11d,1,70,40.5746,-111.7574
"Goodbye Cruel World","The Wall > Indian Creek > Southeast Utah > Utah",https://www.mountainproject.com/route/105883370/goodbye-cruel-world,3.7,-1,Trad,5.11d,1,65,38.17139,-109.59666
"Under the Knife","The Blue Walls > American Fork Canyon > Southern Wasatch > Wasatch Range > Utah",https://www.mountainproject.com/route/106957951/under-the-knife,3.5,-1,Sport,5.11d,1,60,40.44338,-111.69085
"Happiness is Coming","Chuckwalla Wall > Saint George > Southwest Utah > Utah",https://www.mountainproject.com/route/106654109/happiness-is-coming,3.0,-1,Sport,5.11d,1,60,37.13919,-113.60558
"Wake and Bake","The Pipe Dream > Right Fork > Maple Canyon > Central Utah > Utah",https://www.mountainproject.com/route/106270871/wake-and-bake,2.8,-1,Sport,5.11d,1,65,39.56569,-111.69639
"Erection or Ejection","Gridwall > The Billboard > The Billboard Trail > American Fork Canyon > Southern Wasatch > Wasatch Range > Utah",https://www.mountainproject.com/route/105739970/erection-or-ejection,3.1,-1,Sport,5.11d,1,,40.45145,-111.67624
"Blood Ruby","Treasure Island > Rock Canyon > Southern Wasatch > Wasatch Range > Utah",https://www.mountainproject.com/route/106204456/blood-ruby,3.8,-1,Sport,5.11d,1,35,40.2655,-111.621
Specter,"Specter Wall > Tanners Gulch > Little Cottonwood Canyon > Central Wasatch > Wasatch Range > Utah",https://www.mountainproject.com/route/106879513/specter,4.0,-1,Sport,5.11d,1,100,40.57744,-111.7029
S-Crack,"The Thumb Area > Little Cottonwood Canyon > Central Wasatch > Wasatch Range > Utah",https://www.mountainproject.com/route/105740657/s-crack,3.1,-1,Trad,5.11d,4,350,40.5746,-111.7574
Fishlips,"Watchtower Main > The Watchtower > Ferguson Canyon > Central Wasatch > Wasatch Range > Utah",https://www.mountainproject.com/route/106194638/fishlips,3.2,-1,Trad,5.11d,1,50,40.61349,-111.77922
"Alley Cat","Cat Wall > Indian Creek > Southeast Utah > Utah",https://www.mountainproject.com/route/105717772/alley-cat,3.6,-1,Trad,5.11d,1,100,38.09105,-109.56274
"Stump the Stars","Perla's Ridge and Environs > Little Cottonwood Canyon > Central Wasatch > Wasatch Range > Utah",https://www.mountainproject.com/route/105831688/stump-the-stars,3.6,-1,Trad,5.11d,1,50,40.5727,-111.777
"Total Recall","Division Wall > American Fork Canyon > Southern Wasatch > Wasatch Range > Utah",https://www.mountainproject.com/route/106056195/total-recall,2.9,-1,Sport,5.11d,1,60,40.4503,-111.668
"Spawn of Provo","The Damascus Gate > Right Fork > Maple Canyon > Central Utah > Utah",https://www.mountainproject.com/route/109071262/spawn-of-provo,2.6,-1,Sport,5.11d,1,60,39.56372,-111.6937
"Dog Man","Warrior Wall > Ruth Lake > Uinta Mountains > Northeast Utah > Utah",https://www.mountainproject.com/route/106515879/dog-man,3.5,-1,Sport,5.11d,1,50,40.73053,-110.87939
"One percent","The Compound > Maple Canyon Road > Maple Canyon > Central Utah > Utah",https://www.mountainproject.com/route/108135430/one-percent,3.0,-1,Sport,5.11d,1,,39.56843,-111.688
"Pudgy Gumbies","Pentapitch Area > Little Cottonwood Canyon > Central Wasatch > Wasatch Range > Utah",https://www.mountainproject.com/route/106017999/pudgy-gumbies,3.6,-1,Trad,"5.11d PG13",1,85,40.56859,-111.73767
"Learning to Fly","The Balcony > Rock Canyon > Southern Wasatch > Wasatch Range > Utah",https://www.mountainproject.com/route/106161407/learning-to-fly,3.8,-1,Sport,5.11d,1,,40.26446,-111.61018
"Mission Control","Cannabis Wall > American Fork Canyon > Southern Wasatch > Wasatch Range > Utah",https://www.mountainproject.com/route/106473947/mission-control,2.3,-1,Sport,5.11d,1,60,40.44647,-111.68747
"Music for Chameleons","Gridwall > The Billboard > The Billboard Trail > American Fork Canyon > Southern Wasatch > Wasatch Range > Utah",https://www.mountainproject.com/route/106564686/music-for-chameleons,2.9,-1,Sport,5.11d,1,,40.45145,-111.67624
"Virtual Reality","White Wave Wall > American Fork Canyon > Southern Wasatch > Wasatch Range > Utah",https://www.mountainproject.com/route/107528959/virtual-reality,2.7,-1,Sport,5.11d,1,60,40.4507,-111.6711
Astroprojection,"Riptide Wall > Parley's Canyon > Central Wasatch > Wasatch Range > Utah",https://www.mountainproject.com/route/105740891/astroprojection,3.1,-1,"Trad, Sport, TR",5.11d,1,80,40.71056,-111.79218
"Farmers Tan","Chuckwalla Wall > Saint George > Southwest Utah > Utah",https://www.mountainproject.com/route/107142270/farmers-tan,2.7,-1,Sport,5.11d,1,50,37.13919,-113.60558
[Redacted],"Broads Fork > Big Cottonwood Canyon > Central Wasatch > Wasatch Range > Utah",https://www.mountainproject.com/route/106233357/redacted,3.1,-1,Sport,5.11d,1,40,40.63193,-111.72605
"Wandering Wanda","The Wailing Wall > Welcome Springs > Saint George > Southwest Utah > Utah",https://www.mountainproject.com/route/111764638/wandering-wanda,3.2,-1,Sport,5.11d,1,85,37.10106,-113.89944
"Over the Transom","Hurricave > Saint George > Southwest Utah > Utah",https://www.mountainproject.com/route/111773226/over-the-transom,2.3,-1,Sport,5.11d,1,40,37.11795,-113.30549
"Get a Pump or Jump","Tower Of Babel > Ferguson Canyon > Central Wasatch > Wasatch Range > Utah",https://www.mountainproject.com/route/106014085/get-a-pump-or-jump,3.8,-1,Trad,5.11d,1,60,40.61283,-111.77872
Dolofright,"Dolomite Spire > River Road > Southeast Utah > Utah",https://www.mountainproject.com/route/105718174/dolofright,4.0,-1,Trad,"5.11d R",2,200,38.64866,-109.47141
"November Shivers","Stone Garden > Uinta Mountains > Northeast Utah > Utah",https://www.mountainproject.com/route/112058086/november-shivers,3.1,-1,Sport,5.11d,1,35,40.74985,-110.87912
"Amazing Grace","Reids Basin > Uinta Mountains > Northeast Utah > Utah",https://www.mountainproject.com/route/114538524/amazing-grace,3.6,-1,"Sport, Alpine",5.11d,1,95,40.7095,-110.91145
"A.G Tumnus","Rodent Ranch > Logan Canyon > Cache Valley > Northern Wasatch > Wasatch Range > Utah",https://www.mountainproject.com/route/106813825/ag-tumnus,3.0,-1,Sport,5.11d,1,40,41.80592,-111.63168
"The Eleven","South Narrows > Upper Narrows > Narrows > South Willow Canyon > Stansbury Mountains > West Desert > Utah",https://www.mountainproject.com/route/109321012/the-eleven,3.1,-1,Sport,5.11d,1,80,40.49128,-112.59538
"The Sorcerer","The Sorcerer > River Road > Southeast Utah > Utah",https://www.mountainproject.com/route/106758611/the-sorcerer,4.0,-1,Trad,5.11d,3,300,38.6276,-109.4966
"Drop the Clutch","Visionary Wall > Tank Canyon > American Fork Canyon > Southern Wasatch > Wasatch Range > Utah",https://www.mountainproject.com/route/106502139/drop-the-clutch,3.4,-1,Sport,5.11d,1,85,40.45039,-111.68789
"Beam Me Up Scotty","Waterfront, The > Little Cottonwood Canyon > Central Wasatch > Wasatch Range > Utah",https://www.mountainproject.com/route/116775670/beam-me-up-scotty,3.7,-1,Trad,"5.11d R",1,120,40.5739,-111.7562
"Unnamed Sport Climb #1","Pine Canyon > Lower Buckhorn > Buckhorn Wash > San Rafael Swell - North > San Rafael Swell > South Central Utah > Utah",https://www.mountainproject.com/route/113860972/unnamed-sport-climb-1,3.5,-1,Sport,5.11d,1,75,39.10913,-110.66231
"Hall of Smears","South Fork > South Fork of Taylor > Kolob Canyon > Zion National Park > Southwest Utah > Utah",https://www.mountainproject.com/route/105796265/hall-of-smears,3.4,-1,Sport,5.11d,1,100,37.45082,-113.16139
"Neptune Cocktail","The Pipeline > Left Fork > Maple Canyon > Central Utah > Utah",https://www.mountainproject.com/route/107815993/neptune-cocktail,2.4,-1,Sport,5.11d,1,,39.5555,-111.687
"Blue Suede Shoes","The Starting Block > The Overlook > Brian Head > Southwest Utah > Utah",https://www.mountainproject.com/route/108358024/blue-suede-shoes,3.2,-1,"Sport, Alpine",5.11d,1,40,37.7154,-112.7747
"Deprivation 29","Camels Head Rincon > Upper Buckhorn > Buckhorn Wash > San Rafael Swell - North > San Rafael Swell > South Central Utah > Utah",https://www.mountainproject.com/route/114069720/deprivation-29,3.5,-1,Trad,5.11d,5,420,39.13276,-110.69292
"The Adventure Route Second Pitch","Rappel Wall Area > Cedar Canyon > Cedar City > Southwest Utah > Utah",https://www.mountainproject.com/route/112003661/the-adventure-route-second-pitch,4.0,-1,Sport,5.11d,1,90,37.61602,-112.93205
"Pain Chamber","Tucupit > North Fork of Taylor > Kolob Canyon > Zion National Park > Southwest Utah > Utah",https://www.mountainproject.com/route/112084539/pain-chamber,4.0,-1,Trad,5.11d,4,475,37.46471,-113.17594
"Vile of Crack","9th Street > Ogden > Northern Wasatch > Wasatch Range > Utah",https://www.mountainproject.com/route/106030690/vile-of-crack,2.9,-1,Sport,5.11d,1,30,41.24972,-111.93404
Unknown,"Critic's Choice > Indian Creek > Southeast Utah > Utah",https://www.mountainproject.com/route/119848654/unknown,3.6,-1,Trad,5.11d,1,85,38.03075,-109.60173
"Kleiner Krieg","Cold War Crags > Mill Creek > La Sal Mountains > Southeast Utah > Utah",https://www.mountainproject.com/route/122652747/kleiner-krieg,3.5,-1,"Trad, TR",5.11d,2,130,38.48349,-109.35649
"White Fish","Chief Wall > Ruth Lake > Uinta Mountains > Northeast Utah > Utah",https://www.mountainproject.com/route/109475185/white-fish,3.1,-1,Sport,5.11d,1,45,40.7313,-110.87607
"Unknown Renown","The Wailing Wall > Welcome Springs > Saint George > Southwest Utah > Utah",https://www.mountainproject.com/route/111773099/unknown-renown,3.0,-1,Sport,5.11d,1,100,37.10106,-113.89944
"Diamond Dogs","Old School Rock > Tank Canyon > American Fork Canyon > Southern Wasatch > Wasatch Range > Utah",https://www.mountainproject.com/route/106834165/diamond-dogs,4.0,-1,Sport,5.11d,1,115,40.4469,-111.6881
"Trust in Tusting (T.iN.T.)","Ibantik Lake > Uinta Mountains > Northeast Utah > Utah",https://www.mountainproject.com/route/119334916/trust-in-tusting-tint,3.8,-1,"Trad, Alpine",5.11d,2,200,40.70975,-110.94969
"Red Alert for Humanity","The Alcove > Causey Reservoir > Northern Wasatch > Wasatch Range > Utah",https://www.mountainproject.com/route/121658456/red-alert-for-humanity,4.0,-1,Sport,5.11d,1,70,41.32182,-111.55245
"Paved with Good Intentions","Gateway to the Underworld > Causey Reservoir > Northern Wasatch > Wasatch Range > Utah",https://www.mountainproject.com/route/121658389/paved-with-good-intentions,4.0,-1,Sport,5.11d,1,45,41.32259,-111.54986
"The Traditionalist","Asbury Park > Asbury Park > The Schoolroom > Ogden > Northern Wasatch > Wasatch Range > Utah",https://www.mountainproject.com/route/106891503/the-traditionalist,3.8,-1,Trad,5.11d,1,50,41.2217,-111.9236
"The Gauntlet","Gauntlet Wall > North Fork > La Sal Mountains > Southeast Utah > Utah",https://www.mountainproject.com/route/107928119/the-gauntlet,4.0,-1,Sport,5.11d,1,110,38.5632,-109.542
"Too Much Cock Not Enough Lycra","Graveside Matter Slab > Graveside Matter Wall > Cedar Canyon > Cedar City > Southwest Utah > Utah",https://www.mountainproject.com/route/106755007/too-much-cock-not-enough-lycra,3.4,-1,Sport,5.11d,1,55,37.61637,-112.92946
"The Procedure","Dem Bones Wall > Crawdad Canyon / Veyo > Saint George > Southwest Utah > Utah",https://www.mountainproject.com/route/111822366/the-procedure,4.0,-1,Sport,5.11d,1,50,37.33679,-113.68712
Black,"The Adjective > Rock Canyon > Southern Wasatch > Wasatch Range > Utah",https://www.mountainproject.com/route/106494613/black,3.4,-1,Sport,5.11d,1,40,40.2645,-111.612
"Take it for the Team","The Pipe Dream > Right Fork > Maple Canyon > Central Utah > Utah",https://www.mountainproject.com/route/106515472/take-it-for-the-team,2.6,-1,Sport,5.11d,1,65,39.56569,-111.69639
"Sine Wave","Shangri La > Jungle, on the Aquarius Plateau > South Central Utah > Utah",https://www.mountainproject.com/route/116077685/sine-wave,3.5,-1,"Sport, Alpine",5.11d,1,100,37.77957,-111.90183
Mindy,"Bumper Wall > Maple Canyon Road > Maple Canyon > Central Utah > Utah",https://www.mountainproject.com/route/112882678/mindy,2.7,-1,Sport,5.11d,1,60,39.55484,-111.671
Crap-O,"The Pipeline > Left Fork > Maple Canyon > Central Utah > Utah",https://www.mountainproject.com/route/106500980/crap-o,2.2,-1,Sport,5.11d,1,,39.5555,-111.687
Illuminator,"South-Facing Wall > The Hinterlands > Southern Wasatch > Wasatch Range > Utah",https://www.mountainproject.com/route/110137573/illuminator,3.3,-1,Sport,5.11d,1,50,40.27488,-111.62795
"The Mayor","Offwidth City > Long Canyon > Potash Road > Southeast Utah > Utah",https://www.mountainproject.com/route/108861599/the-mayor,3.5,-1,Trad,5.11d,3,350,38.54444,-109.65438
"Elopement Ladder","Cliffs of Insanity > Logan Canyon > Cache Valley > Northern Wasatch > Wasatch Range > Utah",https://www.mountainproject.com/route/106813656/elopement-ladder,3.7,-1,Sport,5.11d,1,80,41.8027,-111.6292
"Doctor Feel Good","Utopia > Logan Canyon > Cache Valley > Northern Wasatch > Wasatch Range > Utah",https://www.mountainproject.com/route/106835349/doctor-feel-good,3.6,-1,Sport,5.11d,1,60,41.81216,-111.62677
"Sodomizing Satan","Low Standard Cave > Maple Canyon Road > Maple Canyon > Central Utah > Utah",https://www.mountainproject.com/route/107136665/sodomizing-satan,2.5,-1,Sport,5.11d,1,40,39.55839,-111.68761
"The Flakes of Wrath","The Temple > American Fork Canyon > Southern Wasatch > Wasatch Range > Utah",https://www.mountainproject.com/route/108193189/the-flakes-of-wrath,3.7,-1,Sport,5.11d,1,115,40.4416,-111.7
"Exsqueeze Me","Coffin Buttress > Little Cottonwood Canyon > Central Wasatch > Wasatch Range > Utah",https://www.mountainproject.com/route/105742013/exsqueeze-me,2.9,-1,Sport,5.11d,1,60,40.57418,-111.77065
"Little Big Wall","The Membrane > American Fork Canyon > Southern Wasatch > Wasatch Range > Utah",https://www.mountainproject.com/route/106917974/little-big-wall,2.7,-1,Sport,5.11d,1,40,40.44666,-111.68668
"Bad Bananas","Bad Bananas > Rock Canyon > Southern Wasatch > Wasatch Range > Utah",https://www.mountainproject.com/route/106511199/bad-bananas,3.2,-1,Trad,"5.11d PG13",4,370,40.2666,-111.6263
[Redacted],"The Starting Block > The Overlook > Brian Head > Southwest Utah > Utah",https://www.mountainproject.com/route/106576605/redacted,2.8,-1,"Sport, Alpine",5.11d,1,40,37.7154,-112.7747
"Suburban Mailbox","Bird Nest Boulder > Pioneer Park > Saint George > Southwest Utah > Utah",https://www.mountainproject.com/route/107800043/suburban-mailbox,3.2,-1,"TR, Boulder","5.11d V4",1,15,37.11712,-113.57607
"Thunder Ball","South Narrows > Upper Narrows > Narrows > South Willow Canyon > Stansbury Mountains > West Desert > Utah",https://www.mountainproject.com/route/110698819/thunder-ball,2.4,-1,Sport,5.11d,1,50,40.49128,-112.59538
"Storming the Castle","Cliffs of Insanity > Indian Creek > Southeast Utah > Utah",https://www.mountainproject.com/route/106671921/storming-the-castle,3.4,-1,Trad,5.11d,1,120,38.15145,-109.59834
"Unknown 5.11d","Drone Wall > Hobble Creek Canyon > Southern Wasatch > Wasatch Range > Utah",https://www.mountainproject.com/route/107231280/unknown-511d,3.3,-1,Sport,5.11d,1,40,40.1716,-111.471
"This Is Almost the Place","Green Adjective Gully > Little Cottonwood Canyon > Central Wasatch > Wasatch Range > Utah",https://www.mountainproject.com/route/106206283/this-is-almost-the-place,2.7,-1,Trad,5.11d,1,60,40.5741,-111.7543
"Dreamy Clouds","P Crags > Eastern Reef Area.. AKA The Sandstone Alps > San Rafael Swell - South > San Rafael Swell > South Central Utah > Utah",https://www.mountainproject.com/route/105718579/dreamy-clouds,3.5,-1,"Trad, Aid","5.11d A0 R",7,1000,38.88347,-110.45548
"Minute Man","Sabbatical Wall > Indian Creek > Southeast Utah > Utah",https://www.mountainproject.com/route/107553784/minute-man,2.9,-1,Trad,5.11d,1,40,38.02086,-109.58064
"Black Ops","Green Adjective Gully > Little Cottonwood Canyon > Central Wasatch > Wasatch Range > Utah",https://www.mountainproject.com/route/114118774/black-ops,3.0,-1,"Trad, TR",5.11d,1,90,40.5741,-111.7543
Melonoma,"Melon Wall > Middle Fork > Maple Canyon > Central Utah > Utah",https://www.mountainproject.com/route/109324441/melonoma,2.9,-1,Sport,5.11d,1,45,39.55807,-111.68967
Cyberlag,"Hard Rock > American Fork Canyon > Southern Wasatch > Wasatch Range > Utah",https://www.mountainproject.com/route/108309654/cyberlag,2.3,-1,Sport,5.11d,1,60,40.4507,-111.6717
"Cling or Swing","Fucoidal Quartzite > Logan Canyon > Cache Valley > Northern Wasatch > Wasatch Range > Utah",https://www.mountainproject.com/route/106707726/cling-or-swing,3.2,-1,Sport,5.11d,1,50,41.78063,-111.64374
Unknown,"China Cave Main > China Wall > Logan Canyon > Cache Valley > Northern Wasatch > Wasatch Range > Utah",https://www.mountainproject.com/route/114427175/unknown,2.7,-1,Sport,5.11d,1,60,41.78535,-111.64221
"The Gravity Well","The Gravity Well > Box Canyon > Maple Canyon Road > Maple Canyon > Central Utah > Utah",https://www.mountainproject.com/route/106854268/the-gravity-well,3.3,-1,Sport,5.11d,1,65,39.5551,-111.6752
"Slope On A Rope","Ganja Wall > Ophir Canyon > Oquirrh Mountains > West Desert > Utah",https://www.mountainproject.com/route/107697002/slope-on-a-rope,3.0,-1,Sport,5.11d,1,25,40.35953,-112.27356
Explosivo,"Tree Crack Area > The Schoolroom > Ogden > Northern Wasatch > Wasatch Range > Utah",https://www.mountainproject.com/route/115364655/explosivo,3.2,-1,Sport,5.11d,1,,41.2194,-111.924
"Tipping the Vessel of Knowledge","The Getaway Wall > Notch Lake > Uinta Mountains > Northeast Utah > Utah",https://www.mountainproject.com/route/107758347/tipping-the-vessel-of-knowledge,3.0,-1,Sport,5.11d,1,30,40.70396,-110.9349
"Dazed and Refused","Bolt Slab > Rock Canyon > Southern Wasatch > Wasatch Range > Utah",https://www.mountainproject.com/route/106567088/dazed-and-refused,3.3,-1,Trad,5.11d,1,60,40.2654,-111.6221
"The Serpent","Peeler Face > Black Peeler Buttress > Little Cottonwood Canyon > Central Wasatch > Wasatch Range > Utah",https://www.mountainproject.com/route/105741347/the-serpent,3.3,-1,"Trad, Aid","5.11d A3",2,200,40.5741,-111.7479
"Chocolate Messiah","Hero Wall > Pine Valley > Saint George > Southwest Utah > Utah",https://www.mountainproject.com/route/107293946/chocolate-messiah,3.3,-1,Sport,5.11d,1,65,37.4095,-113.5373
Oni,"Unknown Pleasures > American Fork Canyon > Southern Wasatch > Wasatch Range > Utah",https://www.mountainproject.com/route/108365909/oni,2.8,-1,Sport,5.11d,1,55,40.4445,-111.6966
Exile,"Isolation Wall > American Fork Canyon > Southern Wasatch > Wasatch Range > Utah",https://www.mountainproject.com/route/113114704/exile,2.4,-1,Sport,5.11d,1,35,40.44649,-111.68579
"The Cross","Chuckwalla Wall > Saint George > Southwest Utah > Utah",https://www.mountainproject.com/route/106375903/the-cross,2.5,-1,Sport,5.11d,1,50,37.13919,-113.60558
"Air Express","Altered States Gully > Little Cottonwood Canyon > Central Wasatch > Wasatch Range > Utah",https://www.mountainproject.com/route/105741638/air-express,2.9,-1,Trad,"5.11d R",1,110,40.57388,-111.75938
"Moon Walk","The Millstone > Big Cottonwood Canyon > Central Wasatch > Wasatch Range > Utah",https://www.mountainproject.com/route/106384789/moon-walk,2.8,-1,Sport,5.11d,1,70,40.62738,-111.71719
"Edge of Madness","9th Street > Ogden > Northern Wasatch > Wasatch Range > Utah",https://www.mountainproject.com/route/106569565/edge-of-madness,2.4,-1,"Sport, TR",5.11d,1,40,41.24972,-111.93404
Virga,"Tower Three > Hellgate Cliffs > Little Cottonwood Canyon > Central Wasatch > Wasatch Range > Utah",https://www.mountainproject.com/route/107293752/virga,3.0,-1,Sport,5.11d,1,100,40.59051,-111.64858
"Two Pinches to Paradise","PA's Mother > Rock Canyon > Southern Wasatch > Wasatch Range > Utah",https://www.mountainproject.com/route/106167923/two-pinches-to-paradise,2.7,-1,Sport,5.11d,1,,40.2656,-111.6204
"Dream Destroyer","Forgotten Trails > American Fork Canyon > Southern Wasatch > Wasatch Range > Utah",https://www.mountainproject.com/route/107209359/dream-destroyer,2.3,-1,Sport,5.11d,1,60,40.4451,-111.6911
"All Bark and No Bite","The Doghouse > Island In The Sky > Snow Canyon State Park > Saint George > Southwest Utah > Utah",https://www.mountainproject.com/route/107739983/all-bark-and-no-bite,3.0,-1,Sport,5.11d,1,60,37.1933,-113.6454
"Mach 5","The Speed Trap > Big Cottonwood Canyon > Central Wasatch > Wasatch Range > Utah",https://www.mountainproject.com/route/106465652/mach-5,2.3,-1,Sport,5.11d,1,60,40.6232,-111.7563
"If Looks Could Kill","Crescent Crack Buttress > Little Cottonwood Canyon > Central Wasatch > Wasatch Range > Utah",https://www.mountainproject.com/route/105741362/if-looks-could-kill,2.5,-1,Sport,"5.11d R",1,60,40.5733,-111.771
Zot,"Plumb Line Gully > Little Cottonwood Canyon > Central Wasatch > Wasatch Range > Utah",https://www.mountainproject.com/route/111385438/zot,2.3,-1,Trad,"5.11d R",1,55,40.57437,-111.75696
"A Dangerous But Irresistible Pastime","Shinobe > Parowan Gap (all crags) > Parowan > Southwest Utah > Utah",https://www.mountainproject.com/route/113873180/a-dangerous-but-irresistible-pastime,3.0,-1,Sport,5.11d,1,40,37.89782,-112.94882
"Allelopathy Arete","Lower Jungle > Jungle, on the Aquarius Plateau > South Central Utah > Utah",https://www.mountainproject.com/route/107200954/allelopathy-arete,3.0,-1,"Sport, Alpine",5.11d,1,70,37.7503,-111.8708
Exodus,"Trenchtown > Upper Dakota Crag > La Sal Mountains > Southeast Utah > Utah",https://www.mountainproject.com/route/110794065/exodus,3.0,-1,Sport,5.11d,1,80,38.47028,-109.27448
B-Positive,"East Gate Buttress > Gate Buttress > Little Cottonwood Canyon > Central Wasatch > Wasatch Range > Utah",https://www.mountainproject.com/route/119869613/b-positive,3.0,-1,Sport,5.11d,1,80,40.57387,-111.75163
"Plumber's Crack","Zen Wall > Saint George > Southwest Utah > Utah",https://www.mountainproject.com/route/106924953/plumbers-crack,3.0,-1,Trad,5.11d,1,60,37.07013,-113.64737
"The Persistence of Memory","Art Major Wall > Big Cottonwood Canyon > Central Wasatch > Wasatch Range > Utah",https://www.mountainproject.com/route/112176938/the-persistence-of-memory,3.0,-1,Sport,5.11d,1,60,40.6237,-111.771
[Redacted],"Industrial Wall > Coalpit Gulch > Little Cottonwood Canyon > Central Wasatch > Wasatch Range > Utah",https://www.mountainproject.com/route/109281230/redacted,3.0,-1,Sport,"5.11d R",1,,40.567,-111.73761
"High on Boulder","The Membrane > American Fork Canyon > Southern Wasatch > Wasatch Range > Utah",https://www.mountainproject.com/route/108295856/high-on-boulder,2.6,-1,Sport,5.11d,1,40,40.44666,-111.68668
"Stay on the Porch","Black Magic > American Fork Canyon > Southern Wasatch > Wasatch Range > Utah",https://www.mountainproject.com/route/107307880/stay-on-the-porch,2.3,-1,Sport,5.11d,1,60,40.44472,-111.69582
Sailing,"Cetacean Main > Cetacean Wall > Cedar Canyon > Cedar City > Southwest Utah > Utah",https://www.mountainproject.com/route/106770249/sailing,2.8,-1,Sport,5.11d,1,55,37.61578,-112.9328
Dirt,"North Narrows > Upper Narrows > Narrows > South Willow Canyon > Stansbury Mountains > West Desert > Utah",https://www.mountainproject.com/route/109079698/dirt,2.0,-1,Sport,5.11d,1,50,40.4916,-112.59539
"Cuddlebunny Tower (Original Route)","The Marching Men > Arches National Park > Southeast Utah > Utah",https://www.mountainproject.com/route/105953404/cuddlebunny-tower-original-route,2.8,-1,Trad,5.11d,1,,38.78226,-109.6836
"""ET"" Extremely Tough Slab","South Fork > South Fork of Taylor > Kolob Canyon > Zion National Park > Southwest Utah > Utah",https://www.mountainproject.com/route/107648418/et-extremely-tough-slab,3.0,-1,Sport,"5.11d PG13",1,,37.45082,-113.16139
Hollowpoint,"Castleton Tower > Castle Valley > Southeast Utah > Utah",https://www.mountainproject.com/route/105718357/hollowpoint,3.0,-1,Trad,5.11d,1,140,38.651,-109.3678
"Vinegar of Hostility","The Getaway Wall > Notch Lake > Uinta Mountains > Northeast Utah > Utah",https://www.mountainproject.com/route/113294421/vinegar-of-hostility,3.0,-1,Sport,5.11d,1,70,40.70396,-110.9349
"Trash Man","Public Service Wall > Indian Creek > Southeast Utah > Utah",https://www.mountainproject.com/route/107863292/trash-man,2.8,-1,Trad,5.11d,1,,38.10607,-109.57104
"Superintendent's Limp Dick","The B-52 Wall > American Fork Canyon > Southern Wasatch > Wasatch Range > Utah",https://www.mountainproject.com/route/118014700/superintendents-limp-dick,2.9,-1,Sport,5.11d,1,50,40.44548,-111.69298
300,"Main Area > Bowling Alley > Cedar Canyon > Cedar City > Southwest Utah > Utah",https://www.mountainproject.com/route/106439662/300,3.0,-1,Sport,5.11d,1,45,37.6722,-113.0375
"Purple Horizons","East Gate Buttress > Gate Buttress > Little Cottonwood Canyon > Central Wasatch > Wasatch Range > Utah",https://www.mountainproject.com/route/111883358/purple-horizons,2.8,-1,Trad,5.11d,1,75,40.57387,-111.75163
Idiotic,"The Adjective > Rock Canyon > Southern Wasatch > Wasatch Range > Utah",https://www.mountainproject.com/route/106198395/idiotic,2.8,-1,Sport,5.11d,1,35,40.2645,-111.612
"Hey Ewe","Upper > Ewe Wall > Lambs Knoll > Saint George > Southwest Utah > Utah",https://www.mountainproject.com/route/112572826/hey-ewe,2.7,-1,Sport,5.11d,1,60,37.30783,-113.11008
"The Fray","War Zone > Island In The Sky > Snow Canyon State Park > Saint George > Southwest Utah > Utah",https://www.mountainproject.com/route/121730942/the-fray,3.0,-1,Sport,5.11d,1,50,37.19589,-113.64379
"A Little Razz-Ma-Tazz and All That Jazz","Plumb Line Gully > Little Cottonwood Canyon > Central Wasatch > Wasatch Range > Utah",https://www.mountainproject.com/route/105790115/a-little-razz-ma-tazz-and-all-that-jazz,2.6,-1,Trad,5.11d,1,20,40.57437,-111.75696
"Swan Song","West Canyon > Snow Canyon State Park > Saint George > Southwest Utah > Utah",https://www.mountainproject.com/route/112218041/swan-song,3.0,-1,Sport,5.11d,3,240,37.1974,-113.64919
"Hector's 11","North Side > Aerial Wall > Garth Rocks > Saint George > Southwest Utah > Utah",https://www.mountainproject.com/route/110138487/hectors-11,3.0,-1,Sport,5.11d,1,,37.04746,-113.51275
"Shadow of Doubt","Shadow Buttress > Ibex > West Desert > Utah",https://www.mountainproject.com/route/107580190/shadow-of-doubt,3.0,-1,"Trad, Sport",5.11d,3,240,38.9922,-113.3894
Radiance,"South-Facing Wall > The Hinterlands > Southern Wasatch > Wasatch Range > Utah",https://www.mountainproject.com/route/110137587/radiance,2.5,-1,Sport,5.11d,1,80,40.27488,-111.62795
UPL,"The Basement > Asbury Park > The Schoolroom > Ogden > Northern Wasatch > Wasatch Range > Utah",https://www.mountainproject.com/route/107062446/upl,3.0,-1,Sport,5.11d,1,,41.2217,-111.9236
"La Cantina","La Cantina > Ogden Canyon > Ogden > Northern Wasatch > Wasatch Range > Utah",https://www.mountainproject.com/route/106913648/la-cantina,3.0,-1,Trad,"5.11d R",1,50,41.2368,-111.929
Mottephobia,"Other Mill Creek Areas > Mill Creek > La Sal Mountains > Southeast Utah > Utah",https://www.mountainproject.com/route/123172667/mottephobia,3.0,-1,Trad,5.11d,1,70,38.49974,-109.30695
"Four Runner","Silver Gate > American Fork Canyon > Southern Wasatch > Wasatch Range > Utah",https://www.mountainproject.com/route/118713102/four-runner,3.0,-1,Sport,5.11d,4,290,40.47177,-111.65726
"White Wolf","Chief Wall > Ruth Lake > Uinta Mountains > Northeast Utah > Utah",https://www.mountainproject.com/route/123038711/white-wolf,3.0,-1,Sport,5.11d,1,45,40.7313,-110.87607
"Media Squeezer","The Wailing Wall > Welcome Springs > Saint George > Southwest Utah > Utah",https://www.mountainproject.com/route/117849243/media-squeezer,3.0,-1,Sport,5.11d,1,50,37.10106,-113.89944
"Air of Supremacy","Margin for Air Wall and Environs > Big Cottonwood Canyon > Central Wasatch > Wasatch Range > Utah",https://www.mountainproject.com/route/118050395/air-of-supremacy,3.0,-1,Trad,5.11d,1,,40.6231,-111.774
"Dr. Luval Goes to Harvard","Higher Education Ridge, West Face > Gully of Higher Education Area > Big Cottonwood Canyon > Central Wasatch > Wasatch Range > Utah",https://www.mountainproject.com/route/113260550/dr-luval-goes-to-harvard,3.0,-1,Trad,5.11d,1,65,40.63012,-111.74032
"Sweet Tart","Killer Crag > Ogden Canyon > Ogden > Northern Wasatch > Wasatch Range > Utah",https://www.mountainproject.com/route/118812585/sweet-tart,3.0,-1,Sport,5.11d,1,35,41.24689,-111.88375
"Grey Water","Creek Side > Lower Narrows > Narrows > South Willow Canyon > Stansbury Mountains > West Desert > Utah",https://www.mountainproject.com/route/113222808/grey-water,3.0,-1,Sport,5.11d,1,40,40.4919,-112.58458
"Pop Culture","Quality Cave > Logan Canyon > Cache Valley > Northern Wasatch > Wasatch Range > Utah",https://www.mountainproject.com/route/107814043/pop-culture,3.0,-1,Sport,5.11d,1,30,41.76882,-111.69978
"Angle of Deception","H Crags > Eastern Reef Area.. AKA The Sandstone Alps > San Rafael Swell - South > San Rafael Swell > South Central Utah > Utah",https://www.mountainproject.com/route/106306234/angle-of-deception,3.0,-1,Trad,"5.11d PG13",3,400,38.88347,-110.45548
"Stemming the Tide","The Blue Walls > American Fork Canyon > Southern Wasatch > Wasatch Range > Utah",https://www.mountainproject.com/route/123254446/stemming-the-tide,3.3,-1,Sport,5.11d,1,50,40.44338,-111.69085
"Forgive Yourself","Zen Wall > Saint George > Southwest Utah > Utah",https://www.mountainproject.com/route/106990395/forgive-yourself,2.6,-1,Sport,5.11d,1,90,37.07013,-113.64737
"Rotert's Rooter","Crescent Crack Buttress > Little Cottonwood Canyon > Central Wasatch > Wasatch Range > Utah",https://www.mountainproject.com/route/106058815/roterts-rooter,2.5,-1,Trad,5.11d,1,40,40.5733,-111.771
"Vagrant Circle","Chadbourne Crag > Neff's Canyon > Central Wasatch > Wasatch Range > Utah",https://www.mountainproject.com/route/108223878/vagrant-circle,2.3,-1,Sport,5.11d,1,50,40.66905,-111.76072
"Mouthful of Cavities","Lower Narrows > Lower Narrows > Narrows > South Willow Canyon > Stansbury Mountains > West Desert > Utah",https://www.mountainproject.com/route/114327201/mouthful-of-cavities,2.4,-1,Sport,5.11d,1,50,40.49243,-112.58381
"It's a Long Way to the Top","AC/DC Wall > Rock Canyon > Southern Wasatch > Wasatch Range > Utah",https://www.mountainproject.com/route/110304430/its-a-long-way-to-the-top,2.8,-1,Sport,5.11d,1,90,40.267,-111.6246
Pyromelana,"Fern's Ledge > South Willow Canyon > Stansbury Mountains > West Desert > Utah",https://www.mountainproject.com/route/118992431/pyromelana,2.6,-1,Sport,5.11d,1,70,40.49291,-112.58395
Golden,"9th Street > Ogden > Northern Wasatch > Wasatch Range > Utah",https://www.mountainproject.com/route/111743339/golden,2.5,-1,Sport,"5.11d R",1,,41.24972,-111.93404
Cat-O-Nine-Tails,"Strone Crag > Big Cottonwood Canyon > Central Wasatch > Wasatch Range > Utah",https://www.mountainproject.com/route/110761045/cat-o-nine-tails,2.6,-1,Sport,5.11d,1,70,40.6214,-111.7461
"Sticks and Bones","Rappel Wall Area > Cedar Canyon > Cedar City > Southwest Utah > Utah",https://www.mountainproject.com/route/106808748/sticks-and-bones,2.6,-1,Sport,5.11d,1,95,37.61602,-112.93205
"High Tide","South-Facing Wall > The Hideaway > American Fork Canyon > Southern Wasatch > Wasatch Range > Utah",https://www.mountainproject.com/route/120504100/high-tide,3.0,-1,Sport,5.11d,1,85,40.4477,-111.7005
Egghead,"Higher Education Ridge, West Face > Gully of Higher Education Area > Big Cottonwood Canyon > Central Wasatch > Wasatch Range > Utah",https://www.mountainproject.com/route/113258297/egghead,2.5,-1,Sport,5.11d,1,60,40.63012,-111.74032
"Nuclear Fallout","Mile 385 Area > Logan Canyon > Cache Valley > Northern Wasatch > Wasatch Range > Utah",https://www.mountainproject.com/route/106834232/nuclear-fallout,2.2,-1,Sport,5.11d,1,80,41.79951,-111.63754
"When You're Feeling Sinister","Bad Bananas > Rock Canyon > Southern Wasatch > Wasatch Range > Utah",https://www.mountainproject.com/route/106607208/when-youre-feeling-sinister,2.3,-1,Sport,5.11d,1,50,40.2666,-111.6263
"Divine Right","The Principality > Brian Head > Southwest Utah > Utah",https://www.mountainproject.com/route/107184744/divine-right,2.7,-1,Sport,5.11d,1,65,37.7,-112.6923
Psychotron,"Neversweat Wall > Right Fork > Maple Canyon > Central Utah > Utah",https://www.mountainproject.com/route/110554667/psychotron,2.4,-1,Sport,5.11d,1,60,39.56331,-111.69238
"The Dark Along the Way","Bridge Area > Maple Canyon Road > Maple Canyon > Central Utah > Utah",https://www.mountainproject.com/route/106129047/the-dark-along-the-way,2.3,-1,Sport,5.11d,1,60,39.555,-111.6832
"Up in Arms","Choss Garden > Big Cottonwood Canyon > Central Wasatch > Wasatch Range > Utah",https://www.mountainproject.com/route/107251699/up-in-arms,2.3,-1,Sport,5.11d,1,50,40.6341,-111.73328
Walkara,"The Frontera > Maple Canyon Road > Maple Canyon > Central Utah > Utah",https://www.mountainproject.com/route/114478512/walkara,2.5,-1,Sport,5.11d,1,,39.5551,-111.6795
"the Moan Zone","The Zone > Box Canyon > Maple Canyon Road > Maple Canyon > Central Utah > Utah",https://www.mountainproject.com/route/114389457/the-moan-zone,2.2,-1,Sport,"5.11d PG13",1,55,39.55713,-111.67589
"White Harlem","Sprocket Rocks > Cedar City > Southwest Utah > Utah",https://www.mountainproject.com/route/106751519/white-harlem,2.5,-1,Sport,5.11d,1,30,37.6429,-113.28174
Dreamy,"Maximum Main Wall > The Maximum > Right Fork > Maple Canyon > Central Utah > Utah",https://www.mountainproject.com/route/114382921/dreamy,2.4,-1,Sport,5.11d,1,50,39.56296,-111.69017
"No Chimps Allowed","The Simian Complex > Utah Hills > Saint George > Southwest Utah > Utah",https://www.mountainproject.com/route/114506985/no-chimps-allowed,2.2,-1,Sport,5.11d,1,40,37.06971,-113.82632
"Heroes are Zeros","Tower Three > Hellgate Cliffs > Little Cottonwood Canyon > Central Wasatch > Wasatch Range > Utah",https://www.mountainproject.com/route/108229804/heroes-are-zeros,2.2,-1,"Trad, Sport",5.11d,1,115,40.59051,-111.64858
"All Static and No Dynamic","Static Wall > Storm Mountain Picnic Area > Big Cottonwood Canyon > Central Wasatch > Wasatch Range > Utah",https://www.mountainproject.com/route/107752272/all-static-and-no-dynamic,2.3,-1,Sport,5.11d,1,30,40.62647,-111.74584
"The Price Is Right","Black Magic > American Fork Canyon > Southern Wasatch > Wasatch Range > Utah",https://www.mountainproject.com/route/110736773/the-price-is-right,2.3,-1,Sport,5.11d,1,,40.44472,-111.69582
"The Eriksen Affair","Tetas De Cabre > Pine Valley > Saint George > Southwest Utah > Utah",https://www.mountainproject.com/route/107235017/the-eriksen-affair,2.3,-1,Sport,5.11d,1,80,37.40808,-113.53567
"Tuna Melt","South-Facing Wall > The Hideaway > American Fork Canyon > Southern Wasatch > Wasatch Range > Utah",https://www.mountainproject.com/route/107775202/tuna-melt,1.9,-1,Sport,5.11d,1,,40.4477,-111.7005
"The Epiphany","The Cathedral > Welcome Springs > Saint George > Southwest Utah > Utah",https://www.mountainproject.com/route/108829833/the-epiphany,2.5,-1,Sport,5.11d,1,65,37.10116,-113.89875
"Dew Pong and Docking","Dark Lands (Mid Canyon) > Cove Wash > Saint George > Southwest Utah > Utah",https://www.mountainproject.com/route/114122471/dew-pong-and-docking,2.0,-1,Sport,5.11d,1,25,37.11769,-113.66602
"Big Boss Groove","Shoreline Crag > City Creek Canyon > Central Wasatch > Wasatch Range > Utah",https://www.mountainproject.com/route/107561302/big-boss-groove,2.5,-1,Sport,5.11d,1,40,40.8015,-111.8733
"Chance of Showers","Upper Tier > Graveside Matter Wall > Cedar Canyon > Cedar City > Southwest Utah > Utah",https://www.mountainproject.com/route/107168510/chance-of-showers,2.5,-1,Sport,5.11d,1,35,37.61602,-112.93205
"Medicine Ball","The Chocolate Slot > Maple Canyon Road > Maple Canyon > Central Utah > Utah",https://www.mountainproject.com/route/108273748/medicine-ball,2.5,-1,Sport,5.11d,1,50,39.5552,-111.6832
Pickpocket,"Other Mill Creek Areas > Mill Creek > La Sal Mountains > Southeast Utah > Utah",https://www.mountainproject.com/route/123318648/pickpocket,2.5,-1,Sport,5.11d,1,70,38.49974,-109.30695
"Taken 2","Isolation Wall > American Fork Canyon > Southern Wasatch > Wasatch Range > Utah",https://www.mountainproject.com/route/115683440/taken-2,1.8,-1,Sport,5.11d,1,30,40.44649,-111.68579
"Late for Prom","The Priest > Castle Valley > Southeast Utah > Utah",https://www.mountainproject.com/route/116711025/late-for-prom,2.3,-1,Trad,5.11d,1,40,38.6588,-109.3691
"Lost Horizon","Shangri La > Jungle, on the Aquarius Plateau > South Central Utah > Utah",https://www.mountainproject.com/route/115194086/lost-horizon,2.3,-1,"Sport, Alpine",5.11d,1,45,37.77957,-111.90183
Trabajo,"Southern Corral Crag > Corral Crags > Ibex > West Desert > Utah",https://www.mountainproject.com/route/111712306/trabajo,2.3,-1,Sport,5.11d,1,50,38.98448,-113.39156
"Thunder Road","Asbury Park > Asbury Park > The Schoolroom > Ogden > Northern Wasatch > Wasatch Range > Utah",https://www.mountainproject.com/route/107062083/thunder-road,2.3,-1,Trad,5.11d,1,60,41.2217,-111.9236
"The Anarchist","Gridwall > The Billboard > The Billboard Trail > American Fork Canyon > Southern Wasatch > Wasatch Range > Utah",https://www.mountainproject.com/route/115453967/the-anarchist,2.2,-1,Sport,5.11d,1,60,40.45145,-111.67624
"Underneath a Red Moon","The Matrix > Middle Fork > Maple Canyon > Central Utah > Utah",https://www.mountainproject.com/route/113780966/underneath-a-red-moon,2.4,-1,Sport,5.11d,1,,39.5572,-111.6916
TVC,"Vector Madness Wall > Big Cottonwood Canyon > Central Wasatch > Wasatch Range > Utah",https://www.mountainproject.com/route/111801636/tvc,2.3,-1,Sport,5.11d,1,70,40.6191,-111.74385
Bango,"Hourglass Canyon > Maple Canyon Road > Maple Canyon > Central Utah > Utah",https://www.mountainproject.com/route/112072379/bango,2.2,-1,Sport,5.11d,1,60,39.55568,-111.67331
"Lend Me an Ear","The Wailing Wall > Welcome Springs > Saint George > Southwest Utah > Utah",https://www.mountainproject.com/route/111772978/lend-me-an-ear,2.3,-1,Sport,5.11d,1,90,37.10106,-113.89944
"Smoke ‘Em if You Got ‘Em","Aguaworld > Big Cottonwood Canyon > Central Wasatch > Wasatch Range > Utah",https://www.mountainproject.com/route/107151871/smoke-em-if-you-got-em,2.2,-1,Trad,5.11d,1,110,40.6215,-111.7768
Furious,"The Adjective > Rock Canyon > Southern Wasatch > Wasatch Range > Utah",https://www.mountainproject.com/route/106854663/furious,2.8,-1,Sport,5.11d,1,35,40.2645,-111.612
"Three Easy Pieces","Bingo Baby > American Fork Canyon > Southern Wasatch > Wasatch Range > Utah",https://www.mountainproject.com/route/106517441/three-easy-pieces,1.9,-1,Sport,5.11d,1,45,40.4461,-111.6859
Centrifuge,"Cragganzenden > Right Fork > Maple Canyon > Central Utah > Utah",https://www.mountainproject.com/route/112937576/centrifuge,1.8,-1,Sport,5.11d,1,55,39.56368,-111.69083
"Seldom Seen","Monkey Wrench Buttress > Logan Canyon > Cache Valley > Northern Wasatch > Wasatch Range > Utah",https://www.mountainproject.com/route/106756488/seldom-seen,1.9,-1,Sport,5.11d,1,,41.7442,-111.7575
Sunkist,"The Scar > Potash Road > Southeast Utah > Utah",https://www.mountainproject.com/route/106427971/sunkist,1.9,-1,Sport,5.11d,1,80,38.57016,-109.58106
"Native American Graffiti","Hardware Wall > Left Hand Fork > Blacksmith Fork Canyon > Cache Valley > Northern Wasatch > Wasatch Range > Utah",https://www.mountainproject.com/route/107674600/native-american-graffiti,1.9,-1,Sport,5.11d,1,35,41.66711,-111.62642
"Spin doctor","Mile 385 Area > Logan Canyon > Cache Valley > Northern Wasatch > Wasatch Range > Utah",https://www.mountainproject.com/route/114588432/spin-doctor,2.2,-1,Sport,5.11d,1,45,41.79951,-111.63754
Oughtamatic,"Cliffs of Insanity > Logan Canyon > Cache Valley > Northern Wasatch > Wasatch Range > Utah",https://www.mountainproject.com/route/107742803/oughtamatic,2.0,-1,Sport,5.11d,1,,41.8027,-111.6292
"Randy's Polka","Above and Beyond Wall > Big Cottonwood Canyon > Central Wasatch > Wasatch Range > Utah",https://www.mountainproject.com/route/106255811/randys-polka,2.0,-1,Sport,5.11d,1,55,40.6346,-111.717
Alotta,"Sean’s Cave > American Fork Canyon > Southern Wasatch > Wasatch Range > Utah",https://www.mountainproject.com/route/120123218/alotta,2.7,-1,Sport,5.11d,1,45,40.4469,-111.68576
Spanky,"Maximum Main Wall > The Maximum > Right Fork > Maple Canyon > Central Utah > Utah",https://www.mountainproject.com/route/114382824/spanky,2.0,-1,Sport,5.11d,1,65,39.56296,-111.69017
Sacrilege,"The Cathedral > Welcome Springs > Saint George > Southwest Utah > Utah",https://www.mountainproject.com/route/107909867/sacrilege,2.0,-1,Sport,5.11d,1,45,37.10116,-113.89875
"Negro Modelo","East Gate Buttress > Gate Buttress > Little Cottonwood Canyon > Central Wasatch > Wasatch Range > Utah",https://www.mountainproject.com/route/106130597/negro-modelo,2.0,-1,Trad,5.11d,1,40,40.57387,-111.75163
"the Zackass","North Wall Little Italy Canyon > Harts Draw > Southeast Utah > Utah",https://www.mountainproject.com/route/107485033/the-zackass,2.0,-1,Trad,5.11d,1,100,38.1992,-109.5389
"Nova's Route","The Planet of the Apes > Jungle, on the Aquarius Plateau > South Central Utah > Utah",https://www.mountainproject.com/route/108236368/novas-route,2.0,-1,"Sport, Alpine",5.11d,2,165,37.7577,-111.8712
"No More Heros","Blacksmith Right > Blacksmith Wall > Left Hand Fork > Blacksmith Fork Canyon > Cache Valley > Northern Wasatch > Wasatch Range > Utah",https://www.mountainproject.com/route/107798712/no-more-heros,2.0,-1,Sport,5.11d,1,60,41.63133,-111.70745
Notamatic,"Cliffs of Insanity > Logan Canyon > Cache Valley > Northern Wasatch > Wasatch Range > Utah",https://www.mountainproject.com/route/107742812/notamatic,2.0,-1,Sport,5.11d,1,,41.8027,-111.6292
Ripcurl,"Shamrock Scare Buttress > Ibex > West Desert > Utah",https://www.mountainproject.com/route/105972279/ripcurl,2.0,-1,"Trad, Sport",5.11d,4,300,38.9926,-113.3883
"Tweak or Too weak","Shady Lane > Big Cottonwood Canyon > Central Wasatch > Wasatch Range > Utah",https://www.mountainproject.com/route/107154999/tweak-or-too-weak,2.0,-1,Sport,5.11d,1,45,40.6193,-111.789
Karma,"1. Swoop Wall > Buckskin Gulch > Grand Staircase > South Central Utah > Utah",https://www.mountainproject.com/route/116727614/karma,2.0,-1,Sport,5.11d,1,50,37.07572,-112.00348
Unknown,"The Melting Mud Wall > East Hellgate > Hellgate Cliffs > Little Cottonwood Canyon > Central Wasatch > Wasatch Range > Utah",https://www.mountainproject.com/route/117763019/unknown,2.0,-1,Sport,5.11d,1,90,40.58991,-111.64385
"The Tide","Shoreline Crag > City Creek Canyon > Central Wasatch > Wasatch Range > Utah",https://www.mountainproject.com/route/118829217/the-tide,2.0,-1,Sport,5.11d,1,43,40.8015,-111.8733
"Candelabrum-Hall of Flame","Park Avenue > Arches National Park > Southeast Utah > Utah",https://www.mountainproject.com/route/105954401/candelabrum-hall-of-flame,2.0,-1,"Trad, Aid","5.11d A2",3,,38.6242,-109.59939
"This Side of Paradise","Gorilla Cliffs > Utah Hills > Saint George > Southwest Utah > Utah",https://www.mountainproject.com/route/109583670/this-side-of-paradise,2.0,-1,Sport,5.11d,1,65,37.06942,-113.82899
"Love Handles","The Sumo Wall > Welcome Springs > Saint George > Southwest Utah > Utah",https://www.mountainproject.com/route/112488896/love-handles,2.0,-1,Sport,5.11d,1,85,37.09914,-113.90439
"True Story","Shotgun Alley > Saint George > Southwest Utah > Utah",https://www.mountainproject.com/route/107220859/true-story,2.0,-1,"Sport, TR",5.11d,1,25,37.1709,-113.71399
"Band Aid For The Ego","The Wall Of Shameless Self Promotion > House Range > West Desert > Utah",https://www.mountainproject.com/route/111452477/band-aid-for-the-ego,2.0,-1,Trad,5.11d,1,,39.34808,-113.33017
Catcatche,"Mill Canyon West > Mill Canyon > Echo Canyon > Wasatch Back > Wasatch Range > Utah",https://www.mountainproject.com/route/111598452/catcatche,2.0,-1,Sport,5.11d,1,,41.0005,-111.40739
"Line Pirate","Melting Yorkshireman Mesa > House Range > West Desert > Utah",https://www.mountainproject.com/route/111452799/line-pirate,2.0,-1,Sport,5.11d,1,,39.34266,-113.34794
"Johnny's Project","Promised Land > Logan Canyon > Cache Valley > Northern Wasatch > Wasatch Range > Utah",https://www.mountainproject.com/route/107515271/johnnys-project,2.0,-1,Sport,5.11d,1,,41.7573,-111.7212
"The Alchemist","Kanab Creek Crag > Kanab Area > Southwest Utah > Utah",https://www.mountainproject.com/route/122844184/the-alchemist,3.0,-1,Sport,5.11d,1,60,37.2721,-112.52108
Apacalypso,"Margaritaville > Right Hand Fork > Logan Canyon > Cache Valley > Northern Wasatch > Wasatch Range > Utah",https://www.mountainproject.com/route/107548013/apacalypso,2.0,-1,Sport,5.11d,1,80,41.78242,-111.63575
"Suspended Animation","Animation Wall > Ferguson Canyon > Central Wasatch > Wasatch Range > Utah",https://www.mountainproject.com/route/106194354/suspended-animation,2.0,-1,Trad,5.11d,2,150,40.613,-111.786
"Maria's Bed","Asbury South > Asbury Park > The Schoolroom > Ogden > Northern Wasatch > Wasatch Range > Utah",https://www.mountainproject.com/route/107245066/marias-bed,2.0,-1,Sport,5.11d,1,60,41.2217,-111.9236
"Birth Canal","The High Rise Area > The Overlook > Brian Head > Southwest Utah > Utah",https://www.mountainproject.com/route/106209444/birth-canal,2.0,-1,"Sport, Alpine",5.11d,1,50,37.7154,-112.7747
"Roadside Middle","Roadside Attraction > Ogden Canyon > Ogden > Northern Wasatch > Wasatch Range > Utah",https://www.mountainproject.com/route/106186661/roadside-middle,2.0,-1,Trad,5.11d,1,65,41.2368,-111.929
Lucretia,"Cliffs of Insanity > Logan Canyon > Cache Valley > Northern Wasatch > Wasatch Range > Utah",https://www.mountainproject.com/route/123262793/lucretia,2.0,-1,Sport,5.11d,1,,41.8027,-111.6292
"Utah Beta","Cliffs of Insanity > Logan Canyon > Cache Valley > Northern Wasatch > Wasatch Range > Utah",https://www.mountainproject.com/route/107742732/utah-beta,2.0,-1,Sport,5.11d,1,70,41.8027,-111.6292
"I Climb Therefore I Sweat","The Rubicon > Crawdad Canyon / Veyo > Saint George > Southwest Utah > Utah",https://www.mountainproject.com/route/123998916/i-climb-therefore-i-sweat,3.0,-1,Sport,5.11d,1,55,37.33636,-113.68693
"Bald Headed Babies","East Gate Buttress > Gate Buttress > Little Cottonwood Canyon > Central Wasatch > Wasatch Range > Utah",https://www.mountainproject.com/route/124179051/bald-headed-babies,2.5,-1,Sport,5.11d,1,90,40.57387,-111.75163
"El hada travieso","Habitado > Indian Creek > Southeast Utah > Utah",https://www.mountainproject.com/route/124185486/el-hada-travieso,4.0,-1,Trad,"5.11d R",1,75,38.04004,-109.53368
Reaganomicon,"Cold War Crags > Mill Creek > La Sal Mountains > Southeast Utah > Utah",https://www.mountainproject.com/route/124534121/reaganomicon,3.0,-1,Sport,5.11d,1,50,38.48349,-109.35649
"Hoochie Coochie","Boot Scootin' Boogie > Uinta Mountains > Northeast Utah > Utah",https://www.mountainproject.com/route/124540246/hoochie-coochie,3.0,-1,Sport,5.11d,1,50,40.60115,-110.97113
"Gondola Blues AKA: Just Say No","Goat Gully Wall > East Hellgate > Hellgate Cliffs > Little Cottonwood Canyon > Central Wasatch > Wasatch Range > Utah",https://www.mountainproject.com/route/124548953/gondola-blues-aka-just-say-no,3.0,-1,Sport,5.11d,1,60,40.59012,-111.64445
"License to 66 (Linkup)","The Membrane > American Fork Canyon > Southern Wasatch > Wasatch Range > Utah",https://www.mountainproject.com/route/124735301/license-to-66-linkup,3.3,-1,Sport,5.11d,1,50,40.44666,-111.68668
"Hang loose","Sean’s Cave > American Fork Canyon > Southern Wasatch > Wasatch Range > Utah",https://www.mountainproject.com/route/124766254/hang-loose,2.0,-1,Sport,5.11d,1,20,40.4469,-111.68576
"Talk to me Goose","Mile High Club > Southern Wasatch > Wasatch Range > Utah",https://www.mountainproject.com/route/124799477/talk-to-me-goose,3.5,-1,Trad,5.11d,1,80,40.24751,-111.61767
"Banditos Route","The Sunny Side > Mill Creek > La Sal Mountains > Southeast Utah > Utah",https://www.mountainproject.com/route/124981369/banditos-route,3.0,-1,Sport,5.11d,1,50,38.49649,-109.31053
"Jim Stone Route","The Outlaw Crag > American Fork Canyon > Southern Wasatch > Wasatch Range > Utah",https://www.mountainproject.com/route/124987156/jim-stone-route,2.5,-1,Sport,5.11d,1,55,40.45168,-111.66811
"Sins of the Body","The Temple > American Fork Canyon > Southern Wasatch > Wasatch Range > Utah",https://www.mountainproject.com/route/124989076/sins-of-the-body,3.0,-1,Sport,5.11d,1,35,40.4416,-111.7
"Strange Secret Whole","Sea Wall > Blacksmith Fork Canyon > Cache Valley > Northern Wasatch > Wasatch Range > Utah",https://www.mountainproject.com/route/125145896/strange-secret-whole,3.0,-1,Sport,5.11d,1,70,41.62457,-111.79862
