Route,Location,URL,"Avg Stars","Your Stars","Route Type",Rating,Pitches,Length,"Area Latitude","Area Longitude"
Sinestra,"Original Meat Wall > Indian Creek > Southeast Utah > Utah",https://www.mountainproject.com/route/105717544/sinestra,4.0,-1,Trad,5.11,1,170,38.13809,-109.58571
"Jupiter Crack","Sparks Wall > Indian Creek > Southeast Utah > Utah",https://www.mountainproject.com/route/107516399/jupiter-crack,3.9,-1,Trad,5.11,1,130,38.04022,-109.59149
Smashmouth,"The Confluence > Zion National Park > Southwest Utah > Utah",https://www.mountainproject.com/route/106754188/smashmouth,3.9,-1,Trad,5.11,4,400,37.21192,-112.97002
"Excuse Station","Reservoir Wall > Indian Creek > Southeast Utah > Utah",https://www.mountainproject.com/route/105717409/excuse-station,3.9,-1,Trad,5.11,1,105,38.08284,-109.56274
"Spaghetti Western","Pistol Whipped > Indian Creek > Southeast Utah > Utah",https://www.mountainproject.com/route/105717472/spaghetti-western,3.9,-1,Trad,5.11,1,,38.00828,-109.58715
"The Big Baby","Battle of the Bulge Buttress > Indian Creek > Southeast Utah > Utah",https://www.mountainproject.com/route/105867934/the-big-baby,3.8,-1,Trad,5.11,1,110,38.03837,-109.54917
"Top Sirloin","2nd Meat Wall > Indian Creek > Southeast Utah > Utah",https://www.mountainproject.com/route/105718297/top-sirloin,3.8,-1,Trad,5.11,1,115,38.1302,-109.5862
Curiosity,"Cat Wall > Indian Creek > Southeast Utah > Utah",https://www.mountainproject.com/route/105873628/curiosity,3.7,-1,Trad,5.11,1,100,38.09105,-109.56274
"Pigs On The Wing","The Wall > Indian Creek > Southeast Utah > Utah",https://www.mountainproject.com/route/105895467/pigs-on-the-wing,3.7,-1,Trad,5.11,1,90,38.17139,-109.59666
"Deseret Moon","Cat Wall > Indian Creek > Southeast Utah > Utah",https://www.mountainproject.com/route/105718189/deseret-moon,3.7,-1,Trad,5.11,1,140,38.09105,-109.56274
Sorrow,"The Wall > Indian Creek > Southeast Utah > Utah",https://www.mountainproject.com/route/105882470/sorrow,3.7,-1,Trad,5.11,1,110,38.17139,-109.59666
"Battle of the Bulge","Battle of the Bulge Buttress > Indian Creek > Southeast Utah > Utah",https://www.mountainproject.com/route/105717331/battle-of-the-bulge,3.5,-1,Trad,5.11,1,110,38.03837,-109.54917
"Learning to Crawl","Thumbelina > The Bridger Jacks > Indian Creek > Southeast Utah > Utah",https://www.mountainproject.com/route/105717370/learning-to-crawl,3.6,-1,"Trad, Sport",5.11,1,165,38.08825,-109.60042
"3 Strikes You're Out","Battle of the Bulge Buttress > Indian Creek > Southeast Utah > Utah",https://www.mountainproject.com/route/105717358/3-strikes-youre-out,3.5,-1,Trad,5.11,1,90,38.03837,-109.54917
"Blue Gramma","Blue Gramma Cliff > Indian Creek > Southeast Utah > Utah",https://www.mountainproject.com/route/105811846/blue-gramma,3.5,-1,Trad,5.11,1,80,38.02641,-109.5388
"Black Corner","Battle of the Bulge Buttress > Indian Creek > Southeast Utah > Utah",https://www.mountainproject.com/route/105717355/black-corner,3.5,-1,Trad,5.11,1,,38.03837,-109.54917
"Go Sparky Go","Sparks Wall > Indian Creek > Southeast Utah > Utah",https://www.mountainproject.com/route/105888734/go-sparky-go,3.4,-1,Trad,5.11,1,70,38.04022,-109.59149
"Moon Stone","Good Medicine Area > Ruth Lake > Uinta Mountains > Northeast Utah > Utah",https://www.mountainproject.com/route/106011853/moon-stone,3.4,-1,Sport,5.11,1,70,40.73091,-110.87835
"Kool Cat","Cat Wall > Indian Creek > Southeast Utah > Utah",https://www.mountainproject.com/route/105718054/kool-cat,3.3,-1,Trad,5.11,1,90,38.09105,-109.56274
"Flakes of Wrath Direct","Wall Street > Potash Road > Southeast Utah > Utah",https://www.mountainproject.com/route/106927403/flakes-of-wrath-direct,3.2,-1,Trad,"5.11 R",1,,38.54668,-109.59959
"Torque Wrench","Scarface > Indian Creek > Southeast Utah > Utah",https://www.mountainproject.com/route/105717550/torque-wrench,3.7,-1,Trad,5.11,1,150,38.06928,-109.55004
"Steve Carruthers Memorial","Sacred Cow Wall > Indian Creek > Southeast Utah > Utah",https://www.mountainproject.com/route/105809855/steve-carruthers-memorial,3.9,-1,Trad,5.11,1,160,38.14011,-109.58944
"The Inhabitants","Way Rambo > Indian Creek > Southeast Utah > Utah",https://www.mountainproject.com/route/105718774/the-inhabitants,3.0,-1,Trad,5.11,1,70,38.03679,-109.5774
"West Face","The Three Gossips > Arches National Park > Southeast Utah > Utah",https://www.mountainproject.com/route/105717538/west-face,3.4,-1,"Trad, Aid","5.11 C1-2",3,,38.63587,-109.60375
"Power Play","Power Wall > Indian Creek > Southeast Utah > Utah",https://www.mountainproject.com/route/105798885/power-play,2.9,-1,Trad,5.11,1,50,38.0679,-109.5416
Excavation,"The Pipe Dream > Right Fork > Maple Canyon > Central Utah > Utah",https://www.mountainproject.com/route/107223346/excavation,2.8,-1,Sport,5.11,1,70,39.56569,-111.69639
Ewe.F.O,"Ewe For Real Wall > Corral Crags > Ibex > West Desert > Utah",https://www.mountainproject.com/route/106746978/ewefo,3.4,-1,Sport,5.11,1,60,38.9851,-113.39103
"North Ridge","Monster Tower > Island In The Sky > Southeast Utah > Utah",https://www.mountainproject.com/route/105718762/north-ridge,3.6,-1,Trad,5.11,5,500,38.38949,-109.83752
Overthruster,"Trick or Treat Wall > Indian Creek > Southeast Utah > Utah",https://www.mountainproject.com/route/116707845/overthruster,3.9,-1,Trad,5.11,1,,38.05109,-109.56195
"Finger Food","Reservoir Wall > Indian Creek > Southeast Utah > Utah",https://www.mountainproject.com/route/106058515/finger-food,3.5,-1,Trad,5.11,1,80,38.08284,-109.56274
"Hoop Dancer","Hummingbird Spire > The Bridger Jacks > Indian Creek > Southeast Utah > Utah",https://www.mountainproject.com/route/105717979/hoop-dancer,3.7,-1,Trad,"5.11 X",2,350,38.08824,-109.60041
"Wigglin' Worm","Reservoir Wall > Indian Creek > Southeast Utah > Utah",https://www.mountainproject.com/route/105717415/wigglin-worm,3.2,-1,Trad,5.11,1,,38.08284,-109.56274
"Naked and the Dead Variation","Donnelly Canyon > Indian Creek > Southeast Utah > Utah",https://www.mountainproject.com/route/105943086/naked-and-the-dead-variation,2.3,-1,Trad,5.11,1,40,38.0398,-109.5436
Raja,"Reservoir Wall > Indian Creek > Southeast Utah > Utah",https://www.mountainproject.com/route/105717412/raja,3.3,-1,Trad,5.11,1,,38.08284,-109.56274
"Rump Roast II","Pistol Whipped > Indian Creek > Southeast Utah > Utah",https://www.mountainproject.com/route/105717784/rump-roast-ii,3.0,-1,Trad,5.11,1,80,38.00828,-109.58715
"Transmission Trouble","4X4 > Indian Creek > Southeast Utah > Utah",https://www.mountainproject.com/route/106883780/transmission-trouble,2.8,-1,Trad,5.11,1,60,38.0733,-109.5813
"Coyote Essence","Pistol Whipped > Indian Creek > Southeast Utah > Utah",https://www.mountainproject.com/route/105717940/coyote-essence,2.7,-1,Trad,5.11,1,70,38.00828,-109.58715
"Taco Terror","Pine Canyon > Lower Buckhorn > Buckhorn Wash > San Rafael Swell - North > San Rafael Swell > South Central Utah > Utah",https://www.mountainproject.com/route/105718384/taco-terror,3.9,-1,Trad,5.11,1,120,39.10913,-110.66231
"West Face","Dark Angel > Arches National Park > Southeast Utah > Utah",https://www.mountainproject.com/route/105718423/west-face,2.6,-1,Trad,5.11,2,150,38.80146,-109.62758
"Solo East","Selfish Wall > Indian Creek > Southeast Utah > Utah",https://www.mountainproject.com/route/106742861/solo-east,3.3,-1,Trad,5.11,1,80,38.1173,-109.5757
"Power Paws","Power Wall > Indian Creek > Southeast Utah > Utah",https://www.mountainproject.com/route/105798888/power-paws,2.8,-1,Trad,5.11,1,50,38.0679,-109.5416
Skinwalker,"Wall Street South > Potash Road > Southeast Utah > Utah",https://www.mountainproject.com/route/105718459/skinwalker,3.9,-1,Trad,5.11,1,110,38.56719,-109.65884
"Voice from the Dust","Mt. Moroni > Zion National Park > Southwest Utah > Utah",https://www.mountainproject.com/route/105928716/voice-from-the-dust,3.1,-1,Trad,5.11,8,1000,37.24332,-112.96381
"Horse Crack","Trick or Treat Wall > Indian Creek > Southeast Utah > Utah",https://www.mountainproject.com/route/116707890/horse-crack,3.8,-1,Trad,5.11,1,90,38.05109,-109.56195
"Low Spark","Sparks Wall > Indian Creek > Southeast Utah > Utah",https://www.mountainproject.com/route/105888985/low-spark,3.1,-1,Trad,"5.11 PG13",2,230,38.04022,-109.59149
"Closed Casket Variation","Coffin Buttress > Little Cottonwood Canyon > Central Wasatch > Wasatch Range > Utah",https://www.mountainproject.com/route/105740213/closed-casket-variation,3.1,-1,Sport,5.11,1,80,40.57418,-111.77065
"Prime Cuts","Tenderloins Wall > Indian Creek > Southeast Utah > Utah",https://www.mountainproject.com/route/107074389/prime-cuts,3.5,-1,Trad,5.11,1,85,38.1357,-109.5812
"Sudden Impact","Scarface > Indian Creek > Southeast Utah > Utah",https://www.mountainproject.com/route/106058057/sudden-impact,3.6,-1,Trad,5.11,1,160,38.06928,-109.55004
"Seventh Serpent","Reptilian Wall > Long Canyon > Potash Road > Southeast Utah > Utah",https://www.mountainproject.com/route/107911649/seventh-serpent,3.8,-1,Trad,5.11,1,100,38.54912,-109.69864
"Jews On Crack","The Optimator > Indian Creek > Southeast Utah > Utah",https://www.mountainproject.com/route/105943611/jews-on-crack,3.2,-1,Trad,5.11,1,130,38.0758,-109.5948
"Slings and Arrows","Sparks Wall > Indian Creek > Southeast Utah > Utah",https://www.mountainproject.com/route/105893732/slings-and-arrows,3.1,-1,Trad,5.11,1,70,38.04022,-109.59149
"The Last Battle","Battle of the Bulge Buttress > Indian Creek > Southeast Utah > Utah",https://www.mountainproject.com/route/106037752/the-last-battle,2.8,-1,Trad,5.11,1,80,38.03837,-109.54917
"Dunn Route","Moses > Taylor Canyon > Island In The Sky > Southeast Utah > Utah",https://www.mountainproject.com/route/105717745/dunn-route,3.4,-1,Trad,5.11,5,600,38.47567,-109.91054
"Unknown PH fingers to hands splitter","Petrified Hornet Wall > Indian Creek > Southeast Utah > Utah",https://www.mountainproject.com/route/106917394/unknown-ph-fingers-to-hands-splitter,3.4,-1,Trad,5.11,1,90,38.07259,-109.59057
"Pit Bull Terror","Cat Wall > Indian Creek > Southeast Utah > Utah",https://www.mountainproject.com/route/105717958/pit-bull-terror,3.0,-1,Trad,5.11,1,120,38.09105,-109.56274
"Sheer Lunacy","Moonlight Buttress > Zion National Park > Southwest Utah > Utah",https://www.mountainproject.com/route/105718489/sheer-lunacy,3.4,-1,"Trad, Aid","5.11 C2-",1,,37.27785,-112.94955
"The Good, The Bad, and the Potash","Wall Street > Potash Road > Southeast Utah > Utah",https://www.mountainproject.com/route/105970971/the-good-the-bad-and-the-potash,2.8,-1,Trad,5.11,1,60,38.54668,-109.59959
"Unnamed 5.11 w/ 2 bolt start","4X4 > Indian Creek > Southeast Utah > Utah",https://www.mountainproject.com/route/105718390/unnamed-511-w-2-bolt-start,3.2,-1,Trad,5.11,1,110,38.0733,-109.5813
"Formerly Aided (aka Juniper Twig)","Blue Gramma Cliff > Indian Creek > Southeast Utah > Utah",https://www.mountainproject.com/route/105717667/formerly-aided-aka-juniper-twig,2.8,-1,Trad,5.11,1,70,38.02641,-109.5388
"Ruins Crack","Battle of the Bulge Buttress > Indian Creek > Southeast Utah > Utah",https://www.mountainproject.com/route/105718270/ruins-crack,2.7,-1,Trad,5.11,1,70,38.03837,-109.54917
"Second Choice","Critic's Choice > Indian Creek > Southeast Utah > Utah",https://www.mountainproject.com/route/105930643/second-choice,3.8,-1,Trad,5.11,1,100,38.03075,-109.60173
Sisyphus,"Zeus > Taylor Canyon > Island In The Sky > Southeast Utah > Utah",https://www.mountainproject.com/route/105938473/sisyphus,3.6,-1,Trad,"5.11 R",3,250,38.305,-109.866
"Kiefer Ari","Petrified Hornet Wall > Indian Creek > Southeast Utah > Utah",https://www.mountainproject.com/route/108153795/kiefer-ari,3.3,-1,Trad,5.11,1,90,38.07259,-109.59057
"House of Cards","Coal Pit Buttress > Little Cottonwood Canyon > Central Wasatch > Wasatch Range > Utah",https://www.mountainproject.com/route/106226461/house-of-cards,2.9,-1,Trad,"5.11 PG13",7,650,40.5685,-111.73617
"Collision Course","4X4 > Indian Creek > Southeast Utah > Utah",https://www.mountainproject.com/route/106293430/collision-course,3.1,-1,Trad,5.11,1,100,38.0733,-109.5813
"Columbian Hit Man","Scarface > Indian Creek > Southeast Utah > Utah",https://www.mountainproject.com/route/106142549/columbian-hit-man,3.4,-1,Trad,5.11,1,100,38.06928,-109.55004
"Ride the Lightning","Whipper Wall > Cecret Lake > Albion Basin > Little Cottonwood Canyon > Central Wasatch > Wasatch Range > Utah",https://www.mountainproject.com/route/105998241/ride-the-lightning,2.7,-1,Sport,5.11,1,60,40.57081,-111.62176
"Hot Fun Sunday (Fell Down)","Fin Wall > Indian Creek > Southeast Utah > Utah",https://www.mountainproject.com/route/105718804/hot-fun-sunday-fell-down,2.9,-1,Trad,5.11,1,70,38.10031,-109.57313
"Last Tango in Potash","Wall Street > Potash Road > Southeast Utah > Utah",https://www.mountainproject.com/route/106151932/last-tango-in-potash,3.1,-1,Trad,5.11,1,85,38.54668,-109.59959
Anti-Crack,"Snake Dike Wall > West Sawtooth Canyon > House Range > West Desert > Utah",https://www.mountainproject.com/route/107599377/anti-crack,4.0,-1,Sport,5.11,1,70,39.14899,-113.43737
"Season of the Witch","Trick or Treat Wall > Indian Creek > Southeast Utah > Utah",https://www.mountainproject.com/route/118029067/season-of-the-witch,3.5,-1,Trad,5.11,1,80,38.05109,-109.56195
"Pirate Treasure","Booty Wall Area > Tanners Gulch > Little Cottonwood Canyon > Central Wasatch > Wasatch Range > Utah",https://www.mountainproject.com/route/106276440/pirate-treasure,3.1,-1,Sport,5.11,1,85,40.579,-111.70277
"Unnamed Fingers in Left Facing Corner","Sinbad Wall aka Nuclear Wall > Indian Creek > Southeast Utah > Utah",https://www.mountainproject.com/route/116134706/unnamed-fingers-in-left-facing-corner,3.4,-1,Trad,5.11,1,65,38.04694,-109.55072
"Intensive Care","Intensive Care Slab > Little Cottonwood Canyon > Central Wasatch > Wasatch Range > Utah",https://www.mountainproject.com/route/106067495/intensive-care,4.0,-1,Trad,"5.11 R",2,220,40.5747,-111.7613
"Thank God For Pods","Pods Wall > Indian Creek > Southeast Utah > Utah",https://www.mountainproject.com/route/116581208/thank-god-for-pods,3.8,-1,Trad,5.11,1,120,38.07772,-109.55477
"Dragon's Lair","Deadman's Buttress > Long Canyon > Potash Road > Southeast Utah > Utah",https://www.mountainproject.com/route/106787723/dragons-lair,4.0,-1,Trad,5.11,1,150,38.54832,-109.66055
"Ankle Biters","East Gate Buttress > Gate Buttress > Little Cottonwood Canyon > Central Wasatch > Wasatch Range > Utah",https://www.mountainproject.com/route/107030092/ankle-biters,3.1,-1,Sport,5.11,1,90,40.57387,-111.75163
Miscarriage,"Sabbatical Wall > Indian Creek > Southeast Utah > Utah",https://www.mountainproject.com/route/107857002/miscarriage,3.5,-1,Trad,5.11,1,145,38.02086,-109.58064
"Petrified Feline","Lower Mill Creek > Mill Creek > La Sal Mountains > Southeast Utah > Utah",https://www.mountainproject.com/route/108674009/petrified-feline,3.6,-1,Trad,5.11,4,400,38.47684,-109.38133
"Mean Weener","April Fools Wall > Lower Buckhorn > Buckhorn Wash > San Rafael Swell - North > San Rafael Swell > South Central Utah > Utah",https://www.mountainproject.com/route/113687601/mean-weener,4.0,-1,Trad,5.11,1,100,39.0951,-110.66093
"Dark Horse","Upper Fin > The Fin > Little Cottonwood Canyon > Central Wasatch > Wasatch Range > Utah",https://www.mountainproject.com/route/106061726/dark-horse,3.5,-1,Trad,"5.11 R",3,200,40.57399,-111.76119
"Mad Cow Disease","Tenderloins Wall > Indian Creek > Southeast Utah > Utah",https://www.mountainproject.com/route/105876579/mad-cow-disease,2.8,-1,Trad,5.11,1,110,38.1357,-109.5812
Demolition,"Fin Wall > Indian Creek > Southeast Utah > Utah",https://www.mountainproject.com/route/106645807/demolition,3.5,-1,Trad,5.11,1,150,38.10031,-109.57313
"Chastity Crack","The Watchman > Zion National Park > Southwest Utah > Utah",https://www.mountainproject.com/route/108034230/chastity-crack,3.7,-1,Trad,5.11,3,300,37.18464,-112.97954
Peccadillo,"Gin & Tectonics > Long Canyon > Potash Road > Southeast Utah > Utah",https://www.mountainproject.com/route/105717640/peccadillo,3.8,-1,Trad,5.11,1,,38.54809,-109.67149
"Hypercrack on the Anchor Chain","Monitor and Merrimac Buttes > Tusher Canyon > Southeast Utah > Utah",https://www.mountainproject.com/route/105718048/hypercrack-on-the-anchor-chain,4.0,-1,Trad,"5.11 X",2,200,38.66319,-109.74275
"The Vigil","The Watchman > Zion National Park > Southwest Utah > Utah",https://www.mountainproject.com/route/106116794/the-vigil,3.8,-1,Trad,"5.11 R",10,1300,37.18464,-112.97954
"Lift Kit (Right Side of Crag)","4X4 > Indian Creek > Southeast Utah > Utah",https://www.mountainproject.com/route/106601406/lift-kit-right-side-of-crag,3.0,-1,Trad,5.11,1,110,38.0733,-109.5813
"Done Lubin'","Offwidth City > Long Canyon > Potash Road > Southeast Utah > Utah",https://www.mountainproject.com/route/106787971/done-lubin,3.7,-1,Trad,5.11,5,400,38.54444,-109.65438
"Big Brother","Power Wall > Indian Creek > Southeast Utah > Utah",https://www.mountainproject.com/route/106583894/big-brother,4.0,-1,Trad,5.11,1,121,38.0679,-109.5416
"Sacred Space","King of Pain > The Bridger Jacks > Indian Creek > Southeast Utah > Utah",https://www.mountainproject.com/route/105942235/sacred-space,3.7,-1,Trad,5.11,2,300,38.08824,-109.60041
"Big Jon","Scarface > Indian Creek > Southeast Utah > Utah",https://www.mountainproject.com/route/107531993/big-jon,4.0,-1,Trad,5.11,3,350,38.06928,-109.55004
"Head Stack","Gin & Tectonics > Long Canyon > Potash Road > Southeast Utah > Utah",https://www.mountainproject.com/route/109753338/head-stack,4.0,-1,Trad,5.11,2,220,38.54809,-109.67149
Clearlight,"Big Bend Butte > River Road > Southeast Utah > Utah",https://www.mountainproject.com/route/106060687/clearlight,3.3,-1,Trad,"5.11 PG13",4,450,38.65077,-109.47332
"Tides of Mind- North Face","Tides of Mind > Valley of the Gods > Southeast Utah > Utah",https://www.mountainproject.com/route/107573723/tides-of-mind-north-face,3.5,-1,Trad,5.11,2,60,37.2549,-109.8336
"Phi Slamma Jamma","Slickrock Divide > Capitol Reef > South Central Utah > Utah",https://www.mountainproject.com/route/105968877/phi-slamma-jamma,4.0,-1,Trad,5.11,1,80,38.2326,-111.21669
"Esta Dia Bonita","Habitado > Indian Creek > Southeast Utah > Utah",https://www.mountainproject.com/route/120330044/esta-dia-bonita,3.3,-1,Trad,5.11,1,110,38.04004,-109.53368
"The Hawk","Sparks Wall > Indian Creek > Southeast Utah > Utah",https://www.mountainproject.com/route/105893744/the-hawk,3.6,-1,Trad,5.11,1,100,38.04022,-109.59149
Redtail,"The Tombstone > West Sawtooth Canyon > House Range > West Desert > Utah",https://www.mountainproject.com/route/110348172/redtail,3.6,-1,Trad,"5.11 PG13",1,80,39.15485,-113.44177
"Too Much Candy","Trick or Treat Wall > Indian Creek > Southeast Utah > Utah",https://www.mountainproject.com/route/117996913/too-much-candy,4.0,-1,Trad,5.11,1,125,38.05109,-109.56195
"There's Gold in Them Hills","Over the Hill > Indian Creek > Southeast Utah > Utah",https://www.mountainproject.com/route/119772414/theres-gold-in-them-hills,4.0,-1,Trad,5.11,3,300,38.05401,-109.59877
"Cobweb Splitter","The Optimator > Indian Creek > Southeast Utah > Utah",https://www.mountainproject.com/route/120652263/cobweb-splitter,3.9,-1,Trad,5.11,1,100,38.0758,-109.5948
"Sinbad Was a Dog","Sinbad Wall aka Nuclear Wall > Indian Creek > Southeast Utah > Utah",https://www.mountainproject.com/route/108420527/sinbad-was-a-dog,3.0,-1,Trad,5.11,1,115,38.04694,-109.55072
"Tucupit nova","Tucupit > North Fork of Taylor > Kolob Canyon > Zion National Park > Southwest Utah > Utah",https://www.mountainproject.com/route/116840458/tucupit-nova,4.0,-1,Trad,5.11,7,1000,37.46471,-113.17594
"Mega Bucks","Reservoir Wall > Indian Creek > Southeast Utah > Utah",https://www.mountainproject.com/route/111847193/mega-bucks,3.8,-1,Trad,5.11,1,150,38.08284,-109.56274
"Love Cats","Cat Wall > Indian Creek > Southeast Utah > Utah",https://www.mountainproject.com/route/111312523/love-cats,4.0,-1,Trad,5.11,1,190,38.09105,-109.56274
"The Squiggly Line","Gin & Tectonics > Long Canyon > Potash Road > Southeast Utah > Utah",https://www.mountainproject.com/route/121790219/the-squiggly-line,4.0,-1,Trad,5.11,2,200,38.54809,-109.67149
Sidewinder,"Pucker Pass > Long Canyon > Potash Road > Southeast Utah > Utah",https://www.mountainproject.com/route/121796427/sidewinder,4.0,-1,Trad,5.11,1,160,38.54326,-109.70741
"Ascent Into the Maelstrom","Monitor and Merrimac Buttes > Tusher Canyon > Southeast Utah > Utah",https://www.mountainproject.com/route/115190250/ascent-into-the-maelstrom,4.0,-1,Trad,"5.11 R",3,300,38.66319,-109.74275
"Class Act","Random - Unsorted > State Highway 313 > Southeast Utah > Utah",https://www.mountainproject.com/route/105968051/class-act,3.6,-1,Trad,5.11,2,165,38.564,-109.54235
"Halfway Crook","Gangsters Paradise > Indian Creek > Southeast Utah > Utah",https://www.mountainproject.com/route/114213496/halfway-crook,4.0,-1,Trad,5.11,1,140,38.0022,-109.5866
"Cherry Picker","Whiskey Greg Wall > Spring Canyon > Southeast Utah > Utah",https://www.mountainproject.com/route/111736659/cherry-picker,4.0,-1,Trad,5.11,2,300,38.62853,-109.99208
"Ruby Flame","Critic's Choice > Indian Creek > Southeast Utah > Utah",https://www.mountainproject.com/route/106056786/ruby-flame,2.9,-1,Trad,5.11,1,90,38.03075,-109.60173
"Diagonal Dyslexia","Pinko Tower > West Sawtooth Canyon > House Range > West Desert > Utah",https://www.mountainproject.com/route/107599956/diagonal-dyslexia,3.5,-1,Trad,5.11,4,300,39.14899,-113.43737
"Fist of Fury","Critic's Choice > Indian Creek > Southeast Utah > Utah",https://www.mountainproject.com/route/111231687/fist-of-fury,4.0,-1,Trad,5.11,1,100,38.03075,-109.60173
"I Want that Body!","Wild Horse Butte > Little Wild Horse Canyon > San Rafael Swell - South > San Rafael Swell > South Central Utah > Utah",https://www.mountainproject.com/route/121983434/i-want-that-body,3.0,-1,Trad,5.11,1,,38.61482,-110.79882
"O The Big Black Dog","Sinbad Wall aka Nuclear Wall > Indian Creek > Southeast Utah > Utah",https://www.mountainproject.com/route/121717571/o-the-big-black-dog,4.0,-1,Trad,5.11,1,115,38.04694,-109.55072
"I've Seen Worse","Cliffs of Insanity > Indian Creek > Southeast Utah > Utah",https://www.mountainproject.com/route/109667753/ive-seen-worse,3.1,-1,Trad,5.11,1,100,38.15145,-109.59834
"Last Resort","Disappointment Cliffs > Indian Creek > Southeast Utah > Utah",https://www.mountainproject.com/route/116102690/last-resort,4.0,-1,Trad,5.11,1,90,38.11634,-109.59215
"Full Circle","The Confluence > Mill Creek > La Sal Mountains > Southeast Utah > Utah",https://www.mountainproject.com/route/112034087/full-circle,4.0,-1,Sport,5.11,1,85,38.49515,-109.31586
"Unnamed 5.11","Pods Wall > Indian Creek > Southeast Utah > Utah",https://www.mountainproject.com/route/116045878/unnamed-511,4.0,-1,Trad,5.11,1,115,38.07772,-109.55477
"Total Eclipse of the Shart","Priapism Pillar > Day Canyon > Potash Road > Southeast Utah > Utah",https://www.mountainproject.com/route/112776297/total-eclipse-of-the-shart,4.0,-1,Trad,5.11,1,120,38.56887,-109.67729
"The Guides' Crack","Grandstaff Trailhead > River Road > Southeast Utah > Utah",https://www.mountainproject.com/route/113432947/the-guides-crack,4.0,-1,Trad,5.11,1,100,38.60951,-109.53359
"Reptilian Curiosity","O Crags (Three Finger Canyon) > Eastern Reef Area.. AKA The Sandstone Alps > San Rafael Swell - South > San Rafael Swell > South Central Utah > Utah",https://www.mountainproject.com/route/105718816/reptilian-curiosity,4.0,-1,Trad,"5.11 R",6,1000,38.85834,-110.46595
"Mr. Tambourine Man","Turkey Tower > San Rafael Swell - South > San Rafael Swell > South Central Utah > Utah",https://www.mountainproject.com/route/110269242/mr-tambourine-man,4.0,-1,"Trad, Aid","5.11 C1",3,320,38.78982,-110.84132
"Who's Your Daddy","Padre canyon > Saint George > Southwest Utah > Utah",https://www.mountainproject.com/route/106966954/whos-your-daddy,4.0,-1,Trad,5.11,3,400,37.1896,-113.658
"Wind and Weiners","Chris Castle Mountain > Three Peaks > Cedar City > Southwest Utah > Utah",https://www.mountainproject.com/route/107024299/wind-and-weiners,4.0,-1,Sport,5.11,1,40,37.75563,-113.17632
"Double Bow Chimney","Sandy's Toe (Tower) > Gold Bar Canyon > Potash Road > Southeast Utah > Utah",https://www.mountainproject.com/route/108060249/double-bow-chimney,4.0,-1,Trad,"5.11 PG13",2,125,38.60105,-109.63764
"Finger Bang","Shady Crag > Long Canyon > Potash Road > Southeast Utah > Utah",https://www.mountainproject.com/route/109663595/finger-bang,3.2,-1,Trad,5.11,1,65,38.54511,-109.65489
"Cryptogramic Forest","Wisdom Tooth > Lower Buckhorn > Buckhorn Wash > San Rafael Swell - North > San Rafael Swell > South Central Utah > Utah",https://www.mountainproject.com/route/108906925/cryptogramic-forest,3.5,-1,Trad,5.11,2,240,39.09163,-110.67307
"Unnamed 5.11 at top of trail","Pistol Whipped > Indian Creek > Southeast Utah > Utah",https://www.mountainproject.com/route/106037323/unnamed-511-at-top-of-trail,3.4,-1,Trad,5.11,1,100,38.00828,-109.58715
"The Shine","Trick or Treat Wall > Indian Creek > Southeast Utah > Utah",https://www.mountainproject.com/route/118029020/the-shine,2.9,-1,Trad,5.11,1,35,38.05109,-109.56195
"Painted Pony","Supercrack Buttress > Indian Creek > Southeast Utah > Utah",https://www.mountainproject.com/route/105717736/painted-pony,3.0,-1,Trad,5.11,1,140,38.03635,-109.54551
Stella,"Battle of the Bulge Buttress > Indian Creek > Southeast Utah > Utah",https://www.mountainproject.com/route/120654653/stella,3.7,-1,Trad,5.11,1,112,38.03837,-109.54917
"Full Price Fangers","Day Canyon Cragging Routes > Day Canyon > Potash Road > Southeast Utah > Utah",https://www.mountainproject.com/route/118096764/full-price-fangers,3.8,-1,Trad,5.11,1,50,38.56973,-109.66167
Blockhead,"Public Service Wall > Indian Creek > Southeast Utah > Utah",https://www.mountainproject.com/route/109436260/blockhead,3.7,-1,Trad,5.11,1,140,38.10607,-109.57104
"Brave New World","Iron Hayden Wall > Hayden Peak > Uinta Mountains > Northeast Utah > Utah",https://www.mountainproject.com/route/120891403/brave-new-world,3.6,-1,"Trad, Alpine",5.11,4,370,40.73238,-110.84964
"Trick or Treat","Trick or Treat Wall > Indian Creek > Southeast Utah > Utah",https://www.mountainproject.com/route/119898251/trick-or-treat,3.5,-1,Trad,5.11,1,110,38.05109,-109.56195
"The Omen","Sub Peak of Meridian Tower > Oak Creek Drainages > Zion National Park > Southwest Utah > Utah",https://www.mountainproject.com/route/110378737/the-omen,3.4,-1,Trad,5.11,6,800,37.21144,-112.99857
"Be There or Be Talked About","The Three Gossips > Arches National Park > Southeast Utah > Utah",https://www.mountainproject.com/route/105966757/be-there-or-be-talked-about,3.1,-1,"Trad, Aid","5.11 C1",3,,38.63587,-109.60375
"Hidden Fortress","Hidden Fortress > Big Cottonwood Canyon > Central Wasatch > Wasatch Range > Utah",https://www.mountainproject.com/route/121169796/hidden-fortress,3.6,-1,Sport,5.11,1,90,40.6181,-111.74409
Astrolizard,"Middle Fork of Taylor > Kolob Canyon > Zion National Park > Southwest Utah > Utah",https://www.mountainproject.com/route/109680280/astrolizard,3.7,-1,Trad,5.11,7,700,37.4544,-113.18443
"Unnamed 5.11 AKA Entrance Exam","New Sub-Area 1 > Friction Slab > Entrance Corridor > Indian Creek > Southeast Utah > Utah",https://www.mountainproject.com/route/119886021/unnamed-511-aka-entrance-exam,3.8,-1,Trad,5.11,1,85,38.0258,-109.54
"1/2 Route Extension","Namaste Wall > South Fork of Taylor > Kolob Canyon > Zion National Park > Southwest Utah > Utah",https://www.mountainproject.com/route/123158567/12-route-extension,3.8,-1,Sport,5.11,1,115,37.45133,-113.16338
"Lakeshore Loon","Syringe > Ibex > West Desert > Utah",https://www.mountainproject.com/route/106113965/lakeshore-loon,3.4,-1,Sport,5.11,3,250,38.9896,-113.3899
"Opposable Thumbs Required","Lower Jungle > Jungle, on the Aquarius Plateau > South Central Utah > Utah",https://www.mountainproject.com/route/106880287/opposable-thumbs-required,3.2,-1,"Sport, Alpine",5.11,1,65,37.7503,-111.8708
"Demolition Man","Public Service Wall > Indian Creek > Southeast Utah > Utah",https://www.mountainproject.com/route/108400704/demolition-man,3.7,-1,Trad,5.11,2,240,38.10607,-109.57104
"Operation Condor","Kung Fu Theater > Mount Carmel Tunnel > Zion National Park > Southwest Utah > Utah",https://www.mountainproject.com/route/109411303/operation-condor,3.3,-1,Trad,5.11,3,250,37.21267,-112.96644
"The Hostess","Way Rambo > Indian Creek > Southeast Utah > Utah",https://www.mountainproject.com/route/106589910/the-hostess,3.5,-1,Trad,5.11,1,100,38.03679,-109.5774
"Find Shade","The Rectory > Castle Valley > Southeast Utah > Utah",https://www.mountainproject.com/route/109035181/find-shade,2.9,-1,Trad,5.11,4,,38.6571,-109.3678
"Unnamed (5)","Tenderloins Wall > Indian Creek > Southeast Utah > Utah",https://www.mountainproject.com/route/106380780/unnamed-5,3.3,-1,Trad,5.11,1,150,38.1357,-109.5812
Sundawg,"Buttress Two (Bond Buttress) > Triple Buttress Area > Long Canyon > Potash Road > Southeast Utah > Utah",https://www.mountainproject.com/route/110881908/sundawg,3.6,-1,Trad,5.11,1,55,38.54503,-109.65515
"Salmon Run","Fin Wall > Indian Creek > Southeast Utah > Utah",https://www.mountainproject.com/route/106022837/salmon-run,2.7,-1,Trad,5.11,1,90,38.10031,-109.57313
"Capitol Roof","Fruita Environs > Fruita Area > Capitol Reef > South Central Utah > Utah",https://www.mountainproject.com/route/105718039/capitol-roof,3.4,-1,Trad,5.11,1,70,38.28878,-111.23736
"Unknown (fists to off fists)","Cliffs of Insanity > Indian Creek > Southeast Utah > Utah",https://www.mountainproject.com/route/116677139/unknown-fists-to-off-fists,3.5,-1,Trad,5.11,1,125,38.15145,-109.59834
Acronymph,"Critic's Choice > Indian Creek > Southeast Utah > Utah",https://www.mountainproject.com/route/112210680/acronymph,3.2,-1,Trad,5.11,1,90,38.03075,-109.60173
"Cat's in the Doghouse","Cat Wall > Indian Creek > Southeast Utah > Utah",https://www.mountainproject.com/route/108706578/cats-in-the-doghouse,2.8,-1,Trad,5.11,1,90,38.09105,-109.56274
"La Fin Du Monde","Lover's Leap > South Willow Canyon > Stansbury Mountains > West Desert > Utah",https://www.mountainproject.com/route/113254101/la-fin-du-monde,3.2,-1,Sport,5.11,1,,40.4814,-112.6305
"Low Hanging Fruit","Plumb Tower > Spring Canyon > Southeast Utah > Utah",https://www.mountainproject.com/route/106371715/low-hanging-fruit,3.4,-1,Trad,5.11,4,350,38.62377,-109.99394
"Horse Hors d'oeuvre","High Horse > Indian Creek > Southeast Utah > Utah",https://www.mountainproject.com/route/111288158/horse-hors-doeuvre,3.2,-1,Trad,5.11,1,100,38.03999,-109.54057
"Pull Left","Original Meat Wall > Indian Creek > Southeast Utah > Utah",https://www.mountainproject.com/route/106418014/pull-left,3.4,-1,Trad,5.11,1,150,38.13809,-109.58571
"West Face","Argon Tower > Arches National Park > Southeast Utah > Utah",https://www.mountainproject.com/route/105916323/west-face,2.8,-1,Trad,5.11,3,250,38.63325,-109.60195
"Sweet Hog","High Horse > Indian Creek > Southeast Utah > Utah",https://www.mountainproject.com/route/111064451/sweet-hog,3.1,-1,Trad,5.11,1,110,38.03999,-109.54057
"Morning Wood","Public Service Wall > Indian Creek > Southeast Utah > Utah",https://www.mountainproject.com/route/107856813/morning-wood,3.2,-1,Trad,5.11,1,90,38.10607,-109.57104
"The On-Slot","Supercrack Buttress > Indian Creek > Southeast Utah > Utah",https://www.mountainproject.com/route/106301878/the-on-slot,2.7,-1,Trad,5.11,1,70,38.03635,-109.54551
Nightwalker,"Gin & Tectonics > Long Canyon > Potash Road > Southeast Utah > Utah",https://www.mountainproject.com/route/121550904/nightwalker,3.5,-1,"Trad, Aid","5.11 C1+",3,280,38.54809,-109.67149
"Trail of The Navajo","Northside Routes > River Road > Southeast Utah > Utah",https://www.mountainproject.com/route/106690393/trail-of-the-navajo,3.0,-1,Trad,5.11,8,600,38.60758,-109.57414
"Black Horse in the Yuck","Sea Wall > Blacksmith Fork Canyon > Cache Valley > Northern Wasatch > Wasatch Range > Utah",https://www.mountainproject.com/route/120848272/black-horse-in-the-yuck,3.5,-1,Sport,5.11,1,70,41.62457,-111.79862
Catastroph,"Cat Wall > Indian Creek > Southeast Utah > Utah",https://www.mountainproject.com/route/105717808/catastroph,2.8,-1,Trad,"5.11 R",1,100,38.09105,-109.56274
"Unnamed 5.11","Bioturbation Wall > Indian Creek > Southeast Utah > Utah",https://www.mountainproject.com/route/116112953/unnamed-511,3.5,-1,Trad,5.11,1,75,38.03398,-109.57738
"No More Tears","First Switchback > Long Canyon > Potash Road > Southeast Utah > Utah",https://www.mountainproject.com/route/121706635/no-more-tears,3.5,-1,Trad,5.11,1,120,38.55038,-109.6855
"No more meatloaf","2nd Meat Wall > Indian Creek > Southeast Utah > Utah",https://www.mountainproject.com/route/117316996/no-more-meatloaf,3.5,-1,Trad,5.11,1,120,38.1302,-109.5862
"Mandatory Work","Public Service Wall > Indian Creek > Southeast Utah > Utah",https://www.mountainproject.com/route/114419209/mandatory-work,3.5,-1,Trad,5.11,1,130,38.10607,-109.57104
"The Undiscovered Country","Lavender Butte/The Happy Submarine > Indian Creek > Southeast Utah > Utah",https://www.mountainproject.com/route/105900559/the-undiscovered-country,3.5,-1,Trad,5.11,4,400,38.09838,-109.62686
"Crossly, Slits, and Gash","Wind Buttress > Ibex > West Desert > Utah",https://www.mountainproject.com/route/111361085/crossly-slits-and-gash,3.5,-1,Trad,5.11,2,150,38.99159,-113.38951
"Have a Heart Donna","Pistol Whipped > Indian Creek > Southeast Utah > Utah",https://www.mountainproject.com/route/106179101/have-a-heart-donna,3.1,-1,Trad,5.11,1,,38.00828,-109.58715
"""Unnamed 5.11+"" in Bloom Guide","4X4 > Indian Creek > Southeast Utah > Utah",https://www.mountainproject.com/route/107348373/unnamed-511-in-bloom-guide,3.1,-1,Trad,"5.11 PG13",1,130,38.0733,-109.5813
"Where have the Wild Things Gone","The Nuns > Castle Valley > Southeast Utah > Utah",https://www.mountainproject.com/route/105718606/where-have-the-wild-things-gone,3.3,-1,Trad,5.11,3,,38.6836,-109.4227
"Burning Inside","Castleton Tower > Castle Valley > Southeast Utah > Utah",https://www.mountainproject.com/route/105717946/burning-inside,3.0,-1,Trad,5.11,4,350,38.651,-109.3678
"A void","Supercrack Buttress > Indian Creek > Southeast Utah > Utah",https://www.mountainproject.com/route/121277247/a-void,3.5,-1,Trad,"5.11 PG13",1,130,38.03635,-109.54551
Finito,"Fin Wall > Indian Creek > Southeast Utah > Utah",https://www.mountainproject.com/route/106022831/finito,2.1,-1,Trad,5.11,1,70,38.10031,-109.57313
"Shit Start","Shady Crag > Long Canyon > Potash Road > Southeast Utah > Utah",https://www.mountainproject.com/route/114033312/shit-start,3.0,-1,Trad,5.11,1,100,38.54511,-109.65489
Mobius,"East Temple > Zion National Park > Southwest Utah > Utah",https://www.mountainproject.com/route/112478430/mobius,3.3,-1,Trad,5.11,5,500,37.22075,-112.94917
"Furr Ball","Cat Wall > Indian Creek > Southeast Utah > Utah",https://www.mountainproject.com/route/108706602/furr-ball,3.1,-1,Trad,5.11,1,100,38.09105,-109.56274
"Easton's Corner","House Of Putterman > Tusher Canyon > Southeast Utah > Utah",https://www.mountainproject.com/route/106132087/eastons-corner,3.1,-1,Trad,5.11,1,80,38.68879,-109.767
"Ipso facto","Lower Jungle > Jungle, on the Aquarius Plateau > South Central Utah > Utah",https://www.mountainproject.com/route/121170863/ipso-facto,3.3,-1,"Sport, Alpine",5.11,1,65,37.7503,-111.8708
"3 Chumps","Reservoir Wall > Indian Creek > Southeast Utah > Utah",https://www.mountainproject.com/route/105718063/3-chumps,2.4,-1,Trad,5.11,2,210,38.08284,-109.56274
"The Buzz","Petrified Hornet Wall > Indian Creek > Southeast Utah > Utah",https://www.mountainproject.com/route/114329208/the-buzz,3.2,-1,Trad,5.11,1,50,38.07259,-109.59057
"Boss Hog","2nd Meat Wall > Indian Creek > Southeast Utah > Utah",https://www.mountainproject.com/route/107529096/boss-hog,3.2,-1,Trad,5.11,1,100,38.1302,-109.5862
"Big Red","Technicolor Wall > Indian Creek > Southeast Utah > Utah",https://www.mountainproject.com/route/108732496/big-red,3.3,-1,Trad,5.11,1,100,38.05715,-109.58647
Kebab,"1st Meat Wall > Indian Creek > Southeast Utah > Utah",https://www.mountainproject.com/route/107629837/kebab,3.2,-1,Trad,5.11,1,50,38.12499,-109.5956
"""Stick to the Mission""","The Mission > Day Canyon > Potash Road > Southeast Utah > Utah",https://www.mountainproject.com/route/105884178/stick-to-the-mission,3.3,-1,Trad,"5.11 PG13",3,230,38.56973,-109.66167
"Hor D'oeuvres","Cliffs of Insanity > Indian Creek > Southeast Utah > Utah",https://www.mountainproject.com/route/108451915/hor-doeuvres,2.9,-1,Trad,5.11,1,170,38.15145,-109.59834
"Gravity's Rainbow","Plumb Line Gully > Little Cottonwood Canyon > Central Wasatch > Wasatch Range > Utah",https://www.mountainproject.com/route/106594014/gravitys-rainbow,2.5,-1,"Trad, Aid","5.11 A1",2,200,40.57437,-111.75696
"Self Pleasuring","Selfish Wall > Indian Creek > Southeast Utah > Utah",https://www.mountainproject.com/route/109589737/self-pleasuring,2.4,-1,Trad,5.11,1,30,38.1173,-109.5757
Lifer,"Bioturbation Wall > Indian Creek > Southeast Utah > Utah",https://www.mountainproject.com/route/106595692/lifer,3.1,-1,Trad,5.11,1,80,38.03398,-109.57738
"Tape Up","Green Valley Gap > Saint George > Southwest Utah > Utah",https://www.mountainproject.com/route/105787632/tape-up,3.1,-1,Boulder,"5.11 V5",1,20,37.08852,-113.63779
Felix,"Cat Wall > Indian Creek > Southeast Utah > Utah",https://www.mountainproject.com/route/106379365/felix,3.0,-1,Trad,5.11,1,150,38.09105,-109.56274
"The Flapper","The Scar > Potash Road > Southeast Utah > Utah",https://www.mountainproject.com/route/106427940/the-flapper,2.5,-1,Sport,5.11,1,35,38.57016,-109.58106
"Unnamed 5.11 (Just R of the Mayes)","Battle of the Bulge Buttress > Indian Creek > Southeast Utah > Utah",https://www.mountainproject.com/route/108920478/unnamed-511-just-r-of-the-mayes,2.3,-1,Trad,5.11,1,80,38.03837,-109.54917
David,"Technicolor Wall > Indian Creek > Southeast Utah > Utah",https://www.mountainproject.com/route/106300828/david,2.8,-1,Trad,5.11,2,,38.05715,-109.58647
"Black Sabbath","Sister Superior Group > Castle Valley > Southeast Utah > Utah",https://www.mountainproject.com/route/105937546/black-sabbath,3.0,-1,Trad,5.11,4,,38.6726,-109.3753
"Acme Plaque Me","Cat Wall > Indian Creek > Southeast Utah > Utah",https://www.mountainproject.com/route/108401880/acme-plaque-me,3.0,-1,Trad,5.11,1,110,38.09105,-109.56274
Barkolounger,"Technicolor Wall > Indian Creek > Southeast Utah > Utah",https://www.mountainproject.com/route/106732303/barkolounger,2.8,-1,Trad,5.11,1,80,38.05715,-109.58647
"Haters' Ball","Pistol Whipped > Indian Creek > Southeast Utah > Utah",https://www.mountainproject.com/route/107940384/haters-ball,2.8,-1,Trad,5.11,1,60,38.00828,-109.58715
"Unknown   67","Cat Wall > Indian Creek > Southeast Utah > Utah",https://www.mountainproject.com/route/106397195/unknown-67,3.0,-1,Trad,5.11,1,60,38.09105,-109.56274
"Hail of a Beach","The Beach > Indian Creek > Southeast Utah > Utah",https://www.mountainproject.com/route/119683618/hail-of-a-beach,2.8,-1,Trad,5.11,1,,38.16148,-109.58228
"April O'neil","Reptilian Wall > Long Canyon > Potash Road > Southeast Utah > Utah",https://www.mountainproject.com/route/114316494/april-oneil,2.8,-1,Trad,5.11,4,400,38.54912,-109.69864
"Golden Oldie","Goldenfingers Wall > Ferguson Canyon > Central Wasatch > Wasatch Range > Utah",https://www.mountainproject.com/route/106538861/golden-oldie,2.7,-1,Sport,5.11,1,30,40.61312,-111.77794
"Fat Boy Slim","Battle of the Bulge Buttress > Indian Creek > Southeast Utah > Utah",https://www.mountainproject.com/route/106052378/fat-boy-slim,2.4,-1,Trad,5.11,1,80,38.03837,-109.54917
"Angus Herder","Sacred Cow Wall > Indian Creek > Southeast Utah > Utah",https://www.mountainproject.com/route/116111473/angus-herder,2.8,-1,Trad,5.11,1,155,38.14011,-109.58944
"Kelley Route #53","2nd Meat Wall > Indian Creek > Southeast Utah > Utah",https://www.mountainproject.com/route/107818993/kelley-route-53,3.0,-1,Trad,5.11,1,145,38.1302,-109.5862
Bloodsport,"Left Rambo > Indian Creek > Southeast Utah > Utah",https://www.mountainproject.com/route/107105120/bloodsport,3.0,-1,Trad,5.11,1,120,38.04082,-109.57749
Ewe-tah,"Upper > Ewe Wall > Lambs Knoll > Saint George > Southwest Utah > Utah",https://www.mountainproject.com/route/112572798/ewe-tah,2.5,-1,Sport,5.11,1,60,37.30783,-113.11008
"The Womb","Sabbatical Wall > Indian Creek > Southeast Utah > Utah",https://www.mountainproject.com/route/107856917/the-womb,2.6,-1,Trad,5.11,1,60,38.02086,-109.58064
"Invisible Man","Scarface > Indian Creek > Southeast Utah > Utah",https://www.mountainproject.com/route/122075909/invisible-man,3.0,-1,Trad,5.11,1,45,38.06928,-109.55004
"Witness the Sickness","Pandemic Wall > Upper Buckhorn > Buckhorn Wash > San Rafael Swell - North > San Rafael Swell > South Central Utah > Utah",https://www.mountainproject.com/route/119908609/witness-the-sickness,3.0,-1,Trad,5.11,2,210,39.15007,-110.71576
"Numbing the Tip...aka unknown 28","Sinbad Wall aka Nuclear Wall > Indian Creek > Southeast Utah > Utah",https://www.mountainproject.com/route/119788894/numbing-the-tipaka-unknown-28,2.9,-1,Trad,5.11,1,69,38.04694,-109.55072
"Farming the Filthy","Epoch Dome > Rock Corral Day Use Area > Mineral Mountains > West Desert > Utah",https://www.mountainproject.com/route/117624788/farming-the-filthy,3.0,-1,Sport,5.11,2,181,38.37652,-112.82972
"Stand and Deliver","Monitor and Merrimac Buttes > Tusher Canyon > Southeast Utah > Utah",https://www.mountainproject.com/route/113784793/stand-and-deliver,3.0,-1,Trad,5.11,3,200,38.66319,-109.74275
"Unnamed 11","Maverick Buttress > Long Canyon > Potash Road > Southeast Utah > Utah",https://www.mountainproject.com/route/114367354/unnamed-11,3.0,-1,Trad,5.11,1,,38.54492,-109.69654
"The Hitch Hiker's Thumb","Critic's Choice > Indian Creek > Southeast Utah > Utah",https://www.mountainproject.com/route/106313442/the-hitch-hikers-thumb,3.0,-1,"Trad, Aid","5.11 A0",2,125,38.03075,-109.60173
"Look What Zog Do","Cat Wall > Indian Creek > Southeast Utah > Utah",https://www.mountainproject.com/route/111360549/look-what-zog-do,3.0,-1,Trad,5.11,1,90,38.09105,-109.56274
"Genuine Risk","Crescent Crack Buttress > Little Cottonwood Canyon > Central Wasatch > Wasatch Range > Utah",https://www.mountainproject.com/route/123426352/genuine-risk,3.0,-1,Trad,"5.11 PG13",-1,100,40.5733,-111.771
"Break a Leg","Critic's Choice > Indian Creek > Southeast Utah > Utah",https://www.mountainproject.com/route/108267067/break-a-leg,2.8,-1,Trad,5.11,1,80,38.03075,-109.60173
"Ryan in a Bikini","Farmington Crag > Farmington > Davis County > Northern Wasatch > Wasatch Range > Utah",https://www.mountainproject.com/route/106793616/ryan-in-a-bikini,2.8,-1,"Trad, Sport",5.11,1,70,40.9805,-111.8715
"Sarah's Line","Ibantik Lake > Uinta Mountains > Northeast Utah > Utah",https://www.mountainproject.com/route/122843873/sarahs-line,3.0,-1,"Sport, Alpine",5.11,5,800,40.70975,-110.94969
"East till Sunset","3D > Indian Creek > Southeast Utah > Utah",https://www.mountainproject.com/route/119818557/east-till-sunset,3.0,-1,Trad,5.11,2,150,38.07155,-109.57902
"Gunning For Gonzo","The Optimator > Indian Creek > Southeast Utah > Utah",https://www.mountainproject.com/route/105718789/gunning-for-gonzo,2.7,-1,Trad,5.11,1,110,38.0758,-109.5948
"Hatin Pagans","Ganja Wall > Lower Dakota Crag > La Sal Mountains > Southeast Utah > Utah",https://www.mountainproject.com/route/114553449/hatin-pagans,3.0,-1,"Trad, TR",5.11,1,110,38.47144,-109.27882
"Baby Blue","Technicolor Wall > Indian Creek > Southeast Utah > Utah",https://www.mountainproject.com/route/106506202/baby-blue,3.0,-1,Trad,5.11,1,155,38.05715,-109.58647
"Little Bitch","Bitchin' Buttress > Indian Creek > Southeast Utah > Utah",https://www.mountainproject.com/route/120616505/little-bitch,3.0,-1,Trad,5.11,1,50,38.07099,-109.53881
"West Face of Tucapit","Tucupit > North Fork of Taylor > Kolob Canyon > Zion National Park > Southwest Utah > Utah",https://www.mountainproject.com/route/109391515/west-face-of-tucapit,3.0,-1,Trad,"5.11 R",8,800,37.46471,-113.17594
"Phantom Pinnacle","Broken Tooth > Indian Creek > Southeast Utah > Utah",https://www.mountainproject.com/route/113657723/phantom-pinnacle,3.0,-1,Trad,5.11,1,,38.10072,-109.56618
"Sugar Plum","Critic's Choice > Indian Creek > Southeast Utah > Utah",https://www.mountainproject.com/route/120616390/sugar-plum,3.0,-1,Trad,5.11,1,65,38.03075,-109.60173
"A Hug from Andre","Cliffs of Insanity > Indian Creek > Southeast Utah > Utah",https://www.mountainproject.com/route/117268524/a-hug-from-andre,3.0,-1,Trad,5.11,1,130,38.15145,-109.59834
"Fistful of Dollars","Eastwood Crag > Indian Creek > Southeast Utah > Utah",https://www.mountainproject.com/route/119926435/fistful-of-dollars,3.0,-1,Trad,5.11,1,85,37.96343,-109.66584
"I'm blue, I'm a dog, I'm a dog.","Mullein Land > Logan Canyon > Cache Valley > Northern Wasatch > Wasatch Range > Utah",https://www.mountainproject.com/route/109095513/im-blue-im-a-dog-im-a-dog,2.5,-1,Sport,5.11,1,45,41.76825,-111.66486
"Sand and Steel","Wall Street > Potash Road > Southeast Utah > Utah",https://www.mountainproject.com/route/110130879/sand-and-steel,3.0,-1,Trad,5.11,1,80,38.54668,-109.59959
"Orographic Lift","Cloud Wall > Little Cottonwood Canyon > Central Wasatch > Wasatch Range > Utah",https://www.mountainproject.com/route/122680858/orographic-lift,3.0,-1,"Trad, Alpine",5.11,2,210,40.53217,-111.72895
"Malice In Wonderland","Little Canyon > Potash Road > Southeast Utah > Utah",https://www.mountainproject.com/route/119038024/malice-in-wonderland,3.0,-1,Trad,"5.11 R",3,120,38.57542,-109.65447
"Unnamed 5.11","Pods Wall > Indian Creek > Southeast Utah > Utah",https://www.mountainproject.com/route/116635220/unnamed-511,3.0,-1,Trad,5.11,1,60,38.07772,-109.55477
"Kung Pow Kitty","Kung Fu Theater > Mount Carmel Tunnel > Zion National Park > Southwest Utah > Utah",https://www.mountainproject.com/route/113770823/kung-pow-kitty,3.0,-1,Trad,5.11,4,400,37.21267,-112.96644
"Middle Tower – Daughter","Family Butte > San Rafael Swell - South > San Rafael Swell > South Central Utah > Utah",https://www.mountainproject.com/route/114397896/middle-tower-daughter,3.0,-1,Trad,5.11,3,300,38.79847,-110.45724
"The Suffering","Selfish Wall > Indian Creek > Southeast Utah > Utah",https://www.mountainproject.com/route/107534384/the-suffering,3.0,-1,Trad,5.11,1,50,38.1173,-109.5757
Herbivore,"Carnivore Wall > Triple Buttress Area > Long Canyon > Potash Road > Southeast Utah > Utah",https://www.mountainproject.com/route/120541228/herbivore,3.0,-1,Trad,5.11,1,60,38.54267,-109.66601
"Induced Labor","Sabbatical Wall > Indian Creek > Southeast Utah > Utah",https://www.mountainproject.com/route/108206316/induced-labor,3.0,-1,Trad,5.11,1,90,38.02086,-109.58064
"The Gash","The Gash > Indian Creek > Southeast Utah > Utah",https://www.mountainproject.com/route/109591741/the-gash,3.3,-1,Trad,5.11,1,70,38.0521,-109.5961
"Taste of Venom","Middle Earth > Potash Road > Southeast Utah > Utah",https://www.mountainproject.com/route/107521613/taste-of-venom,3.0,-1,Trad,5.11,1,85,38.55646,-109.63139
"Haciendo Polvo","Sandwalker Buttress > Cottonwood Wash > Bluff > 191 South > Southeast Utah > Utah",https://www.mountainproject.com/route/109333698/haciendo-polvo,3.0,-1,Trad,5.11,1,60,37.3032,-109.56092
"Slap Chop","Mars > Potash Road > Southeast Utah > Utah",https://www.mountainproject.com/route/106474757/slap-chop,2.6,-1,"Trad, Sport",5.11,1,90,38.5714,-109.5815
Peacemaker,"Pistol Whipped > Indian Creek > Southeast Utah > Utah",https://www.mountainproject.com/route/123468791/peacemaker,3.0,-1,Trad,5.11,1,70,38.00828,-109.58715
"The Big Cooter","The Gash > Indian Creek > Southeast Utah > Utah",https://www.mountainproject.com/route/123514156/the-big-cooter,3.0,-1,Trad,5.11,1,100,38.0521,-109.5961
"Caprica Six","The Galactica Wall > Long Canyon > Potash Road > Southeast Utah > Utah",https://www.mountainproject.com/route/121850778/caprica-six,3.0,-1,Trad,5.11,4,230,38.54554,-109.70539
"Hot Yoga","Parriot Mesa > Castle Valley > Southeast Utah > Utah",https://www.mountainproject.com/route/111952227/hot-yoga,3.0,-1,"Trad, Aid","5.11 A0",5,450,38.6727,-109.40484
"For Desert Rats Only","The Cirque of the Climbables > Kane Springs Canyon > Southeast Utah > Utah",https://www.mountainproject.com/route/105873622/for-desert-rats-only,3.0,-1,Trad,"5.11 R",5,600,38.52926,-109.59424
"Piggy Pincher","Carousel Butte > Lockhart Basin > Southeast Utah > Utah",https://www.mountainproject.com/route/120420673/piggy-pincher,3.0,-1,Trad,5.11,3,310,38.43218,-109.65365
"Tres Gatos","Tombstone > Lost World  Butte Area > Southeast Utah > Utah",https://www.mountainproject.com/route/116154720/tres-gatos,3.0,-1,"Trad, Aid","5.11 A0",3,370,38.6852,-109.9169
H&H,"Buxxcrack Buttress > Lower Buckhorn > Buckhorn Wash > San Rafael Swell - North > San Rafael Swell > South Central Utah > Utah",https://www.mountainproject.com/route/122190479/hh,3.0,-1,Trad,5.11,1,100,39.10536,-110.67013
"Gaius Baltower - Number Eight","The Galactica Wall > Long Canyon > Potash Road > Southeast Utah > Utah",https://www.mountainproject.com/route/121850632/gaius-baltower-number-eight,3.0,-1,"Trad, Aid","5.11 A0",3,200,38.54554,-109.70539
"Lovely Day","The Wall > Indian Creek > Southeast Utah > Utah",https://www.mountainproject.com/route/121527064/lovely-day,3.0,-1,Trad,5.11,1,90,38.17139,-109.59666
"Rising above the Swamp","Loose Marbles Slab > East Side > Zion National Park > Southwest Utah > Utah",https://www.mountainproject.com/route/120288059/rising-above-the-swamp,3.0,-1,Sport,5.11,1,,37.25904,-112.97287
"Armed to the Hilti","Epoch Dome > Rock Corral Day Use Area > Mineral Mountains > West Desert > Utah",https://www.mountainproject.com/route/117624762/armed-to-the-hilti,3.0,-1,Sport,5.11,1,181,38.37652,-112.82972
"Rain Catcher","Wall Street > Potash Road > Southeast Utah > Utah",https://www.mountainproject.com/route/114347229/rain-catcher,3.0,-1,Trad,5.11,1,90,38.54668,-109.59959
"Victory Garden","Trenchtown North > Upper Dakota Crag > La Sal Mountains > Southeast Utah > Utah",https://www.mountainproject.com/route/119247426/victory-garden,3.0,-1,Trad,5.11,1,100,38.47107,-109.2772
Dogmatic,"Dog Wall > Kane Springs Canyon > Southeast Utah > Utah",https://www.mountainproject.com/route/122031714/dogmatic,3.0,-1,Trad,5.11,1,80,38.50112,-109.61885
"Crooked As They Come","Election Wall > Indian Creek > Southeast Utah > Utah",https://www.mountainproject.com/route/117799861/crooked-as-they-come,3.0,-1,Trad,5.11,3,,38.16733,-109.58846
Locktite,"Hurt Locker Area > Indian Creek > Southeast Utah > Utah",https://www.mountainproject.com/route/116960324/locktite,3.0,-1,Trad,5.11,1,110,38.0675,-109.53651
"Pizza Party","Suburbia > Indian Creek > Southeast Utah > Utah",https://www.mountainproject.com/route/116958007/pizza-party,3.0,-1,Trad,5.11,1,130,38.18816,-109.61034
"Padded Cell","Cliffs of Insanity > Indian Creek > Southeast Utah > Utah",https://www.mountainproject.com/route/115370711/padded-cell,3.0,-1,Trad,5.11,1,100,38.15145,-109.59834
"Kitty Got Claws","Meow Tower > San Rafael Swell - North > San Rafael Swell > South Central Utah > Utah",https://www.mountainproject.com/route/118941565/kitty-got-claws,3.0,-1,Trad,5.11,2,200,39.06694,-110.68937
"East Face","The Rectory > Castle Valley > Southeast Utah > Utah",https://www.mountainproject.com/route/106616766/east-face,3.0,-1,Trad,5.11,2,250,38.6571,-109.3678
"Out From the Shadows","Bridger Jack Butte > The Bridger Jacks > Indian Creek > Southeast Utah > Utah",https://www.mountainproject.com/route/110268226/out-from-the-shadows,3.0,-1,Trad,5.11,5,400,38.08825,-109.60042
"The Fourth Dementia","The Optimator > Indian Creek > Southeast Utah > Utah",https://www.mountainproject.com/route/122798752/the-fourth-dementia,3.0,-1,Trad,"5.11 R",1,150,38.0758,-109.5948
Unnamed,"Deadman's Buttress > Long Canyon > Potash Road > Southeast Utah > Utah",https://www.mountainproject.com/route/117303996/unnamed,3.0,-1,Trad,5.11,1,70,38.54832,-109.66055
"Swedish meat balls","2nd Meat Wall > Indian Creek > Southeast Utah > Utah",https://www.mountainproject.com/route/107621523/swedish-meat-balls,2.8,-1,Trad,5.11,1,170,38.1302,-109.5862
"Pride & Joy","Disappointment Cliffs > Indian Creek > Southeast Utah > Utah",https://www.mountainproject.com/route/115870141/pride-joy,3.0,-1,Trad,5.11,1,90,38.11634,-109.59215
"The Gagger","Cathedral Mountain > Zion National Park > Southwest Utah > Utah",https://www.mountainproject.com/route/108014717/the-gagger,2.8,-1,"Trad, Sport",5.11,1,100,37.27482,-112.95817
"Cocaine Blues","Scarface > Indian Creek > Southeast Utah > Utah",https://www.mountainproject.com/route/108206140/cocaine-blues,2.8,-1,Trad,5.11,1,80,38.06928,-109.55004
"East Side Story","Canyon Overlook > East Side > Zion National Park > Southwest Utah > Utah",https://www.mountainproject.com/route/106116444/east-side-story,3.0,-1,Sport,5.11,1,95,37.2262,-112.88583
"Basilisk's Fang","Hogwarts Wall > Escalante Arm > Lake Powell > Glen Canyon > South Central Utah > Utah",https://www.mountainproject.com/route/112967954/basilisks-fang,3.0,-1,Trad,5.11,1,100,37.3115,-110.90087
"Lost in Transit","Twin Brothers > Zion National Park > Southwest Utah > Utah",https://www.mountainproject.com/route/106122062/lost-in-transit,3.0,-1,"Trad, Aid","5.11 A4-",8,1000,37.22804,-112.95355
"Pebble Pincher","Loose Marbles Slab > East Side > Zion National Park > Southwest Utah > Utah",https://www.mountainproject.com/route/120288106/pebble-pincher,3.0,-1,Trad,5.11,1,,37.25904,-112.97287
"Fat Boy Slim","Westwind Buttress > Little Cottonwood Canyon > Central Wasatch > Wasatch Range > Utah",https://www.mountainproject.com/route/106750291/fat-boy-slim,3.0,-1,Trad,"5.11 PG13",1,90,40.57454,-111.75817
DF,"Fin Wall > Indian Creek > Southeast Utah > Utah",https://www.mountainproject.com/route/107912066/df,3.0,-1,Trad,5.11,1,90,38.10031,-109.57313
"Song to the Siren","The Dark Continent Area > Jungle, on the Aquarius Plateau > South Central Utah > Utah",https://www.mountainproject.com/route/121210817/song-to-the-siren,3.0,-1,"Sport, Alpine",5.11,1,50,37.7634,-111.87064
"Unnamed R-facing Corner","Public Service Wall > Indian Creek > Southeast Utah > Utah",https://www.mountainproject.com/route/114419238/unnamed-r-facing-corner,3.0,-1,Trad,5.11,1,135,38.10607,-109.57104
"Rattle Snake Crack","Alcove Right > Little Valley > Southeast Utah > Utah",https://www.mountainproject.com/route/112569981/rattle-snake-crack,3.0,-1,Trad,5.11,1,115,38.62754,-109.6732
"Wiley Cryote","Priapism Pillar > Day Canyon > Potash Road > Southeast Utah > Utah",https://www.mountainproject.com/route/112776340/wiley-cryote,3.0,-1,Trad,5.11,1,65,38.56887,-109.67729
Splitter,"Moqui (Moki) Canyon > Bullfrog Bay Area > Lake Powell > Glen Canyon > South Central Utah > Utah",https://www.mountainproject.com/route/106382348/splitter,3.0,-1,Trad,5.11,1,50,37.48061,-110.63538
"Saddle Tower Buttress","Saddle Tower Buttress > Island In The Sky > Southeast Utah > Utah",https://www.mountainproject.com/route/109726270/saddle-tower-buttress,2.5,-1,"Trad, Aid","5.11 C1",4,420,38.48669,-109.85312
"Leaning Corner","Twighlight Canyon > Dangling Rope Area > Lake Powell > Glen Canyon > South Central Utah > Utah",https://www.mountainproject.com/route/106382439/leaning-corner,3.0,-1,Trad,5.11,1,80,37.13172,-110.96045
"Panty Shield","Wall Of Tiers > Uinta Mountains > Northeast Utah > Utah",https://www.mountainproject.com/route/107673516/panty-shield,3.0,-1,Trad,"5.11 R",1,80,40.67989,-110.88505
"Soup Poisoning","Grass Marsh Higgledy Pig > Blacksmith Fork Canyon > Cache Valley > Northern Wasatch > Wasatch Range > Utah",https://www.mountainproject.com/route/122932277/soup-poisoning,3.0,-1,Sport,5.11,1,50,41.62635,-111.67172
"Man Can Be Domesticated","The Planet of the Apes > Jungle, on the Aquarius Plateau > South Central Utah > Utah",https://www.mountainproject.com/route/108476446/man-can-be-domesticated,3.0,-1,"Trad, Alpine",5.11,2,190,37.7577,-111.8712
"Prostate Exam","Exam Wall > Lower Dakota Crag > La Sal Mountains > Southeast Utah > Utah",https://www.mountainproject.com/route/110794501/prostate-exam,3.0,-1,Trad,5.11,1,,38.47221,-109.28228
"Drag Queen","Trenchtown North > Upper Dakota Crag > La Sal Mountains > Southeast Utah > Utah",https://www.mountainproject.com/route/110794288/drag-queen,3.0,-1,Sport,5.11,1,,38.47107,-109.2772
"Peenut Gallery.","R Crags (Two Finger Canyon) > Eastern Reef Area.. AKA The Sandstone Alps > San Rafael Swell - South > San Rafael Swell > South Central Utah > Utah",https://www.mountainproject.com/route/108088621/peenut-gallery,3.0,-1,"Trad, Sport",5.11,1,70,38.84162,-110.468
"Conspiracy Laden","Kanab Creek Crag > Kanab Area > Southwest Utah > Utah",https://www.mountainproject.com/route/122844601/conspiracy-laden,3.0,-1,Sport,5.11,1,85,37.2721,-112.52108
"Be Here Now","South Summit Wall > Lone Peak Cirque > Central Wasatch > Wasatch Range > Utah",https://www.mountainproject.com/route/106256394/be-here-now,3.0,-1,"Trad, Alpine","5.11 PG13",1,200,40.52551,-111.7558
Persistence.,"L Crags (Sinister Slab Area) > Eastern Reef Area.. AKA The Sandstone Alps > San Rafael Swell - South > San Rafael Swell > South Central Utah > Utah",https://www.mountainproject.com/route/106451783/persistence,3.0,-1,Trad,5.11,4,710,38.88347,-110.45548
"Under the Influence.","F Crags > Eastern Reef Area.. AKA The Sandstone Alps > San Rafael Swell - South > San Rafael Swell > South Central Utah > Utah",https://www.mountainproject.com/route/106306806/under-the-influence,3.0,-1,Sport,5.11,1,160,38.88347,-110.45548
"Goliath's Groove","H Crags > Eastern Reef Area.. AKA The Sandstone Alps > San Rafael Swell - South > San Rafael Swell > South Central Utah > Utah",https://www.mountainproject.com/route/106306871/goliaths-groove,3.0,-1,Trad,5.11,5,700,38.88347,-110.45548
"Single Track","3D > Indian Creek > Southeast Utah > Utah",https://www.mountainproject.com/route/123360182/single-track,3.0,-1,Trad,5.11,1,65,38.07155,-109.57902
"The Long Crack","Reservoir Wall > Indian Creek > Southeast Utah > Utah",https://www.mountainproject.com/route/123409178/the-long-crack,3.0,-1,Trad,5.11,1,180,38.08284,-109.56274
"Little Man in Suburbia","Suburbia > Indian Creek > Southeast Utah > Utah",https://www.mountainproject.com/route/107848725/little-man-in-suburbia,2.6,-1,Trad,5.11,1,40,38.18816,-109.61034
"Minute Lube","4X4 > Indian Creek > Southeast Utah > Utah",https://www.mountainproject.com/route/107622556/minute-lube,2.6,-1,Trad,5.11,1,90,38.0733,-109.5813
"""Unnamed 5.11"" - OW right of Anunnaki pillar","The Optimator > Indian Creek > Southeast Utah > Utah",https://www.mountainproject.com/route/107349938/unnamed-511-ow-right-of-anunnaki-pillar,2.7,-1,Trad,5.11,1,115,38.0758,-109.5948
"Speedy Gonzales","Reservoir Wall > Indian Creek > Southeast Utah > Utah",https://www.mountainproject.com/route/113841771/speedy-gonzales,2.7,-1,Trad,5.11,2,160,38.08284,-109.56274
"Shayna's First Big Wall","Habitado > Indian Creek > Southeast Utah > Utah",https://www.mountainproject.com/route/122364308/shaynas-first-big-wall,2.7,-1,Trad,5.11,1,65,38.04004,-109.53368
"The Spell","Trick or Treat Wall > Indian Creek > Southeast Utah > Utah",https://www.mountainproject.com/route/121647532/the-spell,2.8,-1,Trad,5.11,1,70,38.05109,-109.56195
"Soylent Green","2nd Meat Wall > Indian Creek > Southeast Utah > Utah",https://www.mountainproject.com/route/112188459/soylent-green,2.8,-1,Trad,5.11,1,115,38.1302,-109.5862
"Sperm Bank","Sabbatical Wall > Indian Creek > Southeast Utah > Utah",https://www.mountainproject.com/route/112339408/sperm-bank,2.8,-1,Trad,5.11,1,35,38.02086,-109.58064
Rawhide,"Maverick Buttress > Long Canyon > Potash Road > Southeast Utah > Utah",https://www.mountainproject.com/route/108147448/rawhide,2.5,-1,Trad,5.11,1,120,38.54492,-109.69654
"90 proof","The Optimator > Indian Creek > Southeast Utah > Utah",https://www.mountainproject.com/route/107566342/90-proof,2.5,-1,Trad,5.11,1,90,38.0758,-109.5948
"Desert Siren (Tower)","Blue Gramma Cliff > Indian Creek > Southeast Utah > Utah",https://www.mountainproject.com/route/106727680/desert-siren-tower,2.2,-1,"Trad, Sport","5.11 PG13",2,150,38.02641,-109.5388
"Utopian Lamasery","Shangri La > Jungle, on the Aquarius Plateau > South Central Utah > Utah",https://www.mountainproject.com/route/115373047/utopian-lamasery,2.7,-1,"Sport, Alpine",5.11,1,45,37.77957,-111.90183
"Middle sport route","Port of Entry Crag > Kanab Area > Southwest Utah > Utah",https://www.mountainproject.com/route/119812291/middle-sport-route,2.7,-1,Sport,5.11,1,,37.0977,-112.54477
"Unknown 5.11","Hendrix Tower > Upper Buckhorn > Buckhorn Wash > San Rafael Swell - North > San Rafael Swell > South Central Utah > Utah",https://www.mountainproject.com/route/118911199/unknown-511,2.7,-1,Trad,"5.11 PG13",3,250,39.12519,-110.70037
"New Life or Second Life","Critic's Choice > Indian Creek > Southeast Utah > Utah",https://www.mountainproject.com/route/108104382/new-life-or-second-life,2.7,-1,Trad,5.11,1,50,38.03075,-109.60173
"Southeast Face","Culvert Canyon Block Tower > Potash Road > Southeast Utah > Utah",https://www.mountainproject.com/route/105718597/southeast-face,2.7,-1,Trad,5.11,2,,38.57972,-109.63395
Fourplay,"Grotto & Base of Great White Throne > Zion National Park > Southwest Utah > Utah",https://www.mountainproject.com/route/106155440/fourplay,2.7,-1,Trad,5.11,2,200,37.25422,-112.95241
"The Season of the Worm","The Optimator > Indian Creek > Southeast Utah > Utah",https://www.mountainproject.com/route/105884531/the-season-of-the-worm,2.4,-1,Trad,5.11,2,200,38.0758,-109.5948
"Critical Mass","Critic's Choice > Indian Creek > Southeast Utah > Utah",https://www.mountainproject.com/route/113891418/critical-mass,2.4,-1,Trad,5.11,1,90,38.03075,-109.60173
"Desert Sunset","Scarface > Indian Creek > Southeast Utah > Utah",https://www.mountainproject.com/route/107753057/desert-sunset,2.1,-1,Trad,5.11,1,120,38.06928,-109.55004
"The Highline","ERM Wall > Moosehorn > Uinta Mountains > Northeast Utah > Utah",https://www.mountainproject.com/route/108352922/the-highline,2.4,-1,"Trad, Alpine",5.11,1,75,40.70209,-110.89844
"Unknown Bandito Route","Scarface > Indian Creek > Southeast Utah > Utah",https://www.mountainproject.com/route/110296647/unknown-bandito-route,2.2,-1,Trad,5.11,1,80,38.06928,-109.55004
"Unnamed 11 (shares BG anchor)","Blue Gramma Cliff > Indian Creek > Southeast Utah > Utah",https://www.mountainproject.com/route/105811851/unnamed-11-shares-bg-anchor,1.9,-1,Trad,5.11,1,90,38.02641,-109.5388
"Tommy Gun","Pistol Whipped > Indian Creek > Southeast Utah > Utah",https://www.mountainproject.com/route/108426190/tommy-gun,2.6,-1,Trad,5.11,1,80,38.00828,-109.58715
Roofus,"Humane Society Wall > Little Cottonwood Canyon > Central Wasatch > Wasatch Range > Utah",https://www.mountainproject.com/route/108311798/roofus,2.4,-1,"Trad, Sport",5.11,1,50,40.5705,-111.7769
"Turn Your Head and Cough","Exam Wall > Lower Dakota Crag > La Sal Mountains > Southeast Utah > Utah",https://www.mountainproject.com/route/110794514/turn-your-head-and-cough,2.6,-1,Sport,5.11,1,,38.47221,-109.28228
"To Hell With The Scarecrows","The Planet of the Apes > Jungle, on the Aquarius Plateau > South Central Utah > Utah",https://www.mountainproject.com/route/107740132/to-hell-with-the-scarecrows,2.7,-1,"Trad, Sport, Alpine",5.11,1,60,37.7577,-111.8712
"Wings of Leather","The Warlock > Hell Roaring Canyon > State Highway 313 > Southeast Utah > Utah",https://www.mountainproject.com/route/106503544/wings-of-leather,2.3,-1,"Trad, Aid","5.11 C0 PG13",3,350,38.58376,-109.94776
"Boomtown Rats","Altaworld > Hellgate Cliffs > Little Cottonwood Canyon > Central Wasatch > Wasatch Range > Utah",https://www.mountainproject.com/route/110778827/boomtown-rats,2.3,-1,Sport,5.11,1,90,40.59131,-111.64796
"Spark Wallberg","Sparks Wall > Indian Creek > Southeast Utah > Utah",https://www.mountainproject.com/route/112339353/spark-wallberg,2.3,-1,Trad,5.11,1,35,38.04022,-109.59149
"Kelley Power","Power Wall > Indian Creek > Southeast Utah > Utah",https://www.mountainproject.com/route/107848705/kelley-power,2.4,-1,Trad,5.11,1,100,38.0679,-109.5416
"Demon's Dance","Middle Bell Tower > Bell's Canyon > Central Wasatch > Wasatch Range > Utah",https://www.mountainproject.com/route/121720018/demons-dance,2.5,-1,"Trad, Aid","5.11 A0 R",3,375,40.56225,-111.76512
"Finger Lickin' Good","Habitado > Indian Creek > Southeast Utah > Utah",https://www.mountainproject.com/route/121538166/finger-lickin-good,2.5,-1,Trad,5.11,1,65,38.04004,-109.53368
"The Force Boyle.","Johnson Mountain > Zion National Park > Southwest Utah > Utah",https://www.mountainproject.com/route/106530625/the-force-boyle,2.5,-1,"Trad, Aid","5.11 A0",8,800,37.17379,-112.98628
"Smiling at the Majorettes","The Slums > The Overlook > Brian Head > Southwest Utah > Utah",https://www.mountainproject.com/route/117320026/smiling-at-the-majorettes,2.5,-1,"Sport, Alpine",5.11,1,65,37.71577,-112.77491
"Unknown 3","Maverick Buttress > Long Canyon > Potash Road > Southeast Utah > Utah",https://www.mountainproject.com/route/116676317/unknown-3,2.5,-1,Trad,5.11,1,60,38.54492,-109.69654
Unnamed,"Technicolor Wall > Indian Creek > Southeast Utah > Utah",https://www.mountainproject.com/route/122246063/unnamed,2.5,-1,Trad,5.11,1,70,38.05715,-109.58647
?,"Supercrack Buttress > Indian Creek > Southeast Utah > Utah",https://www.mountainproject.com/route/110336209/anonymous,2.5,-1,Trad,5.11,1,90,38.03635,-109.54551
"Walk The Line","Lower Mill Creek > Mill Creek > La Sal Mountains > Southeast Utah > Utah",https://www.mountainproject.com/route/108674230/walk-the-line,2.5,-1,Trad,5.11,3,350,38.47684,-109.38133
"Sweet and Sour","Mary Ellen's Gulch > Southern Wasatch > Wasatch Range > Utah",https://www.mountainproject.com/route/107721249/sweet-and-sour,2.5,-1,Sport,5.11,1,30,40.53072,-111.61742
"Alley Slug aka Powhana","Slug Wall > Indian Creek > Southeast Utah > Utah",https://www.mountainproject.com/route/107908046/alley-slug-aka-powhana,2.5,-1,Trad,5.11,1,100,38.09271,-109.54931
Nutter,"Cliffs of Insanity > Indian Creek > Southeast Utah > Utah",https://www.mountainproject.com/route/106736548/nutter,2.5,-1,Trad,5.11,1,70,38.15145,-109.59834
"Top Gun","Pistol Whipped > Indian Creek > Southeast Utah > Utah",https://www.mountainproject.com/route/111979421/top-gun,2.0,-1,Trad,5.11,1,75,38.00828,-109.58715
"Misleading Lead","Red Wall > Red Ledges > Diamond Fork Canyon > Spanish Fork Canyon > Southern Wasatch > Wasatch Range > Utah",https://www.mountainproject.com/route/107277233/misleading-lead,2.1,-1,"Sport, TR",5.11,1,70,40.08022,-111.40294
Desertglow,"Mars > Potash Road > Southeast Utah > Utah",https://www.mountainproject.com/route/106470397/desertglow,2.0,-1,Sport,5.11,1,60,38.5714,-109.5815
"The Brave Little Toaster","Tiki Tower > Island In The Sky > Southeast Utah > Utah",https://www.mountainproject.com/route/114278560/the-brave-little-toaster,2.3,-1,"Trad, Aid","5.11 C1",3,300,38.3984,-109.81493
"Over Two Soon","The Holy Amphitheater > North Fork of Taylor > Kolob Canyon > Zion National Park > Southwest Utah > Utah",https://www.mountainproject.com/route/117763181/over-two-soon,2.3,-1,Sport,5.11,5,650,37.47137,-113.16918
"Heinous 'Cuz They Anus","The Wall > Indian Creek > Southeast Utah > Utah",https://www.mountainproject.com/route/112525488/heinous-cuz-they-anus,2.3,-1,Trad,5.11,1,150,38.17139,-109.59666
"Unemployment Line","Bird's View Butte > Bird's View Butte / Crow's Head Spires > Island In The Sky > Southeast Utah > Utah",https://www.mountainproject.com/route/107996173/unemployment-line,2.3,-1,Trad,5.11,4,400,38.49186,-109.77193
Unknown,"Volkswagon Wall > Spring Canyon > Central Utah > Utah",https://www.mountainproject.com/route/116672630/unknown,2.3,-1,"Sport, TR",5.11,1,35,39.70034,-110.91995
"Unnamed 5.11","The Beach > Indian Creek > Southeast Utah > Utah",https://www.mountainproject.com/route/119684900/unnamed-511,2.3,-1,Trad,5.11,1,65,38.16148,-109.58228
Zow,"Supercrack Buttress > Indian Creek > Southeast Utah > Utah",https://www.mountainproject.com/route/106609218/zow,2.3,-1,Trad,5.11,1,90,38.03635,-109.54551
"Lightning Wind","Wind Buttress > Ibex > West Desert > Utah",https://www.mountainproject.com/route/107580176/lightning-wind,2.3,-1,"Trad, Sport",5.11,2,190,38.99159,-113.38951
"Above the Hearth","Duomo Wall > Ferguson Canyon > Central Wasatch > Wasatch Range > Utah",https://www.mountainproject.com/route/106235725/above-the-hearth,2.3,-1,Trad,"5.11 PG13",1,50,40.613,-111.786
Bitch,"Fringe Walls > Indian Creek > Southeast Utah > Utah",https://www.mountainproject.com/route/120657704/bitch,2.3,-1,Trad,5.11,1,50,38.06227,-109.54956
"Powder Your Nose","Scarface > Indian Creek > Southeast Utah > Utah",https://www.mountainproject.com/route/112327343/powder-your-nose,2.2,-1,Trad,5.11,1,90,38.06928,-109.55004
"The Drip","Main Hellgate > Hellgate Cliffs > Little Cottonwood Canyon > Central Wasatch > Wasatch Range > Utah",https://www.mountainproject.com/route/119180032/the-drip,2.3,-1,Trad,5.11,4,450,40.59065,-111.6495
"Gopherus Agassizi","Turtle Wall > Saint George > Southwest Utah > Utah",https://www.mountainproject.com/route/106383267/gopherus-agassizi,1.9,-1,Sport,5.11,1,30,37.1498,-113.61204
"Puss in Boots","Mars > Potash Road > Southeast Utah > Utah",https://www.mountainproject.com/route/106548298/puss-in-boots,1.9,-1,Sport,5.11,1,60,38.5714,-109.5815
Unknown,"South Sixshooter > Indian Creek > Southeast Utah > Utah",https://www.mountainproject.com/route/114034026/unknown,2.3,-1,Trad,5.11,1,50,38.12093,-109.65158
"Chain Reaction","Wall of Colors > Logan Canyon > Cache Valley > Northern Wasatch > Wasatch Range > Utah",https://www.mountainproject.com/route/112334517/chain-reaction,2.3,-1,Sport,5.11,1,150,41.80828,-111.63175
"Without Wheels","Twilight Buttress > Big Willow Canyon > Central Wasatch > Wasatch Range > Utah",https://www.mountainproject.com/route/107206607/without-wheels,2.3,-1,Trad,5.11,1,30,40.53601,-111.80204
"Mama Mia","The Wall > Indian Creek > Southeast Utah > Utah",https://www.mountainproject.com/route/105883430/mama-mia,2.3,-1,Trad,5.11,1,180,38.17139,-109.59666
"Sportsman's Paradise","South Face > Black Peeler Buttress > Little Cottonwood Canyon > Central Wasatch > Wasatch Range > Utah",https://www.mountainproject.com/route/106809482/sportsmans-paradise,2.0,-1,Trad,5.11,3,215,40.57399,-111.7486
Anaconda,"Reptilian Wall > Long Canyon > Potash Road > Southeast Utah > Utah",https://www.mountainproject.com/route/117304146/anaconda,2.0,-1,Trad,5.11,2,90,38.54912,-109.69864
"Cat Scan","Cat Wall > Indian Creek > Southeast Utah > Utah",https://www.mountainproject.com/route/105960031/cat-scan,2.0,-1,Trad,5.11,1,120,38.09105,-109.56274
Serendipity,"North Tower > Valley of the Gods > Southeast Utah > Utah",https://www.mountainproject.com/route/105883824/serendipity,2.0,-1,"Trad, Aid","5.11 C1",2,250,37.32208,-109.84743
Apathy,"Selfish Wall > Indian Creek > Southeast Utah > Utah",https://www.mountainproject.com/route/106720526/apathy,2.0,-1,"Trad, Sport",5.11,1,70,38.1173,-109.5757
Lioness,"Cat Wall > Indian Creek > Southeast Utah > Utah",https://www.mountainproject.com/route/111052394/lioness,2.0,-1,Trad,5.11,1,120,38.09105,-109.56274
"Loosen Up","Tighten Up Tower > Valley of the Gods > Southeast Utah > Utah",https://www.mountainproject.com/route/108030173/loosen-up,2.0,-1,Trad,5.11,1,60,37.29335,-109.81377
"Shotgun Wedding","The Bride > Little Valley > Southeast Utah > Utah",https://www.mountainproject.com/route/105936959/shotgun-wedding,2.0,-1,"Trad, Aid","5.11 A1+ R",3,300,38.61827,-109.67517
"Unknown finger crack L of Crappucino","Fin Wall > Indian Creek > Southeast Utah > Utah",https://www.mountainproject.com/route/106750189/unknown-finger-crack-l-of-crappucino,2.0,-1,Trad,5.11,1,80,38.10031,-109.57313
Mirabilis,"Gargoyle Wall > Little Cottonwood Canyon > Central Wasatch > Wasatch Range > Utah",https://www.mountainproject.com/route/121886525/mirabilis,2.0,-1,Trad,5.11,2,170,40.5737,-111.7626
"Ugly Duckling","Ducks in Bondage Slab > Black Peeler Buttress > Little Cottonwood Canyon > Central Wasatch > Wasatch Range > Utah",https://www.mountainproject.com/route/121699843/ugly-duckling,2.0,-1,Trad,"5.11 PG13",1,70,40.57585,-111.74802
[Redacted],"Other Mill Creek Areas > Mill Creek > La Sal Mountains > Southeast Utah > Utah",https://www.mountainproject.com/route/112178340/redacted,2.0,-1,Trad,5.11,1,90,38.49974,-109.30695
Unknown,"The Slums > The Overlook > Brian Head > Southwest Utah > Utah",https://www.mountainproject.com/route/117320094/unknown,2.0,-1,"Sport, Alpine",5.11,1,65,37.71577,-112.77491
"Wigs in Space","Red Arch Mountain > Zion National Park > Southwest Utah > Utah",https://www.mountainproject.com/route/105718366/wigs-in-space,2.0,-1,Trad,5.11,10,800,37.25533,-112.94913
"Cradle to Grave","The Watchman > Zion National Park > Southwest Utah > Utah",https://www.mountainproject.com/route/106352947/cradle-to-grave,2.0,-1,"Trad, Aid","5.11 C2",10,1000,37.18464,-112.97954
"Lead-free Gut Pile","Middle Fork of Taylor > Kolob Canyon > Zion National Park > Southwest Utah > Utah",https://www.mountainproject.com/route/110681971/lead-free-gut-pile,2.0,-1,Trad,5.11,2,370,37.4544,-113.18443
"Sacred Simplicity","Fringe Walls > Indian Creek > Southeast Utah > Utah",https://www.mountainproject.com/route/120501484/sacred-simplicity,2.0,-1,Trad,5.11,1,110,38.06227,-109.54956
"BBQ Lamb Chops","North Corral Crag > Corral Crags > Ibex > West Desert > Utah",https://www.mountainproject.com/route/116118605/bbq-lamb-chops,2.0,-1,Trad,5.11,2,80,38.98536,-113.3912
Stokat,"Cat Wall > Indian Creek > Southeast Utah > Utah",https://www.mountainproject.com/route/113826829/stokat,2.0,-1,Trad,5.11,1,60,38.09105,-109.56274
"Guy on a Buffalo","Maverick Buttress > Long Canyon > Potash Road > Southeast Utah > Utah",https://www.mountainproject.com/route/111231931/guy-on-a-buffalo,2.0,-1,Trad,5.11,1,45,38.54492,-109.69654
"Mitch's Maddness","Steve's Tower > The Three Amigos Area > Big Water Area > Glen Canyon > South Central Utah > Utah",https://www.mountainproject.com/route/110208902/mitchs-maddness,2.0,-1,Trad,5.11,1,115,37.039,-111.63366
Rattler,"Ice Cream Parlor > Kane Springs Canyon > Southeast Utah > Utah",https://www.mountainproject.com/route/105884223/rattler,2.7,-1,Trad,5.11,1,70,38.5092,-109.5995
Tinderloins,"Tenderloins Wall > Indian Creek > Southeast Utah > Utah",https://www.mountainproject.com/route/111983463/tinderloins,2.0,-1,Trad,5.11,1,115,38.1357,-109.5812
"Route 666","Scarface > Indian Creek > Southeast Utah > Utah",https://www.mountainproject.com/route/106644719/route-666,2.0,-1,Trad,5.11,1,120,38.06928,-109.55004
"The Dangling Chad","Election Wall > Indian Creek > Southeast Utah > Utah",https://www.mountainproject.com/route/106614242/the-dangling-chad,2.0,-1,Trad,5.11,1,100,38.16733,-109.58846
"Wheeler Route","Green Adjective Gully > Little Cottonwood Canyon > Central Wasatch > Wasatch Range > Utah",https://www.mountainproject.com/route/106935545/wheeler-route,2.0,-1,Trad,5.11,1,24,40.5741,-111.7543
"Sgt. Fish Scale","Critic's Choice > Indian Creek > Southeast Utah > Utah",https://www.mountainproject.com/route/108483423/sgt-fish-scale,2.0,-1,Trad,5.11,1,60,38.03075,-109.60173
Sylvester,"Cat Wall > Indian Creek > Southeast Utah > Utah",https://www.mountainproject.com/route/106151210/sylvester,2.0,-1,Trad,5.11,1,60,38.09105,-109.56274
"2 Much","Disappointment Cliffs > Indian Creek > Southeast Utah > Utah",https://www.mountainproject.com/route/107903246/2-much,2.0,-1,Trad,5.11,1,120,38.11634,-109.59215
Wilma,"Flintstone Rock > Gold Bar Canyon > Potash Road > Southeast Utah > Utah",https://www.mountainproject.com/route/108095507/wilma,2.0,-1,Trad,5.11,1,55,38.59105,-109.64764
"The Kitten","Cat Wall > Indian Creek > Southeast Utah > Utah",https://www.mountainproject.com/route/107027215/the-kitten,2.0,-1,Trad,5.11,1,80,38.09105,-109.56274
"Once in a Blood Moon","Middle Bell Tower > Bell's Canyon > Central Wasatch > Wasatch Range > Utah",https://www.mountainproject.com/route/122529571/once-in-a-blood-moon,2.7,-1,Trad,"5.11 PG13",4,600,40.56225,-111.76512
"Camel Toe","Ibextopia > Ibex > West Desert > Utah",https://www.mountainproject.com/route/118161902/camel-toe,2.0,-1,Sport,5.11,1,,38.97469,-113.38981
"Fiddle Sticks Tower, East Face","North Wash > Hite Area > Lake Powell > Glen Canyon > South Central Utah > Utah",https://www.mountainproject.com/route/116665642/fiddle-sticks-tower-east-face,2.0,-1,"Trad, Aid","5.11 C1 PG13",1,90,37.88248,-110.42819
"Dust to Dusk","Donnelly Canyon > Indian Creek > Southeast Utah > Utah",https://www.mountainproject.com/route/121573725/dust-to-dusk,2.0,-1,Trad,5.11,1,150,38.0398,-109.5436
"Left crack TR","Short Stuff Crag > Zion National Park > Southwest Utah > Utah",https://www.mountainproject.com/route/120293382/left-crack-tr,2.0,-1,TR,5.11,1,,37.21776,-112.9764
"Sand Fears","La Sal Mountain Viewpoint Area > Arches National Park > Southeast Utah > Utah",https://www.mountainproject.com/route/118127053/sand-fears,2.0,-1,Trad,5.11,1,150,38.62705,-109.59403
Absolution,"Sister Superior Group > Castle Valley > Southeast Utah > Utah",https://www.mountainproject.com/route/114192634/absolution,2.0,-1,Trad,5.11,3,320,38.6726,-109.3753
"4,5,6,7","Vertical Smile Wall > Lower Buckhorn > Buckhorn Wash > San Rafael Swell - North > San Rafael Swell > South Central Utah > Utah",https://www.mountainproject.com/route/121529059/4567,2.0,-1,Sport,5.11,1,70,39.11244,-110.67925
"Wide Thing  (you make my heart sing)","Buxxcrack Buttress > Lower Buckhorn > Buckhorn Wash > San Rafael Swell - North > San Rafael Swell > South Central Utah > Utah",https://www.mountainproject.com/route/122190623/wide-thing-you-make-my-heart-sing,2.0,-1,Trad,5.11,1,60,39.10536,-110.67013
"Armed & Dangerous","Pistol Whipped > Indian Creek > Southeast Utah > Utah",https://www.mountainproject.com/route/119500849/armed-dangerous,2.0,-1,Trad,5.11,4,400,38.00828,-109.58715
"Unknown Left of The Wave","Supercrack Buttress > Indian Creek > Southeast Utah > Utah",https://www.mountainproject.com/route/112798714/unknown-left-of-the-wave,2.0,-1,Trad,5.11,1,140,38.03635,-109.54551
"Try Me Again?","Selfish Wall > Indian Creek > Southeast Utah > Utah",https://www.mountainproject.com/route/121389214/try-me-again,2.0,-1,Trad,5.11,1,45,38.1173,-109.5757
"Everybody Hurts","Hurt Locker Area > Indian Creek > Southeast Utah > Utah",https://www.mountainproject.com/route/116960357/everybody-hurts,2.0,-1,Trad,5.11,1,40,38.0675,-109.53651
"Cams Crack","Trick or Treat Wall > Indian Creek > Southeast Utah > Utah",https://www.mountainproject.com/route/122335075/cams-crack,2.5,-1,Trad,5.11,1,120,38.05109,-109.56195
"The Secret","Volkswagon Wall > Spring Canyon > Central Utah > Utah",https://www.mountainproject.com/route/113870449/the-secret,2.0,-1,Sport,5.11,1,45,39.70034,-110.91995
"Sand Tears","La Sal Mountain Viewpoint Area > Arches National Park > Southeast Utah > Utah",https://www.mountainproject.com/route/118127015/sand-tears,2.0,-1,Trad,5.11,1,50,38.62705,-109.59403
"The Septuagenarian","Lower Jungle > Jungle, on the Aquarius Plateau > South Central Utah > Utah",https://www.mountainproject.com/route/121198717/the-septuagenarian,2.5,-1,"Sport, Alpine",5.11,1,45,37.7503,-111.8708
"Green Corner","Hideout Wall > La Sal Mountains > Southeast Utah > Utah",https://www.mountainproject.com/route/118164828/green-corner,2.0,-1,Trad,5.11,1,70,38.68715,-109.18336
"Snaggle Tooth","Broken Tooth > Indian Creek > Southeast Utah > Utah",https://www.mountainproject.com/route/107067460/snaggle-tooth,2.0,-1,Trad,5.11,1,110,38.10072,-109.56618
"Aspiring Meth Addicts","Reds Canyon > San Rafael Swell - South > San Rafael Swell > South Central Utah > Utah",https://www.mountainproject.com/route/114371607/aspiring-meth-addicts,2.0,-1,"Trad, Aid","5.11 C1 PG13",3,420,38.71434,-110.96732
"The Mother Ship","First Switchback > Long Canyon > Potash Road > Southeast Utah > Utah",https://www.mountainproject.com/route/121707100/the-mother-ship,2.0,-1,Trad,5.11,1,65,38.55038,-109.6855
Heck'em,"Selfish Wall > Indian Creek > Southeast Utah > Utah",https://www.mountainproject.com/route/114288948/heckem,2.0,-1,Trad,5.11,1,80,38.1173,-109.5757
"Daniel Dravot","Lower Jungle > Jungle, on the Aquarius Plateau > South Central Utah > Utah",https://www.mountainproject.com/route/121274224/daniel-dravot,2.0,-1,"Sport, Alpine",5.11,1,35,37.7503,-111.8708
"Dog Days","Dog Wall > Kane Springs Canyon > Southeast Utah > Utah",https://www.mountainproject.com/route/122031745/dog-days,2.0,-1,Trad,5.11,1,100,38.50112,-109.61885
"On Look","Reservoir Wall > Indian Creek > Southeast Utah > Utah",https://www.mountainproject.com/route/115687655/on-look,2.0,-1,Trad,5.11,1,55,38.08284,-109.56274
Project,"The Rest Home > Cedar Canyon > Cedar City > Southwest Utah > Utah",https://www.mountainproject.com/route/115378002/project,2.0,-1,Sport,5.11,1,35,37.6245,-112.93198
"The Three Gargoyles","Tower of Babel > Arches National Park > Southeast Utah > Utah",https://www.mountainproject.com/route/105718237/the-three-gargoyles,2.0,-1,"Trad, Aid","5.11 C1 R",5,500,38.64101,-109.60209
"Dr. Yu","First Switchback > Long Canyon > Potash Road > Southeast Utah > Utah",https://www.mountainproject.com/route/121706970/dr-yu,2.0,-1,Trad,5.11,1,50,38.55038,-109.6855
"Hors N around","High Horse > Indian Creek > Southeast Utah > Utah",https://www.mountainproject.com/route/112525494/hors-n-around,2.0,-1,Trad,5.11,1,90,38.03999,-109.54057
"Billy the Goat’s Revenge","North Side > Aerial Wall > Garth Rocks > Saint George > Southwest Utah > Utah",https://www.mountainproject.com/route/113937822/billy-the-goats-revenge,2.0,-1,Sport,"5.11 PG13",1,45,37.04746,-113.51275
"Adrenaline Junkies","Syringe > Ibex > West Desert > Utah",https://www.mountainproject.com/route/108056371/adrenaline-junkies,2.0,-1,"Trad, Sport",5.11,3,250,38.9896,-113.3899
Unknown,"Upper Hammond Spire > Hammond Canyon > Southeast Utah > Utah",https://www.mountainproject.com/route/107780368/unknown,2.0,-1,Trad,"5.11 PG13",2,,37.7057,-109.803
"Hoods in the Woods","The Watchman > Zion National Park > Southwest Utah > Utah",https://www.mountainproject.com/route/106620580/hoods-in-the-woods,2.0,-1,Trad,5.11,3,300,37.18464,-112.97954
"Acid Rain","Bioturbation Wall > Indian Creek > Southeast Utah > Utah",https://www.mountainproject.com/route/113533835/acid-rain,2.0,-1,Trad,5.11,1,70,38.03398,-109.57738
"Route of All Evil","Scarface > Indian Creek > Southeast Utah > Utah",https://www.mountainproject.com/route/112833119/route-of-all-evil,2.0,-1,Trad,5.11,1,140,38.06928,-109.55004
"North Face Crack","Twin Rocks Area > Capitol Reef > South Central Utah > Utah",https://www.mountainproject.com/route/107413114/north-face-crack,2.0,-1,Trad,5.11,1,60,38.32619,-111.34057
"Jaccard Hand-O-Lin","Spring Creek > Cedar City > Southwest Utah > Utah",https://www.mountainproject.com/route/111204461/jaccard-hand-o-lin,2.0,-1,Trad,5.11,2,100,37.5218,-113.1847
"Plan D","Isolated Climbs > Kane Springs Canyon > Southeast Utah > Utah",https://www.mountainproject.com/route/108011467/plan-d,2.0,-1,Trad,5.11,1,70,38.5232,-109.6024
"The Streets of Delhi","Original Meat Wall > Indian Creek > Southeast Utah > Utah",https://www.mountainproject.com/route/108760234/the-streets-of-delhi,2.0,-1,Trad,5.11,1,90,38.13809,-109.58571
"Hogs, Corn, and Tobacco","Spanish Castle Magic > Blacksmith Fork Canyon > Cache Valley > Northern Wasatch > Wasatch Range > Utah",https://www.mountainproject.com/route/122932411/hogs-corn-and-tobacco,2.0,-1,Sport,5.11,1,50,41.62565,-111.68043
"Pit Viper","Vitamin D Wall > Indian Creek > Southeast Utah > Utah",https://www.mountainproject.com/route/107766927/pit-viper,2.0,-1,Trad,5.11,2,250,37.9897,-109.6245
"Captian Kangaroo","Bioturbation Wall > Indian Creek > Southeast Utah > Utah",https://www.mountainproject.com/route/108255872/captian-kangaroo,2.0,-1,Trad,5.11,1,,38.03398,-109.57738
"Room with a view","Trenchtown North > Upper Dakota Crag > La Sal Mountains > Southeast Utah > Utah",https://www.mountainproject.com/route/110794276/room-with-a-view,2.0,-1,Sport,5.11,1,,38.47107,-109.2772
"Squatters' Spoils","Outlaw Canyon > Bluff > 191 South > Southeast Utah > Utah",https://www.mountainproject.com/route/109346519/squatters-spoils,2.0,-1,Trad,5.11,1,60,37.28716,-109.5475
"Happy Ending","Parriot Mesa > Castle Valley > Southeast Utah > Utah",https://www.mountainproject.com/route/107164992/happy-ending,2.0,-1,Trad,"5.11 PG13",1,100,38.6727,-109.40484
"Campsite TR","Campsite Wall > The Cape > Ibex > West Desert > Utah",https://www.mountainproject.com/route/108589491/campsite-tr,2.0,-1,TR,5.11,1,40,38.86543,-113.43494
"Hall Pass","Makers Mark > The Whisky Caps > Little Valley > Southeast Utah > Utah",https://www.mountainproject.com/route/106073188/hall-pass,2.0,-1,Trad,"5.11 PG13",2,250,38.61827,-109.67517
Kneeject,"Wall Mart > Indian Creek > Southeast Utah > Utah",https://www.mountainproject.com/route/122195778/kneeject,2.0,-1,Trad,5.11,1,110,38.06365,-109.53468
Catamean,"Cat Wall > Indian Creek > Southeast Utah > Utah",https://www.mountainproject.com/route/123518716/catamean,2.0,-1,Trad,5.11,1,50,38.09105,-109.56274
"30 Minute Tape Job","Lost World Butte > Lost World  Butte Area > Southeast Utah > Utah",https://www.mountainproject.com/route/123549669/30-minute-tape-job,2.0,-1,Trad,5.11,2,300,38.7052,-109.9311
"The Lost Luebben (aka Scream and Slither)","Left Side > Long Canyon > Potash Road > Southeast Utah > Utah",https://www.mountainproject.com/route/123677533/the-lost-luebben-aka-scream-and-slither,3.0,-1,Trad,"5.11 R",1,225,38.58682,-109.69722
"Code Blue","Triangle Wall > Little Cottonwood Canyon > Central Wasatch > Wasatch Range > Utah",https://www.mountainproject.com/route/123874218/code-blue,2.0,-1,"Trad, Aid","5.11 A2+",1,180,40.56724,-111.73428
"Unnamed #2","Hideout Wall > La Sal Mountains > Southeast Utah > Utah",https://www.mountainproject.com/route/124003677/unnamed-2,2.0,-1,Trad,5.11,1,70,38.68715,-109.18336
"Chasing Maverics","High Horse > Indian Creek > Southeast Utah > Utah",https://www.mountainproject.com/route/124099380/chasing-maverics,3.0,-1,Trad,5.11,1,80,38.03999,-109.54057
"White Way","Wall Street > Potash Road > Southeast Utah > Utah",https://www.mountainproject.com/route/124123475/white-way,2.0,-1,Sport,"5.11 R",1,100,38.54668,-109.59959
Sandthrax,"The Marquee > Take-Out Beach > River Road > Southeast Utah > Utah",https://www.mountainproject.com/route/124194725/sandthrax,2.0,-1,Sport,5.11,1,60,38.66053,-109.4994
shipwrecked,"Shattered Sea > Jungle, on the Aquarius Plateau > South Central Utah > Utah",https://www.mountainproject.com/route/124427848/shipwrecked,4.0,-1,"Sport, Alpine",5.11,1,60,37.7613,-111.89991
"Safe from Harm","Shattered Sea > Jungle, on the Aquarius Plateau > South Central Utah > Utah",https://www.mountainproject.com/route/124489097/safe-from-harm,3.0,-1,"Sport, Alpine",5.11,1,45,37.7613,-111.89991
"Dissolved Girl","Shattered Sea > Jungle, on the Aquarius Plateau > South Central Utah > Utah",https://www.mountainproject.com/route/124493616/dissolved-girl,3.0,-1,"Sport, Alpine",5.11,1,50,37.7613,-111.89991
Hangman,"Dry Fork Canyon > Vernal Area > Northeast Utah > Utah",https://www.mountainproject.com/route/124744299/hangman,4.0,-1,Sport,5.11,1,100,40.59798,-109.73133
Unknown,"Castle Lake > Uinta Mountains > Northeast Utah > Utah",https://www.mountainproject.com/route/124761925/unknown,3.0,-1,Sport,5.11,1,70,40.72378,-110.87756
"Questionable Connection","Question Mark Wall > Lone Peak Cirque > Central Wasatch > Wasatch Range > Utah",https://www.mountainproject.com/route/124821553/questionable-connection,2.0,-1,"Trad, Alpine",5.11,4,375,40.52459,-111.75637
"Unknown (Creek Freak 12)","4X4 > Indian Creek > Southeast Utah > Utah",https://www.mountainproject.com/route/125045992/unknown-creek-freak-12,2.0,-1,Trad,5.11,1,110,38.0733,-109.5813
"Get Your Own Hairless Cat","The White Wall > Blacksmith Fork Canyon > Cache Valley > Northern Wasatch > Wasatch Range > Utah",https://www.mountainproject.com/route/125196198/get-your-own-hairless-cat,2.0,-1,Sport,5.11,1,60,41.62117,-111.77126
"Rasta Safari","Fringe Walls > Indian Creek > Southeast Utah > Utah",https://www.mountainproject.com/route/125199309/rasta-safari,4.0,-1,Trad,5.11,1,90,38.06227,-109.54956
