Route,Location,URL,"Avg Stars","Your Stars","Route Type",Rating,Pitches,Length,"Area Latitude","Area Longitude"
"Hand in the Bush","Ginger Wall > Pinnacle Rock Area > Breaks Interstate Park > Southwest Virginia (Appalachia) > Virginia",https://www.mountainproject.com/route/114320524/hand-in-the-bush,4.0,-1,Sport,5.11b/c,1,60,37.28702,-82.30551
"Grand central station","The Train Station > Mile 1 Routes > (1) Mile One > Guest River Gorge > Southwest Virginia (Appalachia) > Virginia",https://www.mountainproject.com/route/118571510/grand-central-station,4.0,-1,Sport,5.11b/c,1,50,36.92135,-82.44924
"I'll Flex, You Stare","Eastern Prospectors > Prospectors > Breaks Interstate Park > Southwest Virginia (Appalachia) > Virginia",https://www.mountainproject.com/route/116723755/ill-flex-you-stare,3.3,-1,Sport,5.11b/c,1,60,37.3013,-82.30045
"32oz Cup","Lower Lodges > Towers/Lodges > Breaks Interstate Park > Southwest Virginia (Appalachia) > Virginia",https://www.mountainproject.com/route/118137932/32oz-cup,3.5,-1,Sport,5.11b/c,1,90,37.28629,-82.30648
"Mike and Eddie's Roof","Lower Hidden > Hidden Rocks > Shenandoah & NW VA Region > Virginia",https://www.mountainproject.com/route/108393065/mike-and-eddies-roof,3.0,-1,"Trad, TR",5.11b/c,1,,38.4514,-79.1165
"Green Duchess","Main Wall > Crescent Rocks > Shenandoah & NW VA Region > Virginia",https://www.mountainproject.com/route/106133708/green-duchess,2.8,-1,"Trad, TR",5.11b/c,1,50,39.13925,-77.83794
"Dingleberry Shower","Pinnacle Left > Pinnacle Rock Area > Breaks Interstate Park > Southwest Virginia (Appalachia) > Virginia",https://www.mountainproject.com/route/116182031/dingleberry-shower,2.0,-1,Sport,5.11b/c,1,55,37.12845,-82.41344
