Route,Location,URL,"Avg Stars","Your Stars","Route Type",Rating,Pitches,Length,"Area Latitude","Area Longitude"
"West Ridge","Forbidden Peak > Boston Basin > North Cascades > Hwy 20 and North Cascades National Park > Northwest Region > Washington",https://www.mountainproject.com/route/106450596/west-ridge,3.9,-1,"Trad, Snow, Alpine","5.6 Mod. Snow",1,1500,48.51169,-121.05894
"Beckey Route (SW Face)","Liberty Bell > Liberty Bell Group > Washington Pass > North Cascades > Hwy 20 and North Cascades National Park > Northwest Region > Washington",https://www.mountainproject.com/route/105797867/beckey-route-sw-face,3.1,-1,"Trad, Alpine",5.6,4,500,48.51548,-120.65874
Pisces,"(A) Great Northern Slab > Lower Town Wall > Index > Skykomish Valley > Central-West Cascades & Seattle > Washington",https://www.mountainproject.com/route/106620653/pisces,3.3,-1,Trad,5.6,1,65,47.81841,-121.57219
"West Ridge","Mt Stuart > Stuart-Enchantments > Central-East Cascades, Wenatchee, & Leavenworth > Washington",https://www.mountainproject.com/route/106502853/west-ridge,3.1,-1,"Trad, Snow, Alpine","5.6 Steep Snow",10,2200,47.4773,-120.9022
Midway,"Upper Castle > Castle Rock > Tumwater Canyon > Leavenworth > Central-East Cascades, Wenatchee, & Leavenworth > Washington",https://www.mountainproject.com/route/105870883/midway,3.0,-1,Trad,5.6,3,280,47.59968,-120.71235
"R & D","Icicle Buttress > Icicle Buttress and Bob's Wall > Icicle Creek > Leavenworth > Central-East Cascades, Wenatchee, & Leavenworth > Washington",https://www.mountainproject.com/route/106582065/r-d,2.6,-1,Trad,5.6,4,300,47.54818,-120.75176
"The Open Book","(c) Summit Wall > Summit Area > Mount Erie > San Juan, Fidalgo & Whidbey Islands > Northwest Region > Washington",https://www.mountainproject.com/route/106413723/the-open-book,2.5,-1,"Trad, TR",5.6,1,50,48.45344,-122.625
Saber,"Upper Castle > Castle Rock > Tumwater Canyon > Leavenworth > Central-East Cascades, Wenatchee, & Leavenworth > Washington",https://www.mountainproject.com/route/105792672/saber,2.4,-1,Trad,5.6,2,280,47.59968,-120.71235
"The Tree Route","Eight-Mile Buttress, Lower > Eight-mile Buttresses > Eight Mile Area > Icicle Creek > Leavenworth > Central-East Cascades, Wenatchee, & Leavenworth > Washington",https://www.mountainproject.com/route/106807375/the-tree-route,2.4,-1,Trad,5.6,3,300,47.55505,-120.76339
"Canadians On Horseback","Icicle Buttress > Icicle Buttress and Bob's Wall > Icicle Creek > Leavenworth > Central-East Cascades, Wenatchee, & Leavenworth > Washington",https://www.mountainproject.com/route/112217707/canadians-on-horseback,2.4,-1,Sport,5.6,4,300,47.54818,-120.75176
"Hag Crack","Hag Crag > Lookout Point Area > Index > Skykomish Valley > Central-West Cascades & Seattle > Washington",https://www.mountainproject.com/route/109395698/hag-crack,2.3,-1,"Trad, TR",5.6,1,80,47.82545,-121.55725
"Ground Hog Day","February Buttress > Tumwater Canyon > Leavenworth > Central-East Cascades, Wenatchee, & Leavenworth > Washington",https://www.mountainproject.com/route/107225122/ground-hog-day,2.3,-1,Trad,5.6,3,300,47.5886,-120.68134
"5.6 Crack","Barney's Rubble > Icicle Creek > Leavenworth > Central-East Cascades, Wenatchee, & Leavenworth > Washington",https://www.mountainproject.com/route/106630563/56-crack,2.3,-1,"Trad, TR",5.6,1,85,47.54333,-120.73567
"Peaceful Warrior","(c) King Pins > Sunshine Wall > Echo Basin > Frenchman Coulee (Vantage) > Central Region > Washington",https://www.mountainproject.com/route/105793808/peaceful-warrior,2.2,-1,Sport,5.6,1,80,47.02296,-119.97362
"Homo Erectus","Substation > Deception Crags > Exit 38 > North Bend & Vicinity > Central-West Cascades & Seattle > Washington",https://www.mountainproject.com/route/106810828/homo-erectus,2.1,-1,Sport,5.6,1,75,47.43698,-121.66337
"First Things First","(b) Repo I > British Aisles/Repo Rocks Group > Exit 32; Little Si > North Bend & Vicinity > Central-West Cascades & Seattle > Washington",https://www.mountainproject.com/route/107187454/first-things-first,2.0,-1,"Trad, TR",5.6,1,40,47.49655,-121.75498
"Midway Direct","Upper Castle > Castle Rock > Tumwater Canyon > Leavenworth > Central-East Cascades, Wenatchee, & Leavenworth > Washington",https://www.mountainproject.com/route/105870890/midway-direct,2.9,-1,Trad,5.6,1,,47.59968,-120.71235
"Torment-Forbidden Traverse","Mount Torment > Boston Basin > North Cascades > Hwy 20 and North Cascades National Park > Northwest Region > Washington",https://www.mountainproject.com/route/108312467/torment-forbidden-traverse,3.5,-1,"Trad, Snow, Alpine","5.6 Steep Snow",1,6000,48.5123,-121.0768
"Notch Route","The North Side > The Feathers > Frenchman Coulee (Vantage) > Central Region > Washington",https://www.mountainproject.com/route/106279516/notch-route,2.1,-1,Sport,5.6,1,35,47.0277,-119.96449
"Feather in My Cap","The North Side > The Feathers > Frenchman Coulee (Vantage) > Central Region > Washington",https://www.mountainproject.com/route/106403086/feather-in-my-cap,1.9,-1,Sport,5.6,1,50,47.0277,-119.96449
"Ptarmigan Ridge","Mount Rainier > Southwest Cascades > South-West & Tacoma > Washington",https://www.mountainproject.com/route/106846325/ptarmigan-ridge,3.8,-1,"Ice, Snow, Alpine","5.6 AI2-3 Steep Snow",1,9300,46.8529,-121.76047
"Gibsons Crack","Gibson's Crack > Mountaineer's and Contractor's Areas > Icicle Creek > Leavenworth > Central-East Cascades, Wenatchee, & Leavenworth > Washington",https://www.mountainproject.com/route/106600221/gibsons-crack,2.6,-1,"Trad, TR",5.6,1,50,47.54686,-120.69777
"Left Crack","Upper Tier > Mountaineer's and Contractor's Areas > Icicle Creek > Leavenworth > Central-East Cascades, Wenatchee, & Leavenworth > Washington",https://www.mountainproject.com/route/106600187/left-crack,2.4,-1,"Trad, TR",5.6,1,60,47.5465,-120.69979
"Northeast Ridge","Mt. Triumph > North Cascades > Hwy 20 and North Cascades National Park > Northwest Region > Washington",https://www.mountainproject.com/route/106029386/northeast-ridge,3.1,-1,"Trad, Alpine","5.6 PG13",1,,48.70616,-121.35567
"Unknown 5.7","Main Face > Royal Columns > Tieton River > South-Central & Yakima > Washington",https://www.mountainproject.com/route/106022083/unknown-57,2.5,-1,Trad,5.6,1,40,46.72512,-120.80948
"Stump Route","Eight-Mile Buttress, Middle > Eight-mile Buttresses > Eight Mile Area > Icicle Creek > Leavenworth > Central-East Cascades, Wenatchee, & Leavenworth > Washington",https://www.mountainproject.com/route/111893026/stump-route,2.6,-1,Trad,5.6,4,,47.55565,-120.76135
"North Ridge","Forbidden Peak > Boston Basin > North Cascades > Hwy 20 and North Cascades National Park > Northwest Region > Washington",https://www.mountainproject.com/route/108482756/north-ridge,3.7,-1,"Trad, Snow, Alpine","5.6 Mod. Snow",1,,48.51169,-121.05894
"Double Trouble","Main Face > Royal Columns > Tieton River > South-Central & Yakima > Washington",https://www.mountainproject.com/route/106799796/double-trouble,2.5,-1,Trad,5.6,1,100,46.72512,-120.80948
"Edge of Mistakes","Zig Zag Wall > Frenchman Coulee > Frenchman Coulee (Vantage) > Central Region > Washington",https://www.mountainproject.com/route/108810934/edge-of-mistakes,2.0,-1,Trad,5.6,1,50,47.02333,-119.96875
"North Face","Kangaroo Temple > Kangaroo Ridge > Washington Pass > North Cascades > Hwy 20 and North Cascades National Park > Northwest Region > Washington",https://www.mountainproject.com/route/109059579/north-face,2.7,-1,"Trad, Alpine",5.6,3,,48.5112,-120.61694
"Blue's Buttress","Poster Peak > Washington Pass > North Cascades > Hwy 20 and North Cascades National Park > Northwest Region > Washington",https://www.mountainproject.com/route/111086662/blues-buttress,2.0,-1,"Trad, Alpine",5.6,10,800,48.50271,-120.63726
"West Ridge","Mount Thomson > Western Alpine Lakes > Central-West Cascades & Seattle > Washington",https://www.mountainproject.com/route/110554093/west-ridge,2.6,-1,"Trad, Alpine",5.6,6,550,47.47211,-121.36111
Swerve,"Headlight Point > Interstate Park > Far Side > Exit 38 > North Bend & Vicinity > Central-West Cascades & Seattle > Washington",https://www.mountainproject.com/route/110576304/swerve,1.9,-1,Sport,5.6,1,35,47.43046,-121.6209
"Midnight Scrambler","Headlight Point > Interstate Park > Far Side > Exit 38 > North Bend & Vicinity > Central-West Cascades & Seattle > Washington",https://www.mountainproject.com/route/108172281/midnight-scrambler,1.8,-1,Sport,5.6,1,50,47.43046,-121.6209
"The Perils of Rocket Surgery","Pigeon Stool Wall > Pigeon Stool Area > Mount Erie > San Juan, Fidalgo & Whidbey Islands > Northwest Region > Washington",https://www.mountainproject.com/route/122218304/the-perils-of-rocket-surgery,4.0,-1,Trad,5.6,1,60,48.45182,-122.62676
"Artic Rose","Half Moon Crag > Skykomish Valley > Central-West Cascades & Seattle > Washington",https://www.mountainproject.com/route/117712359/artic-rose,4.0,-1,"Trad, Alpine",5.6,1,80,47.75586,-121.11626
"Open Book","Main Wall > Minnehaha > Spokane Area > Northeast Corner & Spokane > Washington",https://www.mountainproject.com/route/106280162/open-book,2.4,-1,"Trad, TR",5.6,1,40,47.68751,-117.32723
"Cooper's Route","Billy Wall > Deep Creek > Spokane Area > Northeast Corner & Spokane > Washington",https://www.mountainproject.com/route/111787766/coopers-route,2.9,-1,Sport,5.6,1,30,47.75382,-117.55066
"Nimrod's Nemesis","Main Face > Royal Columns > Tieton River > South-Central & Yakima > Washington",https://www.mountainproject.com/route/109260777/nimrods-nemesis,2.4,-1,Trad,5.6,1,90,46.72512,-120.80948
"First Things Left","(b) Repo I > British Aisles/Repo Rocks Group > Exit 32; Little Si > North Bend & Vicinity > Central-West Cascades & Seattle > Washington",https://www.mountainproject.com/route/113508934/first-things-left,2.0,-1,"Trad, TR",5.6,1,30,47.49655,-121.75498
"Early Winter Couloir","North Early Winter Spire > Liberty Bell Group > Washington Pass > North Cascades > Hwy 20 and North Cascades National Park > Northwest Region > Washington",https://www.mountainproject.com/route/110300021/early-winter-couloir,3.3,-1,"Trad, Aid, Mixed, Ice, Alpine","5.6 AI2-3 M4+ A1",6,1100,48.51291,-120.65557
"South Ridge","Main Peak > Eldorado Peak > North Cascades > Hwy 20 and North Cascades National Park > Northwest Region > Washington",https://www.mountainproject.com/route/118250844/south-ridge,3.3,-1,"Trad, Alpine",5.6,4,1000,48.53755,-121.13436
"Convienient Parking","The On-Ramp > Tumblestone > Tyler Peak Crags > Olympic National Forest > Olympics & Pacific Coast > Washington",https://www.mountainproject.com/route/111765369/convienient-parking,3.1,-1,Sport,5.6,1,95,47.88858,-123.13974
"Dank Sinatra","Erikland > Wayne’s World Dry Tooling > **Dry Tooling & Ice Climbing at Exit 38 > Exit 38 > North Bend & Vicinity > Central-West Cascades & Seattle > Washington",https://www.mountainproject.com/route/121221684/dank-sinatra,3.5,-1,"Sport, Mixed","5.6 M7-",1,80,47.4359,-121.63132
"The Tunnel","East Side > Orchard Rock > Peshastin Pinnacles State Park > Central-East Cascades, Wenatchee, & Leavenworth > Washington",https://www.mountainproject.com/route/105875424/the-tunnel,2.3,-1,Trad,5.6,1,,47.54048,-120.51913
"Jacob's Chumstick","Upper Tier > Ice Box > Tieton River > South-Central & Yakima > Washington",https://www.mountainproject.com/route/121139443/jacobs-chumstick,3.3,-1,Sport,5.6,1,40,46.57355,-121.27428
"The Dirty Bird","The North Side > The Feathers > Frenchman Coulee (Vantage) > Central Region > Washington",https://www.mountainproject.com/route/115402383/the-dirty-bird,1.9,-1,Sport,5.6,1,40,47.0277,-119.96449
Happiness,"Sunshine Vista (Easy Street) > Far Side > Exit 38 > North Bend & Vicinity > Central-West Cascades & Seattle > Washington",https://www.mountainproject.com/route/106521705/happiness,2.1,-1,Sport,5.6,1,85,47.43036,-121.62226
"Layback Crack","Granite Point Roped > Granite Point > Southeast Corner > Washington",https://www.mountainproject.com/route/106145026/layback-crack,2.3,-1,"Trad, TR",5.6,1,30,46.60465,-117.35937
"Happily Ever After","Truck Town > Far Side > Exit 38 > North Bend & Vicinity > Central-West Cascades & Seattle > Washington",https://www.mountainproject.com/route/117626189/happily-ever-after,2.5,-1,Sport,5.6,1,30,47.42933,-121.62299
Mossquito,"Mossquito Wall > Lookout Point Area > Index > Skykomish Valley > Central-West Cascades & Seattle > Washington",https://www.mountainproject.com/route/116846618/mossquito,2.3,-1,Trad,5.6,1,,47.82478,-121.55799
Scare-D-Crack,"Waka Beach > Elwha River > Olympics & Pacific Coast > Washington",https://www.mountainproject.com/route/113418863/scare-d-crack,2.6,-1,Sport,5.6,1,40,48.09692,-123.55647
"Douglas the Furry Grizzly Wolf Kitten Goes Chomp","Mid Wall > Middle Town Walls > Index > Skykomish Valley > Central-West Cascades & Seattle > Washington",https://www.mountainproject.com/route/123026942/douglas-the-furry-grizzly-wolf-kitten-goes-chomp,3.0,-1,Trad,5.6,1,60,47.8191,-121.5719
"Huckleberry Heaven","West Wall > Keechelus Ridge > Snoqualmie Pass Area > Central-West Cascades & Seattle > Washington",https://www.mountainproject.com/route/114570941/huckleberry-heaven,2.1,-1,Sport,5.6,1,50,47.365,-121.31444
"Night Music","Windy Slab > Columbia Gorge > South-West & Tacoma > Washington",https://www.mountainproject.com/route/109270158/night-music,2.0,-1,Sport,5.6,1,45,45.70299,-121.75664
"Old Dog New Tricks","Dog Dome > Icicle Creek > Leavenworth > Central-East Cascades, Wenatchee, & Leavenworth > Washington",https://www.mountainproject.com/route/109530130/old-dog-new-tricks,2.8,-1,Trad,5.6,1,100,47.5427,-120.7106
Sheepish,"Garden Ledge Wall > West Face > Whistler Canyon Trailhead (Oroville) > Okanogan > Washington",https://www.mountainproject.com/route/108163164/sheepish,2.8,-1,Sport,5.6,1,95,48.90304,-119.42285
"Solid Grasp","Upper Band > Wallula Gap > Southeast Corner > Washington",https://www.mountainproject.com/route/120518988/solid-grasp,3.0,-1,Sport,5.6,1,55,46.03432,-118.93
"Man You Fracture","Upper Band > Wallula Gap > Southeast Corner > Washington",https://www.mountainproject.com/route/120528874/man-you-fracture,2.7,-1,Sport,5.6,1,55,46.03432,-118.93
"Well Hung","(3) Hummingbird Wall and Hummingbird Terrace > Farside / Dropzone > Columbia Gorge > South-West & Tacoma > Washington",https://www.mountainproject.com/route/106863024/well-hung,3.0,-1,Trad,5.6,1,30,45.56907,-122.20566
"South Face","Vasiliki Tower > Silver Star and Wine Spires > Washington Pass > North Cascades > Hwy 20 and North Cascades National Park > Northwest Region > Washington",https://www.mountainproject.com/route/114432444/south-face,3.0,-1,"Trad, Alpine",5.6,3,250,48.55552,-120.59304
"Aisle of Sky","Playground Point > Playground Point Area > Icicle Creek > Leavenworth > Central-East Cascades, Wenatchee, & Leavenworth > Washington",https://www.mountainproject.com/route/106904386/aisle-of-sky,1.9,-1,Sport,5.6,1,100,47.54314,-120.72265
"Norski Trad","Billy Goat Bluff > Lower Snow Creek area > Icicle Creek > Leavenworth > Central-East Cascades, Wenatchee, & Leavenworth > Washington",https://www.mountainproject.com/route/121756771/norski-trad,3.0,-1,Trad,5.6,1,115,47.54218,-120.70911
Downtown,"Roadside Rock East > Roadside Rock > Banks Lake / Northrup Canyon > Central Region > Washington",https://www.mountainproject.com/route/109488901/downtown,2.8,-1,Sport,5.6,2,120,47.88302,-119.092
"West Ridge","Cutthroat Peak > Washington Pass > North Cascades > Hwy 20 and North Cascades National Park > Northwest Region > Washington",https://www.mountainproject.com/route/110174839/west-ridge,2.0,-1,"Trad, Alpine",5.6,3,3200,48.52623,-120.70347
"Blame Kentucky","Joe’s Rock > The Dikes > Southeast Corner > Washington",https://www.mountainproject.com/route/122933960/blame-kentucky,3.0,-1,"Trad, Alpine","5.6 PG13",1,30,46.11081,-117.8325
"Far Side","(2) Dropzone Area > Farside / Dropzone > Columbia Gorge > South-West & Tacoma > Washington",https://www.mountainproject.com/route/107152126/far-side,3.0,-1,Trad,5.6,1,90,45.56907,-122.20566
"Cat Nip","North Canyon - Cougar Corner > North Canyon (Frog Pond Trail) > Whistler Canyon Trailhead (Oroville) > Okanogan > Washington",https://www.mountainproject.com/route/108182330/cat-nip,3.0,-1,Sport,5.6,1,85,48.9079,-119.41858
"November Sunrise","Shakespeare Wall > Deception Crags > Exit 38 > North Bend & Vicinity > Central-West Cascades & Seattle > Washington",https://www.mountainproject.com/route/117506807/november-sunrise,2.2,-1,Sport,5.6,1,55,47.43469,-121.6608
"Unknown 5.6 (Left)","Main Face > Royal Columns > Tieton River > South-Central & Yakima > Washington",https://www.mountainproject.com/route/113128504/unknown-56-left,2.0,-1,"Trad, TR",5.6,1,50,46.72512,-120.80948
"Apple Crack A.K.A. Hey Jude","End of the Rope Crag > Pigeon Stool Group Lower > Pigeon Stool Area > Mount Erie > San Juan, Fidalgo & Whidbey Islands > Northwest Region > Washington",https://www.mountainproject.com/route/117120706/apple-crack-aka-hey-jude,2.8,-1,Trad,5.6,1,35,48.45092,-122.62705
"Beginner's slab crack","Main Wall > Minnehaha > Spokane Area > Northeast Corner & Spokane > Washington",https://www.mountainproject.com/route/114462333/beginners-slab-crack,2.1,-1,"Trad, TR",5.6,1,50,47.68751,-117.32723
"The DT Route","Big Rock > Other Skagit Valley Crags > Hwy 20 and North Cascades National Park > Northwest Region > Washington",https://www.mountainproject.com/route/107688751/the-dt-route,2.2,-1,Sport,5.6,1,40,48.42733,-122.26081
"Hedge Trimmer","(a) Beetle Bailey Slab > Lower Lump Area > Index > Skykomish Valley > Central-West Cascades & Seattle > Washington",https://www.mountainproject.com/route/119199051/hedge-trimmer,2.0,-1,Trad,5.6,1,50,47.81692,-121.57748
"P. B. & J.","East Face > Big Rock > Rocks of Sharon > Spokane Area > Northeast Corner & Spokane > Washington",https://www.mountainproject.com/route/119362517/p-b-j,2.3,-1,Sport,5.6,1,80,47.578,-117.2859
Jimgermanclimb,"Lower Band > Wallula Gap > Southeast Corner > Washington",https://www.mountainproject.com/route/109048202/jimgermanclimb,2.1,-1,Sport,5.6,1,,46.03662,-118.93495
"Bolle Nere","Bambino > Little Italy Area > Icicle Creek > Leavenworth > Central-East Cascades, Wenatchee, & Leavenworth > Washington",https://www.mountainproject.com/route/120012780/bolle-nere,2.7,-1,Sport,5.6,1,40,47.57064,-120.78575
"A Good Place to Find Frogs","Hag Crag > Lookout Point Area > Index > Skykomish Valley > Central-West Cascades & Seattle > Washington",https://www.mountainproject.com/route/122614451/a-good-place-to-find-frogs,2.0,-1,"Trad, TR",5.6,1,75,47.82545,-121.55725
Tagalong,"Little Matterhorn Rock > Tumtum > Spokane Area > Northeast Corner & Spokane > Washington",https://www.mountainproject.com/route/114209241/tagalong,2.7,-1,Sport,5.6,1,35,47.83949,-117.75234
"Corner Crack","The Lesser Bluff > Chimney Rocks > Southwest Cascades > South-West & Tacoma > Washington",https://www.mountainproject.com/route/108491802/corner-crack,2.7,-1,"Trad, TR",5.6,1,40,45.72156,-122.19277
"Unknown 5.6","Main Face > Royal Columns > Tieton River > South-Central & Yakima > Washington",https://www.mountainproject.com/route/113124717/unknown-56,1.8,-1,"Trad, TR",5.6,1,50,46.72512,-120.80948
"Riled Child","(f) Phun Rock Main Wall & Sunbug Slab > Fun (Phun) Rocks > Mazama > Okanogan > Washington",https://www.mountainproject.com/route/110321236/riled-child,1.9,-1,"Sport, TR",5.6,1,,48.60499,-120.43204
Relocated,"Gun Show > Far Side > Exit 38 > North Bend & Vicinity > Central-West Cascades & Seattle > Washington",https://www.mountainproject.com/route/111021101/relocated,2.1,-1,Trad,5.6,2,120,47.42952,-121.62058
"October Sky","Pigeon Stool Wall > Pigeon Stool Area > Mount Erie > San Juan, Fidalgo & Whidbey Islands > Northwest Region > Washington",https://www.mountainproject.com/route/107336317/october-sky,2.4,-1,Trad,5.6,2,190,48.45182,-122.62676
"Slumbersome Ridge","Slumbersome Ridge > Bob's Area > Mt Washington > Exit 38 > North Bend & Vicinity > Central-West Cascades & Seattle > Washington",https://www.mountainproject.com/route/109288396/slumbersome-ridge,2.4,-1,Sport,5.6,1,70,47.43686,-121.68239
"Humpty Dumpty","Cliff Drive > Spokane Area > Northeast Corner & Spokane > Washington",https://www.mountainproject.com/route/112211213/humpty-dumpty,2.3,-1,"Sport, TR",5.6,1,20,47.64739,-117.41954
Wellwisher,"(1) Shire Wall > Ozone > Columbia Gorge > South-West & Tacoma > Washington",https://www.mountainproject.com/route/116166501/wellwisher,1.8,-1,Trad,5.6,1,45,45.56649,-122.21181
Wacko,"Friction Slab > Skyline Arete Area > Mount Erie > San Juan, Fidalgo & Whidbey Islands > Northwest Region > Washington",https://www.mountainproject.com/route/111857893/wacko,1.9,-1,Sport,5.6,1,50,48.45273,-122.62877
"Gerbil Lies","Green Wall > Frenchman Coulee > Frenchman Coulee (Vantage) > Central Region > Washington",https://www.mountainproject.com/route/107514185/gerbil-lies,2.1,-1,Trad,5.6,1,40,47.02431,-119.97151
"Little Red Rooster","(c) Hen House > Sunshine's Lower Cliffs > Echo Basin > Frenchman Coulee (Vantage) > Central Region > Washington",https://www.mountainproject.com/route/107672213/little-red-rooster,2.1,-1,Sport,5.6,1,30,47.025,-119.96859
"Jandy's Adventure","Upper Tier > Ice Box > Tieton River > South-Central & Yakima > Washington",https://www.mountainproject.com/route/121170077/jandys-adventure,2.5,-1,Sport,5.6,1,45,46.57355,-121.27428
"East Face","Chablis Spire > Silver Star and Wine Spires > Washington Pass > North Cascades > Hwy 20 and North Cascades National Park > Northwest Region > Washington",https://www.mountainproject.com/route/109228122/east-face,2.2,-1,"Trad, Alpine","5.6 R",4,400,48.55259,-120.59032
"Jam Crack","Jam Crack Area > Sehome Arboretum > Bellingham Area > Bellingham and Mt Baker Hwy > Northwest Region > Washington",https://www.mountainproject.com/route/111957977/jam-crack,2.5,-1,Trad,5.6,1,20,48.73536,-122.47993
"South Face","Concord Tower > Liberty Bell Group > Washington Pass > North Cascades > Hwy 20 and North Cascades National Park > Northwest Region > Washington",https://www.mountainproject.com/route/117635520/south-face,2.0,-1,"Trad, Alpine",5.6,3,300,48.51465,-120.65825
"South Face","Argonaut Peak > Stuart-Enchantments > Central-East Cascades, Wenatchee, & Leavenworth > Washington",https://www.mountainproject.com/route/114795630/south-face,2.1,-1,"Trad, Alpine",5.6,3,300,47.4701,-120.8615
Galileo,"Martian Slabs > Peshastin Pinnacles State Park > Central-East Cascades, Wenatchee, & Leavenworth > Washington",https://www.mountainproject.com/route/118603691/galileo,1.9,-1,Sport,5.6,1,70,47.54156,-120.5196
"Plumb Bob","Contractor Rock > Mountaineer's and Contractor's Areas > Icicle Creek > Leavenworth > Central-East Cascades, Wenatchee, & Leavenworth > Washington",https://www.mountainproject.com/route/118925597/plumb-bob,2.3,-1,Sport,5.6,1,85,47.54753,-120.69755
"Nimble Novice","Main Face > Royal Columns > Tieton River > South-Central & Yakima > Washington",https://www.mountainproject.com/route/113124548/nimble-novice,2.1,-1,Trad,5.6,1,75,46.72512,-120.80948
"Step Away from Dirt","South Face > Big Rock > Rocks of Sharon > Spokane Area > Northeast Corner & Spokane > Washington",https://www.mountainproject.com/route/121986774/step-away-from-dirt,2.5,-1,Trad,5.6,1,60,47.5778,-117.2861
"Peter Pan","Cliff Drive > Spokane Area > Northeast Corner & Spokane > Washington",https://www.mountainproject.com/route/112306854/peter-pan,2.1,-1,"Sport, TR",5.6,1,23,47.64739,-117.41954
"West Ridge","Mount Terror > Southern Pickets > Picket Range > North Cascades > Hwy 20 and North Cascades National Park > Northwest Region > Washington",https://www.mountainproject.com/route/121100279/west-ridge,2.8,-1,"Trad, Alpine",5.6,1,1500,48.77473,-121.29923
"East Wilmans Spire","Wilmans Spires > Wilmans Peak Group > Glacier Peak Wilderness > Darrington and Mountain Loop Hwy > Northwest Region > Washington",https://www.mountainproject.com/route/120288544/east-wilmans-spire,2.4,-1,"Trad, Alpine",5.6,3,140,47.97249,-121.36585
"Ben There, Done That","Billy Wall > Deep Creek > Spokane Area > Northeast Corner & Spokane > Washington",https://www.mountainproject.com/route/111787715/ben-there-done-that,1.8,-1,Sport,5.6,1,,47.75382,-117.55066
"The Roof","Unicorn Peak > Tatoosh Range > Southwest Cascades > South-West & Tacoma > Washington",https://www.mountainproject.com/route/119135747/the-roof,2.3,-1,"Trad, Snow, Alpine","5.6 Easy Snow",1,50,46.74591,-121.70119
Sidewinder,"Central Skyline Arete > Skyline Arete Area > Mount Erie > San Juan, Fidalgo & Whidbey Islands > Northwest Region > Washington",https://www.mountainproject.com/route/119015138/sidewinder,2.2,-1,Trad,5.6,1,60,48.45247,-122.62895
D,"Crackstar Lounge > The Matrix > Mazama > Okanogan > Washington",https://www.mountainproject.com/route/117331722/d,2.3,-1,Sport,5.6,1,70,48.57957,-120.36605
"Don't Call Me Shirley","Eagle Rock (a.k.a School Rock) > Olympics & Pacific Coast > Washington",https://www.mountainproject.com/route/107754328/dont-call-me-shirley,2.3,-1,TR,5.6,1,,47.5588,-122.8036
"Route A","East End Wall > Cowiche Canyon > South-Central & Yakima > Washington",https://www.mountainproject.com/route/116658800/route-a,2.4,-1,"Trad, TR",5.6,1,40,46.62213,-120.62552
Kolkulator,"Lower Band > Wallula Gap > Southeast Corner > Washington",https://www.mountainproject.com/route/109041431/kolkulator,2.0,-1,Sport,5.6,1,,46.03662,-118.93495
Pippin,"(1) Shire Wall > Ozone > Columbia Gorge > South-West & Tacoma > Washington",https://www.mountainproject.com/route/116744519/pippin,2.0,-1,Trad,5.6,1,55,45.56649,-122.21181
Unfit,"Bend North > The Bend > Tieton River > South-Central & Yakima > Washington",https://www.mountainproject.com/route/115446432/unfit,1.9,-1,Trad,5.6,1,40,46.71777,-120.82977
"East Face","Jaberwocky Tower > Stuart-Enchantments > Central-East Cascades, Wenatchee, & Leavenworth > Washington",https://www.mountainproject.com/route/111867520/east-face,2.0,-1,Trad,5.6,2,100,47.49097,-120.82587
"Northwest Arete","Argonaut Peak > Stuart-Enchantments > Central-East Cascades, Wenatchee, & Leavenworth > Washington",https://www.mountainproject.com/route/119339605/northwest-arete,2.2,-1,"Trad, Alpine",5.6,7,700,47.4701,-120.8615
"Field Trip","Classroom > Madsen's Buttress Area > Icicle Creek > Leavenworth > Central-East Cascades, Wenatchee, & Leavenworth > Washington",https://www.mountainproject.com/route/122495540/field-trip,2.3,-1,Sport,5.6,1,,47.54508,-120.71053
"Pink Medusa","Julia's Outcrop (Governor Lister Cliff) > Bellingham Area > Bellingham and Mt Baker Hwy > Northwest Region > Washington",https://www.mountainproject.com/route/106208230/pink-medusa,1.9,-1,Trad,5.6,1,40,48.6238,-122.4484
"Thirsty Moon","South Wall > Lower Crag > Chewiliken Creek Crags (Tonasket) > Okanogan > Washington",https://www.mountainproject.com/route/110118076/thirsty-moon,2.0,-1,Trad,5.6,1,80,48.62774,-119.45103
"Junior's Cookin'","BeBop Rock > Bebop-Dinky-Secret Crags > Icicle Creek > Leavenworth > Central-East Cascades, Wenatchee, & Leavenworth > Washington",https://www.mountainproject.com/route/106606457/juniors-cookin,1.9,-1,Trad,5.6,1,50,47.55657,-120.76562
"Around the cave we go","Concord Tower > Liberty Bell Group > Washington Pass > North Cascades > Hwy 20 and North Cascades National Park > Northwest Region > Washington",https://www.mountainproject.com/route/123104951/around-the-cave-we-go,2.0,-1,"Trad, Alpine",5.6,1,80,48.51465,-120.65825
Vader,"Salami Slabs > North Exfo Crags > Exfoliation Dome > Darrington > Darrington and Mountain Loop Hwy > Northwest Region > Washington",https://www.mountainproject.com/route/117632513/vader,2.0,-1,Trad,5.6,1,200,48.14864,-121.59781
"Middle Crack","Guide's Wall > Clamshell > Icicle Creek > Leavenworth > Central-East Cascades, Wenatchee, & Leavenworth > Washington",https://www.mountainproject.com/route/122520099/middle-crack,2.0,-1,"Trad, TR",5.6,1,50,47.54428,-120.7295
"What's a Cookiecliff?","The Kenticle Proper > Kent East Hill Skate Park (AKA The Kenticle) > Seattle and Seattle Eastside > Central-West Cascades & Seattle > Washington",https://www.mountainproject.com/route/119607948/whats-a-cookiecliff,2.0,-1,"Sport, TR",5.6,1,50,47.38585,-122.18722
"Jordan the Wise","Hummel's Landing > McLellan Rocks > Spokane Area > Northeast Corner & Spokane > Washington",https://www.mountainproject.com/route/118962846/jordan-the-wise,2.0,-1,"Trad, TR",5.6,1,40,47.84092,-117.72233
"Caleb the Wise","Hummel's Landing > McLellan Rocks > Spokane Area > Northeast Corner & Spokane > Washington",https://www.mountainproject.com/route/118962887/caleb-the-wise,2.0,-1,Trad,5.6,1,40,47.84092,-117.72233
MJ08,"(8) Indian Head > Farside / Dropzone > Columbia Gorge > South-West & Tacoma > Washington",https://www.mountainproject.com/route/106863350/mj08,2.0,-1,Trad,5.6,1,,45.56904,-122.2054
Cornflake,"Lower Cliff Morning Rock > Morning Rock > Kettle Valley (Curlew) > Okanogan > Washington",https://www.mountainproject.com/route/108210857/cornflake,2.0,-1,Boulder,"5.6 V-easy",1,15,48.89239,-118.69927
"Mercy Street","6) Middle Earth > Burge Mountain (Tonasket) > Okanogan > Washington",https://www.mountainproject.com/route/108160535/mercy-street,2.0,-1,Sport,5.6,1,90,48.7814,-119.27191
"North Couloir","McClellan Butte > Snoqualmie Pass Area > Central-West Cascades & Seattle > Washington",https://www.mountainproject.com/route/122000298/north-couloir,2.0,-1,"Trad, Ice, Snow","5.6 AI3 Steep Snow PG13",1,,47.40675,-121.62233
"West Face","Huckleberry Mountain > Western Alpine Lakes > Central-West Cascades & Seattle > Washington",https://www.mountainproject.com/route/120322178/west-face,2.0,-1,"Trad, Alpine",5.6,4,450,47.47418,-121.33407
"Enter the Birth Canal","Alphabet Rock > Icicle Creek > Leavenworth > Central-East Cascades, Wenatchee, & Leavenworth > Washington",https://www.mountainproject.com/route/122510457/enter-the-birth-canal,2.0,-1,Trad,5.6,1,,47.55543,-120.59851
"Obtuse Corner","Watmough Bay, Lopez Island > San Juan, Fidalgo & Whidbey Islands > Northwest Region > Washington",https://www.mountainproject.com/route/121305007/obtuse-corner,2.0,-1,Trad,5.6,2,90,48.43088,-122.81423
"No Bolted Shit","Green Wall > Frenchman Coulee > Frenchman Coulee (Vantage) > Central Region > Washington",https://www.mountainproject.com/route/122317188/no-bolted-shit,2.0,-1,Trad,5.6,1,,47.02431,-119.97151
Salish,"Osprey Wall > Snoqualmie Pass Area > Central-West Cascades & Seattle > Washington",https://www.mountainproject.com/route/118562378/salish,2.0,-1,"Trad, Alpine",5.6,1,90,47.43549,-121.42322
"Wasp's Nest","Riverfront Park > Spokane Area > Northeast Corner & Spokane > Washington",https://www.mountainproject.com/route/121101687/wasps-nest,2.0,-1,TR,"5.6 R",1,25,47.66275,-117.42057
"Northeast Face Direct","Mt. Formidable > North Cascades > Hwy 20 and North Cascades National Park > Northwest Region > Washington",https://www.mountainproject.com/route/108629745/northeast-face-direct,2.0,-1,"Trad, Snow, Alpine","5.6 Steep Snow R",11,1200,48.4163,-121.0673
"West Face","Big Kangaroo > Kangaroo Ridge > Washington Pass > North Cascades > Hwy 20 and North Cascades National Park > Northwest Region > Washington",https://www.mountainproject.com/route/122767018/west-face,2.0,-1,"Trad, Alpine","5.6 R",3,200,48.51928,-120.61646
"Il Padrino","Bambino > Little Italy Area > Icicle Creek > Leavenworth > Central-East Cascades, Wenatchee, & Leavenworth > Washington",https://www.mountainproject.com/route/120012642/il-padrino,2.0,-1,Sport,5.6,1,45,47.57064,-120.78575
"Nappin' Tat","The Kennel > 7 Mile Rock > Cumberland Crags > Other Skagit Valley Crags > Hwy 20 and North Cascades National Park > Northwest Region > Washington",https://www.mountainproject.com/route/120914606/nappin-tat,2.2,-1,Sport,5.6,1,60,48.46737,-121.96294
"Little Green Bean Pillar","Cliff Drive > Spokane Area > Northeast Corner & Spokane > Washington",https://www.mountainproject.com/route/118193521/little-green-bean-pillar,2.0,-1,TR,"5.6 PG13",1,15,47.64739,-117.41954
"EZ Way","Shark Rock > Southwest Cascades > South-West & Tacoma > Washington",https://www.mountainproject.com/route/113734342/ez-way,2.0,-1,"Trad, Alpine","5.6 PG13",1,200,46.27023,-121.86027
"Thumb Thing From Nothing","CATT Crag > Little Italy Area > Icicle Creek > Leavenworth > Central-East Cascades, Wenatchee, & Leavenworth > Washington",https://www.mountainproject.com/route/120726122/thumb-thing-from-nothing,2.0,-1,Sport,5.6,1,55,47.57312,-120.78443
"Men Who Pause","Men Who Pause > Bridge Creek Area > Icicle Creek > Leavenworth > Central-East Cascades, Wenatchee, & Leavenworth > Washington",https://www.mountainproject.com/route/117888077/men-who-pause,2.0,-1,Sport,5.6,1,55,47.56673,-120.77832
"Hook Route","North Summit > Pinto Rock > Southwest Cascades > South-West & Tacoma > Washington",https://www.mountainproject.com/route/109342634/hook-route,2.0,-1,Trad,5.6,2,150,46.3274,-121.92402
"Stroke Face","Jones Bay > Banks Lake / Northrup Canyon > Central Region > Washington",https://www.mountainproject.com/route/112151051/stroke-face,2.0,-1,Sport,5.6,1,60,47.88848,-119.08477
"My Safe Space","Lower SJW Wall > SJW Wall > Burge North (Tonasket) > Okanogan > Washington",https://www.mountainproject.com/route/119426179/my-safe-space,2.0,-1,Sport,5.6,1,35,48.78988,-119.25027
"TO #6","TO (Placeholder) > Monte Cristo > Darrington and Mountain Loop Hwy > Northwest Region > Washington",https://www.mountainproject.com/route/121541181/to-6,2.0,-1,"Sport, Alpine",5.6,1,80,48.02772,-121.44248
[Redacted],"Brave New World Wall > Little West Canyon > McLoughlin Canyon (Tonasket) > Okanogan > Washington",https://www.mountainproject.com/route/110137070/redacted,2.0,-1,Sport,5.6,1,95,48.6469,-119.44999
Yashua,"(3) Hummingbird Wall and Hummingbird Terrace > Farside / Dropzone > Columbia Gorge > South-West & Tacoma > Washington",https://www.mountainproject.com/route/106862819/yashua,2.0,-1,Trad,5.6,1,40,45.56907,-122.20566
"Birthday Suprise (65)","(8) Indian Head > Farside / Dropzone > Columbia Gorge > South-West & Tacoma > Washington",https://www.mountainproject.com/route/106863345/birthday-suprise-65,2.0,-1,Trad,5.6,1,,45.56904,-122.2054
"The Chrome Plated Megaphone of Destiny","The Mid West -  FZ Wall > Last Wall > McLoughlin Canyon (Tonasket) > Okanogan > Washington",https://www.mountainproject.com/route/110213064/the-chrome-plated-megaphone-of-destiny,2.0,-1,Sport,5.6,1,65,48.64094,-119.44781
"Lightning Bolt Crack","Turtle Island > Mount Hull - Lower SW Face (Oroville) > Okanogan > Washington",https://www.mountainproject.com/route/110016514/lightning-bolt-crack,2.0,-1,"Trad, TR","5.6 R",1,105,48.88247,-119.40908
Ah-Baloney,"Face Only a Mutha Could Love > South West Face > Whistler Canyon Trailhead (Oroville) > Okanogan > Washington",https://www.mountainproject.com/route/108162614/ah-baloney,2.0,-1,Sport,5.6,1,80,48.90304,-119.42285
"No Sweat Arete","North Canyon - The Narrows > North Canyon (Frog Pond Trail) > Whistler Canyon Trailhead (Oroville) > Okanogan > Washington",https://www.mountainproject.com/route/108353279/no-sweat-arete,2.0,-1,Sport,5.6,1,75,48.90935,-119.41734
"The Night Watch","Big Butte - West Face > Big Butte > Mount Hull - Lower SW Face (Oroville) > Okanogan > Washington",https://www.mountainproject.com/route/108750110/the-night-watch,2.0,-1,Sport,5.6,1,90,48.87674,-119.40644
"Northern Passage Lower","(3) Hummingbird Wall and Hummingbird Terrace > Farside / Dropzone > Columbia Gorge > South-West & Tacoma > Washington",https://www.mountainproject.com/route/106862851/northern-passage-lower,2.0,-1,Trad,5.6,1,40,45.56907,-122.20566
"SUNDAY'S CHILD","West Wall > Mount Hull - Lower SW Face (Oroville) > Okanogan > Washington",https://www.mountainproject.com/route/108407509/sundays-child,2.0,-1,Trad,5.6,1,50,48.87835,-119.40755
"Mini Mouse","Upper NW face > North West Face > Whistler Canyon Trailhead (Oroville) > Okanogan > Washington",https://www.mountainproject.com/route/108162400/mini-mouse,2.0,-1,Sport,5.6,1,50,48.90678,-119.42225
"Let The Sea Set You Free","Black Iron Slab > Keechelus Lake > Snoqualmie Pass Area > Central-West Cascades & Seattle > Washington",https://www.mountainproject.com/route/123482435/let-the-sea-set-you-free,2.0,-1,Sport,5.6,1,30,47.34688,-121.3752
Xdono,"Little Italy > Little Italy Area > Icicle Creek > Leavenworth > Central-East Cascades, Wenatchee, & Leavenworth > Washington",https://www.mountainproject.com/route/119674086/xdono,2.0,-1,Trad,5.6,1,45,47.57029,-120.78591
"What's Left?","Bend North > The Bend > Tieton River > South-Central & Yakima > Washington",https://www.mountainproject.com/route/117269626/whats-left,2.0,-1,Trad,5.6,1,40,46.71777,-120.82977
"The Bergshrund","Hag Crag > Lookout Point Area > Index > Skykomish Valley > Central-West Cascades & Seattle > Washington",https://www.mountainproject.com/route/123096943/the-bergshrund,2.1,-1,"Trad, TR",5.6,1,70,47.82545,-121.55725
"Left Crack","Guide's Wall > Clamshell > Icicle Creek > Leavenworth > Central-East Cascades, Wenatchee, & Leavenworth > Washington",https://www.mountainproject.com/route/122519962/left-crack,2.0,-1,"Trad, TR",5.6,1,30,47.54428,-120.7295
"Familiar Face","Playground Point > Playground Point Area > Icicle Creek > Leavenworth > Central-East Cascades, Wenatchee, & Leavenworth > Washington",https://www.mountainproject.com/route/121179460/familiar-face,2.0,-1,"Trad, TR",5.6,1,60,47.54314,-120.72265
"When I’m 64","Upper Band > Wallula Gap > Southeast Corner > Washington",https://www.mountainproject.com/route/123885227/when-im-64,4.0,-1,Sport,5.6,1,50,46.03432,-118.93
"Friendly Fredly","Mid Wall > Middle Town Walls > Index > Skykomish Valley > Central-West Cascades & Seattle > Washington",https://www.mountainproject.com/route/124123788/friendly-fredly,2.0,-1,Trad,5.6,1,60,47.8191,-121.5719
"Shea's Dead Tooth - Tartar Woes","Shea's Dead Tooth > North Ridgeline of Green Creek Basin > Twin Sisters Range > North Cascades > Hwy 20 and North Cascades National Park > Northwest Region > Washington",https://www.mountainproject.com/route/124259029/sheas-dead-tooth-tartar-woes,3.0,-1,"Trad, Alpine",5.6,2,80,48.70568,-121.97674
"Flake of Bliss","Life's Abyss > Clamshell > Icicle Creek > Leavenworth > Central-East Cascades, Wenatchee, & Leavenworth > Washington",https://www.mountainproject.com/route/124834901/flake-of-bliss,3.0,-1,Trad,5.6,1,60,47.54341,-120.73075
"Here’s Buzz Aldrin’s Plan to Colonize Mars by 2020 [video]","Lookout jr > Planet Index > Lookout Point Area > Index > Skykomish Valley > Central-West Cascades & Seattle > Washington",https://www.mountainproject.com/route/124937891/heres-buzz-aldrins-plan-to-colonize-mars-by-2020-video,3.0,-1,"Trad, TR",5.6,1,70,47.82584,-121.55801
