Route,Location,URL,"Avg Stars","Your Stars","Route Type",Rating,Pitches,Length,"Area Latitude","Area Longitude"
"Lost Face Overhangs I & II","05: Lost Face Area > 1: Prospect Point Rampart > West Bluff 05 - West Rampart > Devil's Lake > Baraboo Range > Wisconsin",https://www.mountainproject.com/route/105954271/lost-face-overhangs-i-ii,3.6,-1,"Trad, TR",5.8,1,100,43.42052,-89.73831
Watermarks,"2.  Balanced Rock Wall > East Bluff 06 - Balanced Rock > Devil's Lake > Baraboo Range > Wisconsin",https://www.mountainproject.com/route/105730307/watermarks,3.4,-1,"Trad, TR",5.8,1,50,43.41436,-89.72501
"Birch Tree Crack","05: Pedestal Buttress > East Bluff 04 - East Rampart > Devil's Lake > Baraboo Range > Wisconsin",https://www.mountainproject.com/route/105730781/birch-tree-crack,3.2,-1,"Trad, TR",5.8,1,50,43.41359,-89.71252
"Jolly Roger","Upper Major Mass & Jungle Gym Tower > 5.3 - Doorway Rocks - Major Mass > East Bluff 05 - Potholes Area > Devil's Lake > Baraboo Range > Wisconsin",https://www.mountainproject.com/route/105730253/jolly-roger,3.5,-1,"Trad, TR",5.8,1,,43.41403,-89.71997
Orgasm,"12: Rainy Wednesday Tower > East Bluff 04 - East Rampart > Devil's Lake > Baraboo Range > Wisconsin",https://www.mountainproject.com/route/105730823/orgasm,3.2,-1,"Trad, TR",5.8,1,80,43.41361,-89.71457
"Curving Crack","1. Old Sandstone > East Bluff 01 - Sandstone Area > Devil's Lake > Baraboo Range > Wisconsin",https://www.mountainproject.com/route/105730238/curving-crack,3.1,-1,"Trad, TR",5.8,1,,43.4137,-89.6863
"Queen's Face","The Cleo Amphitheater > West Bluff 03 - Cleo Amphitheater > Devil's Lake > Baraboo Range > Wisconsin",https://www.mountainproject.com/route/105730676/queens-face,3.0,-1,"Trad, TR",5.8,1,,43.41738,-89.73856
"Swiss Cheese","Hillbilly Routes > Hillbilly Hollow > Central > Wisconsin",https://www.mountainproject.com/route/105863293/swiss-cheese,2.8,-1,"Sport, TR",5.8,1,40,43.9763,-89.5005
"Chucklehead Crack (aka Spike's Crack)","04. Air Spire > Necedah (Petenwell Rock) > Central > Wisconsin",https://www.mountainproject.com/route/106426941/chucklehead-crack-aka-spikes-crack,2.9,-1,Trad,5.8,2,100,44.04467,-90.01972
Vacillation,"08: Two Pines Buttress > East Bluff 04 - East Rampart > Devil's Lake > Baraboo Range > Wisconsin",https://www.mountainproject.com/route/106388519/vacillation,2.7,-1,"Trad, TR",5.8,1,,43.41367,-89.7134
"Lower Diagonal","05: Pedestal Buttress > East Bluff 04 - East Rampart > Devil's Lake > Baraboo Range > Wisconsin",https://www.mountainproject.com/route/105730805/lower-diagonal,2.5,-1,"Trad, TR",5.8,1,50,43.41359,-89.71252
"Darcy's Wall","04: D'Arcy's Buttress > East Bluff 04 - East Rampart > Devil's Lake > Baraboo Range > Wisconsin",https://www.mountainproject.com/route/105730946/darcys-wall,2.8,-1,TR,5.8,1,30,43.41361,-89.71224
Cockblocker,"Mushroom Wall > Grandad Bluff > Central > Wisconsin",https://www.mountainproject.com/route/105794718/cockblocker,2.8,-1,Sport,5.8,1,,43.81217,-91.20764
Tramadol,"2. Qual Wall > Group Camps > Governor Dodge State Park > South > Wisconsin",https://www.mountainproject.com/route/107164516/tramadol,2.6,-1,Sport,5.8,1,75,43.03993,-90.10516
"Pigeon Crack","02. Y-Crack Wall > Necedah (Petenwell Rock) > Central > Wisconsin",https://www.mountainproject.com/route/105864210/pigeon-crack,2.7,-1,"Trad, TR",5.8,1,50,44.0442,-90.01954
"Last Gasp","04: D'Arcy's Buttress > East Bluff 04 - East Rampart > Devil's Lake > Baraboo Range > Wisconsin",https://www.mountainproject.com/route/105730973/last-gasp,2.7,-1,"Trad, TR","5.8 R",1,30,43.41361,-89.71224
Debauchery,"7.3 - Horse Rampart > East Bluff 07 - Railroad Tracks > Devil's Lake > Baraboo Range > Wisconsin",https://www.mountainproject.com/route/105730424/debauchery,3.3,-1,TR,5.8,1,,43.41665,-89.72612
Lechery,"7.3 - Horse Rampart > East Bluff 07 - Railroad Tracks > Devil's Lake > Baraboo Range > Wisconsin",https://www.mountainproject.com/route/105730421/lechery,2.6,-1,"Trad, TR",5.8,1,,43.41665,-89.72612
"Ezra Brooks","02. Y-Crack Wall > Necedah (Petenwell Rock) > Central > Wisconsin",https://www.mountainproject.com/route/105864204/ezra-brooks,2.5,-1,"Trad, TR",5.8,1,50,44.0442,-90.01954
"Watermarks Left Side","2.  Balanced Rock Wall > East Bluff 06 - Balanced Rock > Devil's Lake > Baraboo Range > Wisconsin",https://www.mountainproject.com/route/106382730/watermarks-left-side,3.0,-1,TR,5.8,1,,43.41436,-89.72501
"Bloody Mary","15: Pseudo Hawk's Nest > East Bluff 04 - East Rampart > Devil's Lake > Baraboo Range > Wisconsin",https://www.mountainproject.com/route/105989568/bloody-mary,2.9,-1,Trad,5.8,1,,43.41353,-89.71515
"Against Medical Advice","Necedah Linkups > Necedah (Petenwell Rock) > Central > Wisconsin",https://www.mountainproject.com/route/113488028/against-medical-advice,3.5,-1,Trad,"5.8 R",10,500,44.04502,-90.01994
"Old Man","Wisconsin Strip > Interstate Park > Northwest > Wisconsin",https://www.mountainproject.com/route/105919497/old-man,2.7,-1,"Trad, TR",5.8,1,45,45.39976,-92.64984
"Cracker Jack","04: Great Chimney Area > 1: Prospect Point Rampart > West Bluff 05 - West Rampart > Devil's Lake > Baraboo Range > Wisconsin",https://www.mountainproject.com/route/105730844/cracker-jack,2.5,-1,"Trad, TR",5.8,1,60,43.4203,-89.73836
"Impossible Crack","5.2 - Devils Doorway > East Bluff 05 - Potholes Area > Devil's Lake > Baraboo Range > Wisconsin",https://www.mountainproject.com/route/105898029/impossible-crack,2.7,-1,"Trad, TR",5.8,1,40,43.41413,-89.7201
Stinger,"Wiessner Wall > West Bluff 03 - Cleo Amphitheater > Devil's Lake > Baraboo Range > Wisconsin",https://www.mountainproject.com/route/105730277/stinger,2.6,-1,"Trad, TR",5.8,1,,43.41753,-89.73823
"Noble Arches","East Bluff Linkups > Linkups, Contrivances, Oddities and Triflings > Devil's Lake > Baraboo Range > Wisconsin",https://www.mountainproject.com/route/109525590/noble-arches,4.0,-1,Trad,"5.8 PG13",25,1600,43.41839,-89.73098
"Indian Head (Profile Direct)","Indian Head (Profile Buttress) > Interstate Park > Northwest > Wisconsin",https://www.mountainproject.com/route/106448656/indian-head-profile-direct,2.4,-1,"Trad, TR",5.8,1,25,45.39679,-92.6535
"Noah Vail","05: Lost Face Area > 1: Prospect Point Rampart > West Bluff 05 - West Rampart > Devil's Lake > Baraboo Range > Wisconsin",https://www.mountainproject.com/route/105730985/noah-vail,3.1,-1,"Trad, TR",5.8,1,90,43.42052,-89.73831
"Noble Odyssey","East Bluff Linkups > Linkups, Contrivances, Oddities and Triflings > Devil's Lake > Baraboo Range > Wisconsin",https://www.mountainproject.com/route/120837948/noble-odyssey,4.0,-1,Trad,"5.8 PG13",50,3175,43.41839,-89.73098
"The Pike","02: The Guillotine > East Bluff 04 - East Rampart > Devil's Lake > Baraboo Range > Wisconsin",https://www.mountainproject.com/route/109169474/the-pike,4.0,-1,"Trad, TR",5.8,1,35,43.41329,-89.71166
"Track Cracks","Picnic Wall > West Bluff 04 - Great Tower Area > Devil's Lake > Baraboo Range > Wisconsin",https://www.mountainproject.com/route/105730934/track-cracks,3.1,-1,Trad,5.8,1,30,43.41906,-89.73772
"Canada Mayflower","Highland Knoll > Blackhawk Lake Recreation Area > South > Wisconsin",https://www.mountainproject.com/route/118862277/canada-mayflower,4.0,-1,TR,5.8,1,45,43.03409,-90.28684
"Death & Disfiguration","15: Pseudo Hawk's Nest > East Bluff 04 - East Rampart > Devil's Lake > Baraboo Range > Wisconsin",https://www.mountainproject.com/route/105730928/death-disfiguration,2.9,-1,Trad,5.8,1,70,43.41353,-89.71515
Barndoor,"The Cleo Amphitheater > West Bluff 03 - Cleo Amphitheater > Devil's Lake > Baraboo Range > Wisconsin",https://www.mountainproject.com/route/106589439/barndoor,2.6,-1,"Trad, TR",5.8,1,50,43.41738,-89.73856
Cul-de-Sac,"10: Moldy Buttress > East Bluff 04 - East Rampart > Devil's Lake > Baraboo Range > Wisconsin",https://www.mountainproject.com/route/105730523/cul-de-sac,2.5,-1,Trad,5.8,1,,43.41374,-89.7139
"Mary Jane","Upper Major Mass & Jungle Gym Tower > 5.3 - Doorway Rocks - Major Mass > East Bluff 05 - Potholes Area > Devil's Lake > Baraboo Range > Wisconsin",https://www.mountainproject.com/route/105730262/mary-jane,2.9,-1,"Trad, TR",5.8,1,,43.41403,-89.71997
"Tibia Crack","10: Moldy Buttress > East Bluff 04 - East Rampart > Devil's Lake > Baraboo Range > Wisconsin",https://www.mountainproject.com/route/105730811/tibia-crack,2.7,-1,"Trad, TR",5.8,1,90,43.41374,-89.7139
"Mother Smucker's Jam","7.3 - Horse Rampart > East Bluff 07 - Railroad Tracks > Devil's Lake > Baraboo Range > Wisconsin",https://www.mountainproject.com/route/106881850/mother-smuckers-jam,2.6,-1,"Trad, TR",5.8,1,,43.41665,-89.72612
"Buddha Bukstein Crack","North Wall > The Fishin' Crag (Castle Rock South) > South > Wisconsin",https://www.mountainproject.com/route/106800567/buddha-bukstein-crack,2.9,-1,Trad,5.8,1,100,43.04482,-90.51986
"Sun Top","Sun-top Tower > West Bluff 04 - Great Tower Area > Devil's Lake > Baraboo Range > Wisconsin",https://www.mountainproject.com/route/105865187/sun-top,2.9,-1,Trad,5.8,1,50,43.41884,-89.73729
Effie,"6. The Effie > East Bluff 06 - Balanced Rock > Devil's Lake > Baraboo Range > Wisconsin",https://www.mountainproject.com/route/107092069/effie,3.5,-1,"Trad, TR",5.8,1,40,43.4141,-89.7219
"Caesarian Tower","7.2.1 - Birthday Rocks > East Bluff 07 - Railroad Tracks > Devil's Lake > Baraboo Range > Wisconsin",https://www.mountainproject.com/route/105730370/caesarian-tower,2.6,-1,"Trad, TR",5.8,1,,43.41722,-89.72695
"Dead Tree Crack","3: Dead Tree Wall > West Bluff 05 - West Rampart > Devil's Lake > Baraboo Range > Wisconsin",https://www.mountainproject.com/route/105831971/dead-tree-crack,2.6,-1,"Trad, TR",5.8,1,50,43.4215,-89.73841
"The Window","05. Fire Spire > Necedah (Petenwell Rock) > Central > Wisconsin",https://www.mountainproject.com/route/106795080/the-window,2.8,-1,Trad,5.8,1,50,44.04508,-90.02001
"West Bluff Towers Circuit","West Bluff Circuits and Ridges > Linkups, Contrivances, Oddities and Triflings > Devil's Lake > Baraboo Range > Wisconsin",https://www.mountainproject.com/route/108558043/west-bluff-towers-circuit,3.5,-1,Trad,5.8,1,,43.42166,-89.73764
Largo,"07. The Bandshell > East Bluff 02 - East of the Quarry > Devil's Lake > Baraboo Range > Wisconsin",https://www.mountainproject.com/route/106409970/largo,3.5,-1,"Trad, TR","5.8 PG13",1,40,43.4129,-89.6946
"Chicken Tonight","15: Pseudo Hawk's Nest > East Bluff 04 - East Rampart > Devil's Lake > Baraboo Range > Wisconsin",https://www.mountainproject.com/route/113579073/chicken-tonight,2.7,-1,"Trad, TR","5.8 PG13",1,50,43.41353,-89.71515
"Riverboat Amateur (See Comments)","10. Above Anthrax > Necedah (Petenwell Rock) > Central > Wisconsin",https://www.mountainproject.com/route/121484258/riverboat-amateur-see-comments,2.5,-1,"Sport, TR",5.8,1,45,44.046,-90.02047
"Pork Loin variation","6. Porkchop Buttress > West Bluff 02 - Misery Rocks & The Pantry > Devil's Lake > Baraboo Range > Wisconsin",https://www.mountainproject.com/route/105987617/pork-loin-variation,2.7,-1,"Trad, TR",5.8,1,60,43.41671,-89.73827
"Anthrax Dihedral","12. Anthrax Wall > Necedah (Petenwell Rock) > Central > Wisconsin",https://www.mountainproject.com/route/106795031/anthrax-dihedral,2.7,-1,"Trad, TR",5.8,1,50,44.04697,-90.02043
Archery,"7.3 - Horse Rampart > East Bluff 07 - Railroad Tracks > Devil's Lake > Baraboo Range > Wisconsin",https://www.mountainproject.com/route/105730412/archery,2.1,-1,TR,5.8,1,,43.41665,-89.72612
"Oh Rats","2. Dutchman Rampart > West Bluff 02 - Misery Rocks & The Pantry > Devil's Lake > Baraboo Range > Wisconsin",https://www.mountainproject.com/route/106611083/oh-rats,3.1,-1,Trad,5.8,1,50,43.41663,-89.7387
"Vine Street","George's Point > Grandad Bluff > Central > Wisconsin",https://www.mountainproject.com/route/106050401/vine-street,2.8,-1,"Trad, TR",5.8,1,40,43.8104,-91.2057
"The Bastard Chimney","04: Great Chimney Area > 1: Prospect Point Rampart > West Bluff 05 - West Rampart > Devil's Lake > Baraboo Range > Wisconsin",https://www.mountainproject.com/route/107552824/the-bastard-chimney,2.9,-1,"Trad, TR",5.8,1,60,43.4203,-89.73836
"Sandy Cheeks","South Faces > The Fishin' Crag (Castle Rock South) > South > Wisconsin",https://www.mountainproject.com/route/121339259/sandy-cheeks,2.7,-1,Sport,5.8,1,65,43.0441,-90.51971
"Dippy Diagonal Variation Right (AKA the Dipster)","Lower Major Mass > 5.3 - Doorway Rocks - Major Mass > East Bluff 05 - Potholes Area > Devil's Lake > Baraboo Range > Wisconsin",https://www.mountainproject.com/route/107166430/dippy-diagonal-variation-right-aka-the-dipster,2.8,-1,"Trad, TR",5.8,1,40,43.41382,-89.71997
"Chair Bivy","Chair Bivy Buttress > West Bluff 03 - Cleo Amphitheater > Devil's Lake > Baraboo Range > Wisconsin",https://www.mountainproject.com/route/107655604/chair-bivy,3.3,-1,Boulder,"5.8 V2",1,40,43.41741,-89.73806
Galleass,"3. The Frigate > West Bluff 02 - Misery Rocks & The Pantry > Devil's Lake > Baraboo Range > Wisconsin",https://www.mountainproject.com/route/107139877/galleass,2.7,-1,Trad,5.8,1,40,43.4166,-89.73862
"The Bodysnatcher","03: The Monster > East Bluff 04 - East Rampart > Devil's Lake > Baraboo Range > Wisconsin",https://www.mountainproject.com/route/107173474/the-bodysnatcher,2.7,-1,Trad,5.8,1,30,43.41343,-89.71212
"Tang Shwang","7.1.1 - Railroad Amphitheater > East Bluff 07 - Railroad Tracks > Devil's Lake > Baraboo Range > Wisconsin",https://www.mountainproject.com/route/106483382/tang-shwang,2.4,-1,"Trad, TR",5.8,1,50,43.41812,-89.72723
"Archway Cookie","Lower Major Mass > 5.3 - Doorway Rocks - Major Mass > East Bluff 05 - Potholes Area > Devil's Lake > Baraboo Range > Wisconsin",https://www.mountainproject.com/route/105730508/archway-cookie,3.0,-1,"Trad, TR",5.8,1,,43.41382,-89.71997
"Pine Tree Crack","2: Reclining Tower > West Bluff 05 - West Rampart > Devil's Lake > Baraboo Range > Wisconsin",https://www.mountainproject.com/route/106879751/pine-tree-crack,2.8,-1,"Trad, TR","5.8 PG13",1,85,43.42093,-89.73788
"The Chopper","01. September Wall > East Bluff 02 - East of the Quarry > Devil's Lake > Baraboo Range > Wisconsin",https://www.mountainproject.com/route/106866696/the-chopper,3.0,-1,"Trad, TR",5.8,1,40,43.41316,-89.70055
"The Rook","09. Prayer Wall > East Bluff 02 - East of the Quarry > Devil's Lake > Baraboo Range > Wisconsin",https://www.mountainproject.com/route/105950458/the-rook,3.0,-1,TR,5.8,1,30,43.4131,-89.69329
"Sweat Box","6. Porkchop Buttress > West Bluff 02 - Misery Rocks & The Pantry > Devil's Lake > Baraboo Range > Wisconsin",https://www.mountainproject.com/route/105730574/sweat-box,2.7,-1,"Trad, TR",5.8,1,,43.41671,-89.73827
"The Don Wall","Mt. Simon > Central > Wisconsin",https://www.mountainproject.com/route/113892480/the-don-wall,3.0,-1,TR,"5.8 PG13",1,30,44.83306,-91.50696
"Count your fingers","Farewell To Arms Wall > East Bluff 03 - West of the Quarry > Devil's Lake > Baraboo Range > Wisconsin",https://www.mountainproject.com/route/116355801/count-your-fingers,3.0,-1,"Trad, TR",5.8,1,30,43.41246,-89.70543
"Farewell to Arms","Farewell To Arms Wall > East Bluff 03 - West of the Quarry > Devil's Lake > Baraboo Range > Wisconsin",https://www.mountainproject.com/route/112904325/farewell-to-arms,3.0,-1,TR,5.8,1,40,43.41246,-89.70543
"Got You","05. Condor Corner > East Bluff 02 - East of the Quarry > Devil's Lake > Baraboo Range > Wisconsin",https://www.mountainproject.com/route/110197791/got-you,3.0,-1,"Trad, TR",5.8,1,20,43.41307,-89.69568
"No Vacancy","09. Prayer Wall > East Bluff 02 - East of the Quarry > Devil's Lake > Baraboo Range > Wisconsin",https://www.mountainproject.com/route/107361908/no-vacancy,3.0,-1,"Trad, TR",5.8,1,20,43.4131,-89.69329
Two-step,"7.2.3 - Lothar's Ledges > East Bluff 07 - Railroad Tracks > Devil's Lake > Baraboo Range > Wisconsin",https://www.mountainproject.com/route/107265994/two-step,3.0,-1,Trad,5.8,1,25,43.4166,-89.7265
"Faith, Hope, and Tension","Lost Temple > East Bluff 03 - West of the Quarry > Devil's Lake > Baraboo Range > Wisconsin",https://www.mountainproject.com/route/106609396/faith-hope-and-tension,3.0,-1,"Trad, TR",5.8,1,50,43.4124,-89.7048
"Smoke Shelf","8. Double Chimney > West Bluff 02 - Misery Rocks & The Pantry > Devil's Lake > Baraboo Range > Wisconsin",https://www.mountainproject.com/route/105730589/smoke-shelf,3.0,-1,"Trad, TR",5.8,1,,43.41652,-89.7376
Seamstress,"The Lonely Wall > Group Camps > Governor Dodge State Park > South > Wisconsin",https://www.mountainproject.com/route/121033812/seamstress,3.0,-1,"Trad, TR",5.8,1,40,43.04068,-90.10476
"Devil's Lake Ridge Run","Full Park Link-Ups > Linkups, Contrivances, Oddities and Triflings > Devil's Lake > Baraboo Range > Wisconsin",https://www.mountainproject.com/route/111360568/devils-lake-ridge-run,3.0,-1,Trad,5.8,1,,43.41452,-89.73115
"Crimp Hand Strong","Donald Rock > Donald Park > South > Wisconsin",https://www.mountainproject.com/route/119766695/crimp-hand-strong,3.0,-1,TR,5.8,1,30,42.96375,-89.6751
"Wind & Wave","Storm Wrack Wall > Steinke Basin > Devil's Lake Bouldering > Devil's Lake > Baraboo Range > Wisconsin",https://www.mountainproject.com/route/121817092/wind-wave,3.0,-1,"Trad, TR",5.8,1,25,43.4294,-89.7228
"Turks Circuit","West Bluff Circuits and Ridges > Linkups, Contrivances, Oddities and Triflings > Devil's Lake > Baraboo Range > Wisconsin",https://www.mountainproject.com/route/109136968/turks-circuit,3.0,-1,Trad,5.8,7,500,43.42166,-89.73764
"Straight Shot","Blackhawk Point > Blackhawk Lake Recreation Area > South > Wisconsin",https://www.mountainproject.com/route/118858064/straight-shot,3.0,-1,"Trad, TR",5.8,1,25,43.02017,-90.2895
"Tree and a Half Men","1. Rim North of Balanced Rock > East Bluff 06 - Balanced Rock > Devil's Lake > Baraboo Range > Wisconsin",https://www.mountainproject.com/route/114170209/tree-and-a-half-men,3.0,-1,"Trad, TR",5.8,1,50,43.41615,-89.72498
"Grotesque Features","Rickety Rib > 03. Near East > East Bluff 02 - East of the Quarry > Devil's Lake > Baraboo Range > Wisconsin",https://www.mountainproject.com/route/113902873/grotesque-features,3.0,-1,"Trad, TR","5.8 PG13",1,60,43.41257,-89.69935
"Bacon Breath","5. Dungeon Wall > West Bluff 02 - Misery Rocks & The Pantry > Devil's Lake > Baraboo Range > Wisconsin",https://www.mountainproject.com/route/109641668/bacon-breath,3.0,-1,"Trad, TR",5.8,1,35,43.41657,-89.73853
"Wild Horses","15: Pseudo Hawk's Nest > East Bluff 04 - East Rampart > Devil's Lake > Baraboo Range > Wisconsin",https://www.mountainproject.com/route/106933658/wild-horses,2.8,-1,TR,5.8,1,45,43.41353,-89.71515
"No Way Down","Tyrolean Tower > West Bluff 06 - West Bluff Towers > Devil's Lake > Baraboo Range > Wisconsin",https://www.mountainproject.com/route/107096235/no-way-down,3.0,-1,Trad,"5.8 R",1,40,43.42401,-89.73743
"Der Schnozzel","Cake Walk > West Bluff 06 - West Bluff Towers > Devil's Lake > Baraboo Range > Wisconsin",https://www.mountainproject.com/route/107274450/der-schnozzel,3.0,-1,"Trad, TR",5.8,1,30,43.42339,-89.73778
"A Point of Balance","Turk's Head > West Bluff 03 - Cleo Amphitheater > Devil's Lake > Baraboo Range > Wisconsin",https://www.mountainproject.com/route/106908023/a-point-of-balance,2.6,-1,"Trad, TR",5.8,1,40,43.4176,-89.73802
"Moon Walk (Waning)","7. Split Tower > West Bluff 02 - Misery Rocks & The Pantry > Devil's Lake > Baraboo Range > Wisconsin",https://www.mountainproject.com/route/105730607/moon-walk-waning,2.6,-1,TR,5.8,1,,43.41699,-89.73789
"The Plank","The Cleo Amphitheater > West Bluff 03 - Cleo Amphitheater > Devil's Lake > Baraboo Range > Wisconsin",https://www.mountainproject.com/route/106927463/the-plank,2.3,-1,TR,5.8,1,50,43.41738,-89.73856
"Hissing Vulture","5. Dungeon Wall > West Bluff 02 - Misery Rocks & The Pantry > Devil's Lake > Baraboo Range > Wisconsin",https://www.mountainproject.com/route/105730796/hissing-vulture,2.7,-1,"Trad, TR",5.8,1,50,43.41657,-89.73853
"The Stern","3. The Frigate > West Bluff 02 - Misery Rocks & The Pantry > Devil's Lake > Baraboo Range > Wisconsin",https://www.mountainproject.com/route/105988760/the-stern,2.8,-1,Trad,5.8,1,,43.4166,-89.73862
"Africa Crack","1. Old Sandstone > East Bluff 01 - Sandstone Area > Devil's Lake > Baraboo Range > Wisconsin",https://www.mountainproject.com/route/106971689/africa-crack,2.1,-1,Trad,5.8,1,40,43.4137,-89.6863
Randyland,"The Point > Grandad Bluff > Central > Wisconsin",https://www.mountainproject.com/route/106074239/randyland,2.0,-1,Sport,5.8,1,40,43.812,-91.21118
Foil,"Monolith Blocks > East Bluff 08 - North End > Devil's Lake > Baraboo Range > Wisconsin",https://www.mountainproject.com/route/107688283/foil,2.4,-1,"Trad, TR",5.8,1,25,43.4225,-89.7243
"New Moon","7. Split Tower > West Bluff 02 - Misery Rocks & The Pantry > Devil's Lake > Baraboo Range > Wisconsin",https://www.mountainproject.com/route/105730616/new-moon,2.4,-1,TR,5.8,1,,43.41699,-89.73789
"Squeeze Play","Bird-Foot Buttress > East Bluff 03 - West of the Quarry > Devil's Lake > Baraboo Range > Wisconsin",https://www.mountainproject.com/route/106035111/squeeze-play,2.4,-1,"Trad, TR",5.8,1,,43.41269,-89.70663
"Miss Piggy's Pleasure","12: Rainy Wednesday Tower > East Bluff 04 - East Rampart > Devil's Lake > Baraboo Range > Wisconsin",https://www.mountainproject.com/route/107885912/miss-piggys-pleasure,2.1,-1,"Trad, TR","5.8 PG13",1,55,43.41361,-89.71457
"Glass Dihedral","06. Hell Wall (aka Quarry Wall) > Necedah (Petenwell Rock) > Central > Wisconsin",https://www.mountainproject.com/route/113723196/glass-dihedral,2.3,-1,Trad,"5.8 R",1,40,44.04529,-90.02031
"No Trouble","Tree Tower > West Bluff 06 - West Bluff Towers > Devil's Lake > Baraboo Range > Wisconsin",https://www.mountainproject.com/route/116963262/no-trouble,2.7,-1,"Trad, TR",5.8,1,30,43.42357,-89.73764
"The White Cloud","5. Hole-In-The-Wall > East Bluff 06 - Balanced Rock > Devil's Lake > Baraboo Range > Wisconsin",https://www.mountainproject.com/route/111890607/the-white-cloud,2.7,-1,TR,5.8,1,30,43.4142,-89.72368
Sasquatch,"Hollywood and Vines > West Bluff 07 - North Woods > Devil's Lake > Baraboo Range > Wisconsin",https://www.mountainproject.com/route/107100821/sasquatch,2.7,-1,"Trad, TR",5.8,1,30,43.4269,-89.7367
"Fistful of Metal","12. Anthrax Wall > Necedah (Petenwell Rock) > Central > Wisconsin",https://www.mountainproject.com/route/106821388/fistful-of-metal,2.5,-1,Trad,5.8,1,60,44.04697,-90.02043
"Hard Nose","Bird-Foot Buttress > East Bluff 03 - West of the Quarry > Devil's Lake > Baraboo Range > Wisconsin",https://www.mountainproject.com/route/107623500/hard-nose,2.5,-1,TR,5.8,1,,43.41269,-89.70663
"Salt Peter","05. Condor Corner > East Bluff 02 - East of the Quarry > Devil's Lake > Baraboo Range > Wisconsin",https://www.mountainproject.com/route/106532628/salt-peter,2.5,-1,Trad,5.8,1,45,43.41307,-89.69568
"The Wasp","Wiessner Wall > West Bluff 03 - Cleo Amphitheater > Devil's Lake > Baraboo Range > Wisconsin",https://www.mountainproject.com/route/105730271/the-wasp,2.4,-1,"Trad, TR",5.8,1,,43.41753,-89.73823
"Sick Vulture","Bird-Foot Buttress > East Bluff 03 - West of the Quarry > Devil's Lake > Baraboo Range > Wisconsin",https://www.mountainproject.com/route/106035214/sick-vulture,2.4,-1,TR,5.8,1,,43.41269,-89.70663
"Creeping Ivy","Poison Ivy Wall > East Bluff 03 - West of the Quarry > Devil's Lake > Baraboo Range > Wisconsin",https://www.mountainproject.com/route/112846814/creeping-ivy,2.5,-1,TR,5.8,1,40,43.4125,-89.7069
"Peanut Butter","7.3 - Horse Rampart > East Bluff 07 - Railroad Tracks > Devil's Lake > Baraboo Range > Wisconsin",https://www.mountainproject.com/route/106881834/peanut-butter,2.2,-1,"Trad, TR",5.8,1,70,43.41665,-89.72612
"Hidden Wall","Upper Major Mass & Jungle Gym Tower > 5.3 - Doorway Rocks - Major Mass > East Bluff 05 - Potholes Area > Devil's Lake > Baraboo Range > Wisconsin",https://www.mountainproject.com/route/107236521/hidden-wall,2.5,-1,"Trad, TR","5.8 R",1,30,43.41403,-89.71997
"Left Face of TM Overhang","Lower Major Mass > 5.3 - Doorway Rocks - Major Mass > East Bluff 05 - Potholes Area > Devil's Lake > Baraboo Range > Wisconsin",https://www.mountainproject.com/route/107212065/left-face-of-tm-overhang,2.5,-1,"Trad, TR",5.8,1,40,43.41382,-89.71997
"West Face of Tower","02. Y-Crack Wall > Necedah (Petenwell Rock) > Central > Wisconsin",https://www.mountainproject.com/route/106063301/west-face-of-tower,2.3,-1,Trad,"5.8 PG13",1,50,44.0442,-90.01954
Roofus,"10: Moldy Buttress > East Bluff 04 - East Rampart > Devil's Lake > Baraboo Range > Wisconsin",https://www.mountainproject.com/route/108866821/roofus,2.3,-1,"Trad, TR","5.8 PG13",1,60,43.41374,-89.7139
"Don't Lean on the Tree","5. Hole-In-The-Wall > East Bluff 06 - Balanced Rock > Devil's Lake > Baraboo Range > Wisconsin",https://www.mountainproject.com/route/107242578/dont-lean-on-the-tree,2.3,-1,Trad,5.8,1,30,43.4142,-89.72368
"Flying Fish","02. February Wall > East Bluff 02 - East of the Quarry > Devil's Lake > Baraboo Range > Wisconsin",https://www.mountainproject.com/route/106871326/flying-fish,2.3,-1,"Trad, TR, Boulder","5.8 V1 PG13",1,30,43.41404,-89.69763
"Killer Ladybugs","Bob's Rock > Northwest > Wisconsin",https://www.mountainproject.com/route/117584043/killer-ladybugs,2.5,-1,TR,5.8,1,70,46.29544,-90.99503
"Cracker Barrel","Great Tower > West Bluff 04 - Great Tower Area > Devil's Lake > Baraboo Range > Wisconsin",https://www.mountainproject.com/route/107292799/cracker-barrel,2.5,-1,"Trad, TR",5.8,1,35,43.41896,-89.73749
"Gettin' Lucky Arete","Kutcher's Bluff > Rattlesnake Mound > Central Sandstone > Central > Wisconsin",https://www.mountainproject.com/route/107188521/gettin-lucky-arete,2.5,-1,TR,5.8,1,22,43.87451,-89.83898
"Mother Fletcher's","17: Hawk's Nest > East Bluff 04 - East Rampart > Devil's Lake > Baraboo Range > Wisconsin",https://www.mountainproject.com/route/107490585/mother-fletchers,2.0,-1,Trad,"5.8 R",1,90,43.41353,-89.7158
"Strong Faith","Hillbilly Routes > Hillbilly Hollow > Central > Wisconsin",https://www.mountainproject.com/route/109159619/strong-faith,2.1,-1,"Trad, TR","5.8 PG13",1,30,43.9763,-89.5005
"Cannabis Sativa","Upper Major Mass & Jungle Gym Tower > 5.3 - Doorway Rocks - Major Mass > East Bluff 05 - Potholes Area > Devil's Lake > Baraboo Range > Wisconsin",https://www.mountainproject.com/route/110528432/cannabis-sativa,2.3,-1,"Trad, TR","5.8 R",1,40,43.41403,-89.71997
"Runnin' With Bigfoot","Bigfoot Pillar > The Fishin' Crag (Castle Rock South) > South > Wisconsin",https://www.mountainproject.com/route/110783354/runnin-with-bigfoot,2.6,-1,TR,5.8,1,30,43.04515,-90.51967
"The Grand Traverse","04: D'Arcy's Buttress > East Bluff 04 - East Rampart > Devil's Lake > Baraboo Range > Wisconsin",https://www.mountainproject.com/route/110535463/the-grand-traverse,2.3,-1,"Trad, TR","5.8 R",1,35,43.41361,-89.71224
"Lichen Planus","10: Moldy Buttress > East Bluff 04 - East Rampart > Devil's Lake > Baraboo Range > Wisconsin",https://www.mountainproject.com/route/111023166/lichen-planus,2.2,-1,TR,5.8,1,45,43.41374,-89.7139
"The Mantle Shelf","Stettner Rocks > West Bluff 01 - Stettner Rocks > Devil's Lake > Baraboo Range > Wisconsin",https://www.mountainproject.com/route/105730736/the-mantle-shelf,2.0,-1,TR,"5.8 R",1,30,43.41458,-89.73961
Phooey,"02. February Wall > East Bluff 02 - East of the Quarry > Devil's Lake > Baraboo Range > Wisconsin",https://www.mountainproject.com/route/109070358/phooey,2.3,-1,"Trad, TR",5.8,1,30,43.41404,-89.69763
"Civilian Stripes","White Wall > East Bluff 03 - West of the Quarry > Devil's Lake > Baraboo Range > Wisconsin",https://www.mountainproject.com/route/107886110/civilian-stripes,2.3,-1,"Trad, TR","5.8 PG13",1,40,43.4124,-89.7066
"Indigo Billy","2.  Balanced Rock Wall > East Bluff 06 - Balanced Rock > Devil's Lake > Baraboo Range > Wisconsin",https://www.mountainproject.com/route/112022449/indigo-billy,2.1,-1,"Trad, TR",5.8,1,40,43.41436,-89.72501
"Cutting Edge","Red Nose Wall > East Bluff 03 - West of the Quarry > Devil's Lake > Baraboo Range > Wisconsin",https://www.mountainproject.com/route/105819915/cutting-edge,2.0,-1,"Trad, TR","5.8 PG13",1,45,43.4129,-89.70505
"Rusty Crack","Monolith Blocks > East Bluff 08 - North End > Devil's Lake > Baraboo Range > Wisconsin",https://www.mountainproject.com/route/107688234/rusty-crack,2.0,-1,"Trad, TR",5.8,1,25,43.4225,-89.7243
"Modern Life is Rubbish","03: Big Toe to Great Chimney > 1: Prospect Point Rampart > West Bluff 05 - West Rampart > Devil's Lake > Baraboo Range > Wisconsin",https://www.mountainproject.com/route/107791815/modern-life-is-rubbish,2.0,-1,"Trad, TR",5.8,1,65,43.42005,-89.7384
"Sorry Devin","South Faces > The Fishin' Crag (Castle Rock South) > South > Wisconsin",https://www.mountainproject.com/route/118693886/sorry-devin,2.0,-1,Trad,5.8,1,,43.0441,-90.51971
"Hiker Envy","04: Great Chimney Area > 1: Prospect Point Rampart > West Bluff 05 - West Rampart > Devil's Lake > Baraboo Range > Wisconsin",https://www.mountainproject.com/route/111803920/hiker-envy,2.0,-1,"Trad, TR",5.8,1,50,43.4203,-89.73836
"Unknown  5","Main Wall > Steinke Wall > Steinke Basin > Devil's Lake Bouldering > Devil's Lake > Baraboo Range > Wisconsin",https://www.mountainproject.com/route/112123397/unknown-5,2.0,-1,"Trad, TR",5.8,1,25,43.4273,-89.7192
Convergence,"Cibola Wall > Steinke Basin > Devil's Lake Bouldering > Devil's Lake > Baraboo Range > Wisconsin",https://www.mountainproject.com/route/112123601/convergence,2.0,-1,TR,5.8,1,25,43.4233,-89.7149
"Saturday Forever","5.4 - Doorway Rocks - Minor Mass > East Bluff 05 - Potholes Area > Devil's Lake > Baraboo Range > Wisconsin",https://www.mountainproject.com/route/107769270/saturday-forever,2.0,-1,"Trad, TR","5.8 PG13",1,60,43.41411,-89.71906
"Prospect Point Pinnacle - East Face","01: Prospect Point Pinnacle > 1: Prospect Point Rampart > West Bluff 05 - West Rampart > Devil's Lake > Baraboo Range > Wisconsin",https://www.mountainproject.com/route/107256608/prospect-point-pinnacle-east-face,2.0,-1,Trad,"5.8 R",1,50,43.41955,-89.73853
"No Rest For the Wicked","Lower Major Mass > 5.3 - Doorway Rocks - Major Mass > East Bluff 05 - Potholes Area > Devil's Lake > Baraboo Range > Wisconsin",https://www.mountainproject.com/route/105730760/no-rest-for-the-wicked,2.0,-1,"Trad, TR",5.8,1,30,43.41382,-89.71997
"Double Fin","02. February Wall > East Bluff 02 - East of the Quarry > Devil's Lake > Baraboo Range > Wisconsin",https://www.mountainproject.com/route/106871324/double-fin,2.0,-1,"Trad, TR, Boulder","5.8 V1 PG13",1,30,43.41404,-89.69763
"Portrait Corner","Poison Ivy Wall > East Bluff 03 - West of the Quarry > Devil's Lake > Baraboo Range > Wisconsin",https://www.mountainproject.com/route/106048849/portrait-corner,2.0,-1,TR,5.8,1,35,43.4125,-89.7069
"West Face","14: Leaning Tower > East Bluff 04 - East Rampart > Devil's Lake > Baraboo Range > Wisconsin",https://www.mountainproject.com/route/119244099/west-face,2.0,-1,Trad,"5.8 R",1,,43.41368,-89.71486
"Tomahawk Crack","Tomahawk Rocks > East Bluff 08 - North End > Devil's Lake > Baraboo Range > Wisconsin",https://www.mountainproject.com/route/114516319/tomahawk-crack,2.5,-1,"Trad, TR",5.8,1,35,43.4248,-89.7248
"Walltower Corner","Vulture Lookout > East Bluff 03 - West of the Quarry > Devil's Lake > Baraboo Range > Wisconsin",https://www.mountainproject.com/route/122186911/walltower-corner,2.0,-1,"Trad, TR",5.8,1,24,43.4132,-89.704
Winnebago,"Tomahawk Rocks > East Bluff 08 - North End > Devil's Lake > Baraboo Range > Wisconsin",https://www.mountainproject.com/route/114516365/winnebago,2.0,-1,"Trad, TR","5.8 R",1,35,43.4248,-89.7248
"Weeping Quartz Left","Poison Ivy Wall > East Bluff 03 - West of the Quarry > Devil's Lake > Baraboo Range > Wisconsin",https://www.mountainproject.com/route/122215830/weeping-quartz-left,2.0,-1,"Trad, TR",5.8,1,35,43.4125,-89.7069
"The McCord","Tomahawk Rocks > East Bluff 08 - North End > Devil's Lake > Baraboo Range > Wisconsin",https://www.mountainproject.com/route/121089906/the-mccord,2.0,-1,"Trad, TR",5.8,1,45,43.4248,-89.7248
"Grishnakh or Gorbag","Picnic Area > Interstate Park > Northwest > Wisconsin",https://www.mountainproject.com/route/112088143/grishnakh-or-gorbag,2.0,-1,Trad,5.8,1,40,45.39665,-92.65575
"Waltzing Mary","3: Dead Tree Wall > West Bluff 05 - West Rampart > Devil's Lake > Baraboo Range > Wisconsin",https://www.mountainproject.com/route/115322593/waltzing-mary,2.0,-1,"Trad, TR",5.8,1,20,43.4215,-89.73841
Birchy,"Highland Knoll > Blackhawk Lake Recreation Area > South > Wisconsin",https://www.mountainproject.com/route/118862322/birchy,2.0,-1,TR,5.8,1,45,43.03409,-90.28684
Ho-Chunk,"Tomahawk Rocks > East Bluff 08 - North End > Devil's Lake > Baraboo Range > Wisconsin",https://www.mountainproject.com/route/121089872/ho-chunk,2.0,-1,"Trad, TR",5.8,1,25,43.4248,-89.7248
"A Girl Named Sue","Red Nose Wall > East Bluff 03 - West of the Quarry > Devil's Lake > Baraboo Range > Wisconsin",https://www.mountainproject.com/route/121615284/a-girl-named-sue,2.0,-1,"Trad, TR",5.8,1,25,43.4129,-89.70505
"Ramses III","Poison Ivy Wall > East Bluff 03 - West of the Quarry > Devil's Lake > Baraboo Range > Wisconsin",https://www.mountainproject.com/route/122215663/ramses-iii,2.0,-1,"Trad, TR",5.8,1,30,43.4125,-89.7069
"Crusty Corner","Monolith Blocks > East Bluff 08 - North End > Devil's Lake > Baraboo Range > Wisconsin",https://www.mountainproject.com/route/121398716/crusty-corner,2.0,-1,"Trad, TR",5.8,1,25,43.4225,-89.7243
"Three Step","10. Siamese Buttress > East Bluff 02 - East of the Quarry > Devil's Lake > Baraboo Range > Wisconsin",https://www.mountainproject.com/route/115453166/three-step,2.0,-1,"Trad, TR",5.8,1,40,43.41291,-89.69258
"Fish Face","02. February Wall > East Bluff 02 - East of the Quarry > Devil's Lake > Baraboo Range > Wisconsin",https://www.mountainproject.com/route/122004822/fish-face,2.0,-1,"Trad, TR",5.8,1,30,43.41404,-89.69763
"Evil Twin","6. The Effie > East Bluff 06 - Balanced Rock > Devil's Lake > Baraboo Range > Wisconsin",https://www.mountainproject.com/route/113715827/evil-twin,2.0,-1,"Trad, TR","5.8 PG13",1,25,43.4141,-89.7219
"Catch Up","Crashing Rock Wall > East Bluff 03 - West of the Quarry > Devil's Lake > Baraboo Range > Wisconsin",https://www.mountainproject.com/route/120730655/catch-up,2.0,-1,"Trad, TR",5.8,1,30,43.4122,-89.70512
"Laughing Sioux","Red Nose Wall > East Bluff 03 - West of the Quarry > Devil's Lake > Baraboo Range > Wisconsin",https://www.mountainproject.com/route/121615376/laughing-sioux,2.0,-1,"Trad, TR",5.8,1,40,43.4129,-89.70505
Grahnular,"2. Dutchman Rampart > West Bluff 02 - Misery Rocks & The Pantry > Devil's Lake > Baraboo Range > Wisconsin",https://www.mountainproject.com/route/114559304/grahnular,2.0,-1,TR,5.8,1,25,43.41663,-89.7387
Avis,"U Haul Overhangs > 03. Near East > East Bluff 02 - East of the Quarry > Devil's Lake > Baraboo Range > Wisconsin",https://www.mountainproject.com/route/113737005/avis,2.0,-1,"Trad, TR",5.8,1,30,43.41254,-89.69703
"Nobleese Oblige","5.1 - Ramsay's Pinnacle > East Bluff 05 - Potholes Area > Devil's Lake > Baraboo Range > Wisconsin",https://www.mountainproject.com/route/111318187/nobleese-oblige,2.0,-1,"Trad, TR","5.8 PG13",1,35,43.4142,-89.72029
"Out of the Woods","12: Rainy Wednesday Tower > East Bluff 04 - East Rampart > Devil's Lake > Baraboo Range > Wisconsin",https://www.mountainproject.com/route/107653644/out-of-the-woods,2.5,-1,"Trad, TR",5.8,1,,43.41361,-89.71457
"Three Kings","Upper Major Mass & Jungle Gym Tower > 5.3 - Doorway Rocks - Major Mass > East Bluff 05 - Potholes Area > Devil's Lake > Baraboo Range > Wisconsin",https://www.mountainproject.com/route/108274080/three-kings,2.0,-1,"Trad, TR",5.8,1,30,43.41403,-89.71997
"Levitation Right Side","02: The Guillotine > East Bluff 04 - East Rampart > Devil's Lake > Baraboo Range > Wisconsin",https://www.mountainproject.com/route/107821093/levitation-right-side,2.0,-1,"Trad, TR","5.8 R",1,25,43.41329,-89.71166
"Lost Arrow Spire - SE Ridge","Poison Ivy Wall > East Bluff 03 - West of the Quarry > Devil's Lake > Baraboo Range > Wisconsin",https://www.mountainproject.com/route/106270681/lost-arrow-spire-se-ridge,2.0,-1,TR,5.8,1,,43.4125,-89.7069
"Moon Rock","Great Tower > West Bluff 04 - Great Tower Area > Devil's Lake > Baraboo Range > Wisconsin",https://www.mountainproject.com/route/107614419/moon-rock,2.0,-1,"Trad, TR",5.8,1,60,43.41896,-89.73749
"Equinox variation","01. September Wall > East Bluff 02 - East of the Quarry > Devil's Lake > Baraboo Range > Wisconsin",https://www.mountainproject.com/route/108191414/equinox-variation,2.0,-1,TR,5.8,1,35,43.41316,-89.70055
Nemesis,"Lost Temple > East Bluff 03 - West of the Quarry > Devil's Lake > Baraboo Range > Wisconsin",https://www.mountainproject.com/route/107883148/nemesis,2.0,-1,TR,5.8,1,50,43.4124,-89.7048
Mohawk,"Tomahawk Rocks > East Bluff 08 - North End > Devil's Lake > Baraboo Range > Wisconsin",https://www.mountainproject.com/route/107200604/mohawk,2.5,-1,TR,5.8,1,35,43.4248,-89.7248
"First Step West Face","7.2.3 - Lothar's Ledges > East Bluff 07 - Railroad Tracks > Devil's Lake > Baraboo Range > Wisconsin",https://www.mountainproject.com/route/107265963/first-step-west-face,2.0,-1,TR,5.8,1,20,43.4166,-89.7265
"St. Peter Says ""No""","Pearly Gate > West Bluff 06 - West Bluff Towers > Devil's Lake > Baraboo Range > Wisconsin",https://www.mountainproject.com/route/107096286/st-peter-says-no,2.0,-1,"Trad, TR","5.8 R",1,40,43.42501,-89.73733
"Bowlers Grip","Tree Tower > West Bluff 06 - West Bluff Towers > Devil's Lake > Baraboo Range > Wisconsin",https://www.mountainproject.com/route/105731003/bowlers-grip,2.0,-1,"Trad, TR",5.8,1,60,43.42357,-89.73764
"The Post","West Post > East Bluff 03 - West of the Quarry > Devil's Lake > Baraboo Range > Wisconsin",https://www.mountainproject.com/route/113912843/the-post,2.0,-1,TR,5.8,1,25,43.41281,-89.70815
"22 5.8 face climb","2.  Balanced Rock Wall > East Bluff 06 - Balanced Rock > Devil's Lake > Baraboo Range > Wisconsin",https://www.mountainproject.com/route/108339286/22-58-face-climb,2.0,-1,"Trad, TR","5.8 PG13",1,25,43.41436,-89.72501
"Fine Tuning","07. The Bandshell > East Bluff 02 - East of the Quarry > Devil's Lake > Baraboo Range > Wisconsin",https://www.mountainproject.com/route/124156048/fine-tuning,2.0,-1,"Trad, TR",5.8,1,35,43.4129,-89.6946
Slither,"08. Rattlesnake Ridge > East Bluff 02 - East of the Quarry > Devil's Lake > Baraboo Range > Wisconsin",https://www.mountainproject.com/route/124239044/slither,2.0,-1,"Trad, TR",5.8,1,25,43.41299,-89.6936
"Harvest Moon","01. September Wall > East Bluff 02 - East of the Quarry > Devil's Lake > Baraboo Range > Wisconsin",https://www.mountainproject.com/route/124847126/harvest-moon,2.0,-1,"Trad, TR",5.8,1,30,43.41316,-89.70055
"Long Weekend","01. September Wall > East Bluff 02 - East of the Quarry > Devil's Lake > Baraboo Range > Wisconsin",https://www.mountainproject.com/route/124847170/long-weekend,2.0,-1,"Trad, TR",5.8,1,30,43.41316,-89.70055
"In Step","01. September Wall > East Bluff 02 - East of the Quarry > Devil's Lake > Baraboo Range > Wisconsin",https://www.mountainproject.com/route/124847177/in-step,2.0,-1,"Trad, TR",5.8,1,30,43.41316,-89.70055
"3 Days","05. Condor Corner > East Bluff 02 - East of the Quarry > Devil's Lake > Baraboo Range > Wisconsin",https://www.mountainproject.com/route/125114908/3-days,2.0,-1,"Trad, TR",5.8,1,30,43.41307,-89.69568
"Codename Condor","05. Condor Corner > East Bluff 02 - East of the Quarry > Devil's Lake > Baraboo Range > Wisconsin",https://www.mountainproject.com/route/125114967/codename-condor,2.0,-1,"Trad, TR",5.8,1,20,43.41307,-89.69568
