Route,Location,URL,"Avg Stars","Your Stars","Route Type",Rating,Pitches,Length,"Area Latitude","Area Longitude"
"American Beauty","Cowboy King Wall > Aspen Glade > Wild Iris > Lander Area > Wyoming",https://www.mountainproject.com/route/106811737/american-beauty,3.9,-1,Sport,5.12b,1,75,42.5928,-108.7408
"Soul Bossa Nova","Powers Wall > Old Road Crags > Ten Sleep Canyon > Wyoming",https://www.mountainproject.com/route/117689788/soul-bossa-nova,3.8,-1,Sport,5.12b,1,100,44.08855,-107.29199
"Court and Spark","Lower Remuda > Wild Iris > Lander Area > Wyoming",https://www.mountainproject.com/route/106020011/court-and-spark,3.8,-1,Sport,5.12b,1,,42.59215,-108.73721
"Left El Shinto","Sector Shinto > French Cattle Ranch > Ten Sleep Canyon > Wyoming",https://www.mountainproject.com/route/107290020/left-el-shinto,3.8,-1,Sport,5.12b,1,,44.14653,-107.25807
"Center El Shinto","Sector Shinto > French Cattle Ranch > Ten Sleep Canyon > Wyoming",https://www.mountainproject.com/route/105856684/center-el-shinto,3.8,-1,Sport,5.12b,1,70,44.14653,-107.25807
"If Dreams Were Thunder","Sidewalk Buttress > Leigh Creek > Old Road Crags > Ten Sleep Canyon > Wyoming",https://www.mountainproject.com/route/108233079/if-dreams-were-thunder,3.7,-1,Sport,5.12b,1,80,44.08118,-107.3024
Happiness,"Downpour Wall > Mondo Beyondo > Ten Sleep Canyon > Wyoming",https://www.mountainproject.com/route/105827047/happiness,3.6,-1,Sport,5.12b,1,80,44.13246,-107.25716
"Burl Ives Is Dead","Illigitimus Rotundus AKA: Fat Bastard > Lake Point > Ten Sleep Canyon > Wyoming",https://www.mountainproject.com/route/108221665/burl-ives-is-dead,3.6,-1,Sport,5.12b,1,65,44.15758,-107.23345
"Great White Behemoth","L. Superratic Pillar > Valhalla > Ten Sleep Canyon > Wyoming",https://www.mountainproject.com/route/105956328/great-white-behemoth,3.6,-1,Sport,5.12b,1,90,44.14306,-107.25786
"Vitamin K","5. Drugs and Sex > Valhalla > Ten Sleep Canyon > Wyoming",https://www.mountainproject.com/route/107755077/vitamin-k,3.6,-1,Sport,5.12b,1,80,44.13663,-107.25768
"Cowboy Poetry","G. Cowboy Poetry > The Main Wall > Wild Iris > Lander Area > Wyoming",https://www.mountainproject.com/route/105851631/cowboy-poetry,3.4,-1,Sport,5.12b,1,80,42.58494,-108.73151
Charro,"D. Hot Tamale Wall > The Main Wall > Wild Iris > Lander Area > Wyoming",https://www.mountainproject.com/route/105863225/charro,3.7,-1,Sport,5.12b,1,70,42.58489,-108.73638
"Ruby Shooter","D. Hot Tamale Wall > The Main Wall > Wild Iris > Lander Area > Wyoming",https://www.mountainproject.com/route/105989604/ruby-shooter,3.4,-1,Sport,5.12b,1,75,42.58489,-108.73638
"Poker Face Alice","3. Poker Face Alice > 1. Left Side (Lunarscape, Tribal War, Poker-Face, Lone Pilgrim) > OK Corral > Wild Iris > Lander Area > Wyoming",https://www.mountainproject.com/route/105862062/poker-face-alice,3.1,-1,Sport,5.12b,1,45,42.57479,-108.717
"Bulldog Arete","Hound Dog Crag > Ten Sleep Canyon > Wyoming",https://www.mountainproject.com/route/107771878/bulldog-arete,3.6,-1,Sport,5.12b,1,65,44.10033,-107.28463
"Bonnie and Clyde","His and Hers Wall > Lake Point > Ten Sleep Canyon > Wyoming",https://www.mountainproject.com/route/109585903/bonnie-and-clyde,3.4,-1,Sport,5.12b,1,50,44.15692,-107.23337
"July Jihad","The Ark > Mecca > Ten Sleep Canyon > Wyoming",https://www.mountainproject.com/route/106537649/july-jihad,3.5,-1,Sport,5.12b,1,80,44.13754,-107.23263
Upernavik,"Greenland > Old Road Crags > Ten Sleep Canyon > Wyoming",https://www.mountainproject.com/route/112163537/upernavik,3.6,-1,Sport,5.12b,1,65,44.08764,-107.2945
"Gun Street Girl","Gun Street Wall > Aspen Glade > Wild Iris > Lander Area > Wyoming",https://www.mountainproject.com/route/106885276/gun-street-girl,3.2,-1,Sport,5.12b,1,50,42.5928,-108.7413
"Happy Pants","The Ark > Mecca > Ten Sleep Canyon > Wyoming",https://www.mountainproject.com/route/113175103/happy-pants,3.7,-1,Sport,5.12b,1,85,44.13754,-107.23263
"Swamp Thang","Twizzlers Corner > Crag 6 > Ten Sleep Canyon > Wyoming",https://www.mountainproject.com/route/115164071/swamp-thang,3.2,-1,Sport,5.12b,1,,44.12119,-107.19184
Heartbreaker,"John Henry Grotto > Downtown > Ten Sleep Canyon > Wyoming",https://www.mountainproject.com/route/107187187/heartbreaker,3.6,-1,Sport,5.12b,1,70,44.1387,-107.245
"Two Kinds of Justice","C. Wild Horses Wall > The Main Wall > Wild Iris > Lander Area > Wyoming",https://www.mountainproject.com/route/105862110/two-kinds-of-justice,3.3,-1,Sport,5.12b,1,40,42.58499,-108.7366
"Go Back to Colorado","Upper Psychoactive Wall > Leigh Creek > Old Road Crags > Ten Sleep Canyon > Wyoming",https://www.mountainproject.com/route/108423152/go-back-to-colorado,3.0,-1,Sport,5.12b,1,,44.08095,-107.30567
"The Citadel of Hope","The Citadel > Sinks Canyon > Lander Area > Wyoming",https://www.mountainproject.com/route/106241885/the-citadel-of-hope,3.9,-1,Sport,5.12b,1,80,42.74087,-108.83689
"Rodeo Queen","The Erratic > Wild Iris > Lander Area > Wyoming",https://www.mountainproject.com/route/108312624/rodeo-queen,3.4,-1,Sport,5.12b,1,85,42.5904,-108.7396
"Hail Mary","Downed Tree Wall > Lake Point > Ten Sleep Canyon > Wyoming",https://www.mountainproject.com/route/107755296/hail-mary,3.5,-1,Sport,5.12b,1,60,44.15796,-107.23325
Stigmata,"J. Ministry Wall > Valhalla > Ten Sleep Canyon > Wyoming",https://www.mountainproject.com/route/112198803/stigmata,3.5,-1,Sport,5.12b,1,85,44.13872,-107.25767
"Mater Hater","5. Drugs and Sex > Valhalla > Ten Sleep Canyon > Wyoming",https://www.mountainproject.com/route/107773605/mater-hater,2.9,-1,Sport,5.12b,1,70,44.13663,-107.25768
"Wind Drinker","Suicide Point > Lander Area > Wyoming",https://www.mountainproject.com/route/107787056/wind-drinker,4.0,-1,Sport,5.12b,1,95,42.79979,-108.9392
"Pocket Kalkulator","Killer Cave > Sinks Canyon > Lander Area > Wyoming",https://www.mountainproject.com/route/105887849/pocket-kalkulator,2.4,-1,Sport,5.12b,1,,42.74193,-108.83178
"Animal Sounds","Heavy Metal Rock Band > Shady Side > Sinks Canyon > Lander Area > Wyoming",https://www.mountainproject.com/route/114492414/animal-sounds,3.4,-1,Sport,5.12b,1,60,42.73506,-108.82392
"Coyote Vacuum","Lower Remuda > Wild Iris > Lander Area > Wyoming",https://www.mountainproject.com/route/106727622/coyote-vacuum,2.8,-1,Sport,5.12b,1,50,42.59215,-108.73721
"Pretty Girls with Long Knives","Lower Blair III > Lower Blair I, II, III, and vicinity > Blair (overview) > Vedauwoo > Laramie Area > Wyoming",https://www.mountainproject.com/route/106822298/pretty-girls-with-long-knives,3.8,-1,Trad,5.12b,2,,41.19063,-105.38913
"Black Slabbath","L. Superratic Pillar > Valhalla > Ten Sleep Canyon > Wyoming",https://www.mountainproject.com/route/108284835/black-slabbath,3.2,-1,Sport,5.12b,1,70,44.14306,-107.25786
"Windy West","F. Rode Hard Wall > The Main Wall > Wild Iris > Lander Area > Wyoming",https://www.mountainproject.com/route/107225833/windy-west,3.3,-1,Sport,5.12b,1,50,42.5845,-108.73338
"Rising from the Plains","A. Rising From the Plains > The Main Wall > Wild Iris > Lander Area > Wyoming",https://www.mountainproject.com/route/106207718/rising-from-the-plains,2.6,-1,Sport,5.12b,1,40,42.5851,-108.7375
Moe,"Hardware Wall > Sinks Canyon > Lander Area > Wyoming",https://www.mountainproject.com/route/106185518/moe,3.0,-1,Sport,5.12b,1,60,42.7406,-108.83824
"Sweet Cream and Dopamine","3. Mytho Wall > The Shipyard > Piney Creek Canyon > Eastern Big Horns > Wyoming",https://www.mountainproject.com/route/116382256/sweet-cream-and-dopamine,4.0,-1,Sport,5.12b,1,110,44.55902,-106.94125
"Searching for Blanton's","White Heat Wall > Sinks Canyon > Lander Area > Wyoming",https://www.mountainproject.com/route/113799631/searching-for-blantons,3.4,-1,Sport,5.12b,1,50,42.74109,-108.8355
"Let Me Go Wild","South and East Faces > Devils Tower > Wyoming",https://www.mountainproject.com/route/107801731/let-me-go-wild,4.0,-1,Trad,5.12b,1,90,44.58986,-104.71457
"Whine and Bruises","North Face & Northwest Corner > Devils Tower > Wyoming",https://www.mountainproject.com/route/105715532/whine-and-bruises,4.0,-1,Trad,5.12b,2,,44.59158,-104.71485
"Middle Teton Cave Route","Garnet Canyon Meadows > Garnet Canyon Rock Climbs-Not Disappointment Peak > Grand Teton National Park > Wyoming",https://www.mountainproject.com/route/110693760/middle-teton-cave-route,4.0,-1,"Trad, Snow, Alpine","5.12b Easy Snow",2,300,43.72535,-110.79416
"Good Luck Jonathan","Sphinx Wall > Sphinx Sector > Ten Sleep Canyon > Wyoming",https://www.mountainproject.com/route/109477292/good-luck-jonathan,3.1,-1,Sport,5.12b,1,45,44.14489,-107.25816
"Animal Cracker Land","South and East Faces > Devils Tower > Wyoming",https://www.mountainproject.com/route/107157326/animal-cracker-land,3.9,-1,Trad,5.12b,1,150,44.58986,-104.71457
"The Sybian","The Toaster Wall > Laramie Peak Wildlife Habitat Management Area > Laramie Range > Wyoming",https://www.mountainproject.com/route/118932781/the-sybian,4.0,-1,Sport,5.12b,1,40,41.96419,-105.3702
Unchained,"Vegas Wall > Lower Canyon Granite > Cody > Wyoming",https://www.mountainproject.com/route/122343957/unchained,4.0,-1,Sport,5.12b,1,90,44.50719,-109.17547
Pandemic,"The Toaster Wall > Laramie Peak Wildlife Habitat Management Area > Laramie Range > Wyoming",https://www.mountainproject.com/route/118762751/pandemic,4.0,-1,Sport,"5.12b PG13",1,65,41.96419,-105.3702
HyperNova,"Killer Cave > Sinks Canyon > Lander Area > Wyoming",https://www.mountainproject.com/route/107132831/hypernova,3.2,-1,Sport,5.12b,1,80,42.74193,-108.83178
"Crispy Cougar","The Toaster Wall > Laramie Peak Wildlife Habitat Management Area > Laramie Range > Wyoming",https://www.mountainproject.com/route/117294847/crispy-cougar,4.0,-1,Sport,5.12b,1,40,41.96419,-105.3702
"Little Pedro's Mexican Tidal Wave","Baldwin Creek > Lander Area > Wyoming",https://www.mountainproject.com/route/112048038/little-pedros-mexican-tidal-wave,4.0,-1,Sport,5.12b,1,80,42.79834,-108.91973
"D-Cup Love","Maroon Towers Wall > Area 5:  Red and White Grotto Walls > Guernsey State Park > Wyoming",https://www.mountainproject.com/route/108594555/d-cup-love,4.0,-1,Sport,5.12b,1,80,42.2896,-104.7559
"Cinnamon Daemons","The Red Clove Wall > Area 5:  Red and White Grotto Walls > Guernsey State Park > Wyoming",https://www.mountainproject.com/route/107994874/cinnamon-daemons,4.0,-1,Sport,5.12b,1,,42.2909,-104.7565
"Boob Thing","The Power Station Wall > Lower Canyon Granite > Cody > Wyoming",https://www.mountainproject.com/route/108181500/boob-thing,4.0,-1,Sport,5.12b,1,50,44.5082,-109.1715
"The Otters Tooth","The Power Station Wall > Lower Canyon Granite > Cody > Wyoming",https://www.mountainproject.com/route/106159705/the-otters-tooth,4.0,-1,Trad,5.12b,1,70,44.5082,-109.1715
"The September Majesty","Vedauwoo North Entrance (Happy Jack Road) > Vedauwoo > Laramie Area > Wyoming",https://www.mountainproject.com/route/122789077/the-september-majesty,4.0,-1,Trad,5.12b,1,50,41.18484,-105.37826
"Omega Crack","Omega  Buttress > Death Canyon > Grand Teton National Park > Wyoming",https://www.mountainproject.com/route/106021967/omega-crack,3.7,-1,"Trad, Sport, Alpine",5.12b,2,,43.65911,-110.81351
Thieves,"J. Ministry Wall > Valhalla > Ten Sleep Canyon > Wyoming",https://www.mountainproject.com/route/113266117/thieves,3.7,-1,Sport,5.12b,1,85,44.13872,-107.25767
Cyclops,"4. Bermuda Triangle > The Shipyard > Piney Creek Canyon > Eastern Big Horns > Wyoming",https://www.mountainproject.com/route/110787203/cyclops,3.8,-1,Sport,5.12b,1,75,44.55914,-106.94184
"Spirits Rebellious","The Bunker > Vedauwoo > Laramie Area > Wyoming",https://www.mountainproject.com/route/105880270/spirits-rebellious,4.0,-1,"Trad, Boulder","5.12b V6+",1,50,41.22882,-105.32969
"Baja Runner","The Toaster Wall > Laramie Peak Wildlife Habitat Management Area > Laramie Range > Wyoming",https://www.mountainproject.com/route/118971751/baja-runner,4.0,-1,Sport,5.12b,1,70,41.96419,-105.3702
"THE Prow","The Prow Amphitheater > Tongue River Canyon > Eastern Big Horns > Wyoming",https://www.mountainproject.com/route/109598841/the-prow,4.0,-1,Sport,5.12b,1,120,44.84668,-107.34111
"The Homeless return Foodless","The Red Clove Wall > Area 5:  Red and White Grotto Walls > Guernsey State Park > Wyoming",https://www.mountainproject.com/route/107994834/the-homeless-return-foodless,4.0,-1,Sport,5.12b,1,50,42.2909,-104.7565
"Foxy Brown","The Brown Wall > Lower Canyon Granite > Cody > Wyoming",https://www.mountainproject.com/route/108508522/foxy-brown,4.0,-1,Sport,5.12b,1,80,44.50322,-109.18025
Aeoleus,"Douglas Park > The Book Pages Mound > Southwest Ridge of Reese Mtn > Reese Mountain > Laramie Peak Wildlife Habitat Management Area > Laramie Range > Wyoming",https://www.mountainproject.com/route/107482211/aeoleus,4.0,-1,"Trad, Sport",5.12b,1,100,42.0059,-105.3712
"Gordian Knot","Black Dike Walls > Sellers Mountain > Laramie Range > Wyoming",https://www.mountainproject.com/route/108700157/gordian-knot,4.0,-1,Sport,5.12b,1,60,42.10633,-105.57025
"Sonic Hedgehog","Douglas Park > The Book Pages Mound > Southwest Ridge of Reese Mtn > Reese Mountain > Laramie Peak Wildlife Habitat Management Area > Laramie Range > Wyoming",https://www.mountainproject.com/route/107482221/sonic-hedgehog,4.0,-1,Sport,5.12b,1,100,42.0059,-105.3712
"Fading in My Own Parade","The Amphitheater > HightowerSW > Southwest Ridge of Reese Mtn > Reese Mountain > Laramie Peak Wildlife Habitat Management Area > Laramie Range > Wyoming",https://www.mountainproject.com/route/107482512/fading-in-my-own-parade,4.0,-1,Sport,5.12b,2,160,42.0039,-105.3745
"TRG Teton Rock Gym","The Goat Cave > Jackson Hole > Wyoming",https://www.mountainproject.com/route/112324714/trg-teton-rock-gym,3.4,-1,Sport,5.12b,1,,43.19811,-110.92389
"Bubble Mower","The Tunnel Wall > The Island Area > Cody > Wyoming",https://www.mountainproject.com/route/123339512/bubble-mower,4.0,-1,Sport,5.12b,1,95,44.50819,-109.17754
"Tender Prey","2. Fossil Hill Central > Fossil Hill > Lander Area > Wyoming",https://www.mountainproject.com/route/113441146/tender-prey,3.0,-1,Sport,5.12b,1,75,42.71338,-108.84756
"Cowboy Killer","A. Rising From the Plains > The Main Wall > Wild Iris > Lander Area > Wyoming",https://www.mountainproject.com/route/106953463/cowboy-killer,2.9,-1,Sport,5.12b,1,40,42.5851,-108.7375
"Courage Laced with Alcohol","Lower Remuda > Wild Iris > Lander Area > Wyoming",https://www.mountainproject.com/route/113331192/courage-laced-with-alcohol,3.2,-1,Sport,5.12b,1,55,42.59215,-108.73721
Dementia,"Crazy Woman Cliff > Crazy Woman Crags > Eastern Big Horns > Wyoming",https://www.mountainproject.com/route/117508933/dementia,3.3,-1,Sport,5.12b,1,55,44.17185,-106.87118
"Ill Communication","Cellular Service Wall > Lower Canyon Granite > Cody > Wyoming",https://www.mountainproject.com/route/109576354/ill-communication,3.7,-1,Sport,5.12b,4,350,44.50565,-109.17693
Crowheart,"Purple Galaxy > Sinks Canyon > Lander Area > Wyoming",https://www.mountainproject.com/route/112940567/crowheart,3.2,-1,Sport,5.12b,1,50,42.74003,-108.84134
"Dr. Evil","Powers Wall > Old Road Crags > Ten Sleep Canyon > Wyoming",https://www.mountainproject.com/route/119521619/dr-evil,3.1,-1,Sport,5.12b,1,,44.08855,-107.29199
"Gravity Pope","City of Gold > Ten Sleep Canyon > Wyoming",https://www.mountainproject.com/route/112164836/gravity-pope,3.5,-1,Sport,5.12b,1,100,44.12988,-107.23105
"Remote Control","Poland Hill > Vedauwoo > Laramie Area > Wyoming",https://www.mountainproject.com/route/105951874/remote-control,3.8,-1,Trad,5.12b,1,60,41.16696,-105.39746
"Bloody Endeavor","Killer Cave > Sinks Canyon > Lander Area > Wyoming",https://www.mountainproject.com/route/112530649/bloody-endeavor,3.1,-1,Sport,5.12b,1,,42.74193,-108.83178
"Seven Different Delusions","Roof Ranch > Vedauwoo > Laramie Area > Wyoming",https://www.mountainproject.com/route/111918516/seven-different-delusions,3.5,-1,Sport,5.12b,1,60,41.18484,-105.37826
"Mining Space Rocks","Metropolis > Mondo Beyondo > Ten Sleep Canyon > Wyoming",https://www.mountainproject.com/route/107796189/mining-space-rocks,3.5,-1,Sport,5.12b,1,95,44.12829,-107.2577
"The Long Con","*Domestic Violence Wall > Dry Wall > Ten Sleep Canyon > Wyoming",https://www.mountainproject.com/route/108222349/the-long-con,3.5,-1,Sport,5.12b,1,95,44.09609,-107.29239
"Point Blank","Shooting Gallery > Old Road Crags > Ten Sleep Canyon > Wyoming",https://www.mountainproject.com/route/119232964/point-blank,2.9,-1,Sport,5.12b,1,120,44.08691,-107.29743
"Mini Me","Powers Wall > Old Road Crags > Ten Sleep Canyon > Wyoming",https://www.mountainproject.com/route/119288594/mini-me,3.0,-1,Sport,5.12b,1,60,44.08855,-107.29199
"Tel Aviv Miracle","The Citadel > Sinks Canyon > Lander Area > Wyoming",https://www.mountainproject.com/route/112302973/tel-aviv-miracle,3.2,-1,Sport,5.12b,1,50,42.74087,-108.83689
"Pangs of Battle","The Knight > Tongue River Canyon > Eastern Big Horns > Wyoming",https://www.mountainproject.com/route/106075276/pangs-of-battle,3.3,-1,Sport,5.12b,1,70,44.8473,-107.33928
Oban,"The Single Malt Wall > Lower Canyon Granite > Cody > Wyoming",https://www.mountainproject.com/route/110063380/oban,3.4,-1,Sport,5.12b,1,50,44.5076,-109.176
"West Face Dihedral","Fremont Peak > Titcomb Basin Area > Wind River Range > Wyoming",https://www.mountainproject.com/route/109272802/west-face-dihedral,3.5,-1,"Trad, Alpine",5.12b,8,1500,43.1202,-109.638
Waterstreak,"Lower Blacktail Butte > Blacktail Butte > Grand Teton National Park > Wyoming",https://www.mountainproject.com/route/105842305/waterstreak,3.1,-1,"Sport, Alpine",5.12b,1,70,43.66101,-110.69665
"Whistling Jupiter","The Vedauwoo Diamond (submitted as Vedavoodoo Boulder) > Vedauwoo > Laramie Area > Wyoming",https://www.mountainproject.com/route/105751873/whistling-jupiter,3.5,-1,Sport,5.12b,1,65,41.16156,-105.3749
"Piston Hurricane","Baldwin Creek > Lander Area > Wyoming",https://www.mountainproject.com/route/106241913/piston-hurricane,3.5,-1,Sport,5.12b,1,70,42.79834,-108.91973
"Heroes and Ghosts","4. Lone Pilgrim > 1. Left Side (Lunarscape, Tribal War, Poker-Face, Lone Pilgrim) > OK Corral > Wild Iris > Lander Area > Wyoming",https://www.mountainproject.com/route/119864867/heroes-and-ghosts,3.2,-1,Sport,5.12b,1,45,42.57481,-108.71685
[Redacted],"Camel Jockey > Sinks Canyon > Lander Area > Wyoming",https://www.mountainproject.com/route/114275588/redacted,3.2,-1,Sport,5.12b,1,60,42.74111,-108.83388
"Spider Pig","The Tunnel Wall > The Island Area > Cody > Wyoming",https://www.mountainproject.com/route/106206874/spider-pig,3.3,-1,Sport,5.12b,3,210,44.50819,-109.17754
"Lakota Gangster Messiah","City of Gold > Ten Sleep Canyon > Wyoming",https://www.mountainproject.com/route/109488229/lakota-gangster-messiah,3.2,-1,Sport,5.12b,1,65,44.12988,-107.23105
"Question Crack Right","Question Wall > Ten Sleep Canyon > Wyoming",https://www.mountainproject.com/route/112163017/question-crack-right,3.3,-1,Sport,5.12b,1,100,44.09938,-107.28795
"When the Levee Breaks","Heavy Metal Rock Band > Shady Side > Sinks Canyon > Lander Area > Wyoming",https://www.mountainproject.com/route/113089811/when-the-levee-breaks,2.8,-1,Sport,5.12b,1,70,42.73506,-108.82392
Siren,"3. Mytho Wall > The Shipyard > Piney Creek Canyon > Eastern Big Horns > Wyoming",https://www.mountainproject.com/route/111955440/siren,3.0,-1,Sport,5.12b,1,50,44.55902,-106.94125
"Hot for Teacher","The School > Shady Side > Sinks Canyon > Lander Area > Wyoming",https://www.mountainproject.com/route/115429705/hot-for-teacher,3.0,-1,Sport,5.12b,2,80,42.73954,-108.81978
"Rapid Fire","Shooting Gallery > Old Road Crags > Ten Sleep Canyon > Wyoming",https://www.mountainproject.com/route/119233620/rapid-fire,3.0,-1,Sport,5.12b,1,100,44.08691,-107.29743
"Came as a Rat","World Domination > Mondo Beyondo > Ten Sleep Canyon > Wyoming",https://www.mountainproject.com/route/106159280/came-as-a-rat,3.0,-1,Sport,5.12b,1,90,44.12848,-107.2577
"Zion train","East Side > Squaretop Boulder > Sinks Canyon > Lander Area > Wyoming",https://www.mountainproject.com/route/107116000/zion-train,2.8,-1,Sport,5.12b,1,30,42.73907,-108.83999
"Spook Eyes","Killer Cave > Sinks Canyon > Lander Area > Wyoming",https://www.mountainproject.com/route/107092600/spook-eyes,2.5,-1,Sport,5.12b,1,60,42.74193,-108.83178
"Purple Reign","(c) East Sector > Rock Springs Buttress > Jackson Hole > Wyoming",https://www.mountainproject.com/route/122947361/purple-reign,3.0,-1,"Sport, Alpine",5.12b,3,350,43.58507,-110.86609
"Special Hoo","Rap Stars Wall > Crag 6 > Ten Sleep Canyon > Wyoming",https://www.mountainproject.com/route/120992595/special-hoo,3.0,-1,Sport,5.12b,1,90,44.1213,-107.19188
"Hot Dog","The Grasshopper Wall > French Cattle Ranch > Ten Sleep Canyon > Wyoming",https://www.mountainproject.com/route/108177900/hot-dog,2.4,-1,Sport,5.12b,1,60,44.14732,-107.2578
"Some Like it Hot","West Face > Devils Tower > Wyoming",https://www.mountainproject.com/route/106895731/some-like-it-hot,3.0,-1,Trad,5.12b,1,80,44.59062,-104.71615
"Lizard Baby","3. Mytho Wall > The Shipyard > Piney Creek Canyon > Eastern Big Horns > Wyoming",https://www.mountainproject.com/route/113567879/lizard-baby,2.7,-1,Sport,5.12b,1,70,44.55902,-106.94125
"Phony Express","F. Rode Hard Wall > The Main Wall > Wild Iris > Lander Area > Wyoming",https://www.mountainproject.com/route/107248151/phony-express,3.0,-1,Sport,5.12b,1,50,42.5845,-108.73338
"Time Traveler","1. Kashmir Area > 3. Fairfield West > Fairfield Hill > Sinks Canyon > Lander Area > Wyoming",https://www.mountainproject.com/route/118807571/time-traveler,3.0,-1,Sport,5.12b,1,,42.73988,-108.85028
"Poker Face","Crazy Woman Cliff > Crazy Woman Crags > Eastern Big Horns > Wyoming",https://www.mountainproject.com/route/117508866/poker-face,3.0,-1,Sport,5.12b,1,70,44.17185,-106.87118
"Vision of a Kiss","2. Fossil Hill Central > Fossil Hill > Lander Area > Wyoming",https://www.mountainproject.com/route/116706052/vision-of-a-kiss,3.0,-1,Sport,5.12b,1,90,42.71338,-108.84756
"Pocket Rocket","2. Munitions Roof > Valhalla > Ten Sleep Canyon > Wyoming",https://www.mountainproject.com/route/106158261/pocket-rocket,2.4,-1,Sport,5.12b,1,90,44.13583,-107.25767
"Captain Video","West Face > Devils Tower > Wyoming",https://www.mountainproject.com/route/122483275/captain-video,3.0,-1,Trad,5.12b,1,110,44.59062,-104.71615
"Slippery People","Hardware Wall > Sinks Canyon > Lander Area > Wyoming",https://www.mountainproject.com/route/122067361/slippery-people,2.5,-1,Sport,5.12b,1,60,42.7406,-108.83824
"Lab Rat on the Run","The Citadel > Sinks Canyon > Lander Area > Wyoming",https://www.mountainproject.com/route/116193941/lab-rat-on-the-run,3.0,-1,Sport,5.12b,1,60,42.74087,-108.83689
"Bring Da Ruckus","7. Back Alley > The Shipyard > Piney Creek Canyon > Eastern Big Horns > Wyoming",https://www.mountainproject.com/route/117131707/bring-da-ruckus,3.0,-1,Sport,5.12b,1,60,44.55966,-106.94258
Ambro-agie,"The Joint > The Granite > Sinks Canyon > Lander Area > Wyoming",https://www.mountainproject.com/route/113868513/ambro-agie,3.0,-1,Sport,5.12b,1,40,42.72912,-108.86395
"Dark Knight","The Knight > Tongue River Canyon > Eastern Big Horns > Wyoming",https://www.mountainproject.com/route/106877761/dark-knight,3.0,-1,Sport,5.12b,1,55,44.8473,-107.33928
Squintch,"The Tunnel Wall > The Island Area > Cody > Wyoming",https://www.mountainproject.com/route/106217636/squintch,2.5,-1,Sport,5.12b,1,50,44.50819,-109.17754
"Flipping Tokens to Hoboken","Grand Teton > Grand Teton National Park > Wyoming",https://www.mountainproject.com/route/122728175/flipping-tokens-to-hoboken,3.0,-1,"Trad, Alpine",5.12b,2,300,43.74092,-110.80253
"New Maps of Hell","Valley Massif > Vedauwoo > Laramie Area > Wyoming",https://www.mountainproject.com/route/122482086/new-maps-of-hell,3.0,-1,Trad,5.12b,1,,41.17325,-105.37667
"South Buttress Prow","Mount Moran > Grand Teton National Park > Wyoming",https://www.mountainproject.com/route/112917929/south-buttress-prow,3.0,-1,"Trad, Alpine",5.12b,10,500,43.835,-110.776
"Spruce Willis","Mock 10 Wall > Aspen Glade > Wild Iris > Lander Area > Wyoming",https://www.mountainproject.com/route/119759560/spruce-willis,3.0,-1,Sport,5.12b,1,90,42.5934,-108.73895
"Genuine Ostrich (3 Payments)","Gneiss Canyon > Laramie River Canyon Rocks > Laramie Peak Wildlife Habitat Management Area > Laramie Range > Wyoming",https://www.mountainproject.com/route/119784454/genuine-ostrich-3-payments,3.0,-1,Sport,5.12b,1,80,41.93555,-105.40571
"Hey Boo-Boo","Lower Remuda > Wild Iris > Lander Area > Wyoming",https://www.mountainproject.com/route/122718261/hey-boo-boo,3.0,-1,Sport,5.12b,1,80,42.59215,-108.73721
Razoreater,"The Joint > The Granite > Sinks Canyon > Lander Area > Wyoming",https://www.mountainproject.com/route/114537122/razoreater,3.0,-1,Sport,5.12b,1,55,42.72912,-108.86395
"Heart of Stone","Snaggletooth > Lucerne Valley > Wyoming",https://www.mountainproject.com/route/116989119/heart-of-stone,3.0,-1,Sport,5.12b,1,40,41.00388,-109.60681
"Slap N' Left","Riverside Wall > Lower Canyon Granite > Cody > Wyoming",https://www.mountainproject.com/route/121766025/slap-n-left,3.0,-1,Sport,5.12b,1,90,44.50724,-109.17639
"Dream of Least Weasels","2. Spooky Tooth Area > 3. Fairfield West > Fairfield Hill > Sinks Canyon > Lander Area > Wyoming",https://www.mountainproject.com/route/116218484/dream-of-least-weasels,3.0,-1,Sport,5.12b,1,40,42.73988,-108.85106
"War Party","White Heat Wall > Sinks Canyon > Lander Area > Wyoming",https://www.mountainproject.com/route/114359855/war-party,3.0,-1,Sport,5.12b,1,65,42.74109,-108.8355
"Smith's Rock free-standing summit","The Blob Buttress and Smith's Rock > Sweetwater Rocks > Wyoming",https://www.mountainproject.com/route/112320938/smiths-rock-free-standing-summit,3.0,-1,Sport,5.12b,4,50,42.47732,-107.52236
Snowflake,"The Single Malt Wall > Lower Canyon Granite > Cody > Wyoming",https://www.mountainproject.com/route/110175208/snowflake,3.0,-1,Sport,5.12b,2,45,44.5076,-109.176
"Remington Special","The Shooting Gallery > Rogers Canyon > Laramie Area > Wyoming",https://www.mountainproject.com/route/123097775/remington-special,3.0,-1,Sport,5.12b,1,25,41.38606,-105.47433
"Certain Damage","The Tunnel Wall > The Island Area > Cody > Wyoming",https://www.mountainproject.com/route/106158083/certain-damage,3.0,-1,Sport,5.12b,1,70,44.50819,-109.17754
"Toothless Grin","The Nugget > Downtown > Ten Sleep Canyon > Wyoming",https://www.mountainproject.com/route/107059876/toothless-grin,3.0,-1,Sport,5.12b,1,55,44.1387,-107.245
"Rapid Fire","Baldwin Creek > Lander Area > Wyoming",https://www.mountainproject.com/route/123432248/rapid-fire,3.0,-1,Sport,5.12b,1,70,42.79834,-108.91973
Snowblind,"The Aspen Glade > Aspen Glade > Wild Iris > Lander Area > Wyoming",https://www.mountainproject.com/route/113343615/snowblind,2.6,-1,Sport,5.12b,1,35,42.5925,-108.7434
"Lander Here","The Blue Marble Wall > 4 Stories Snowy Range Sport Climbing Area > Snowy Range > Laramie Area > Wyoming",https://www.mountainproject.com/route/108209322/lander-here,2.8,-1,Sport,5.12b,1,55,41.258,-106.4126
"Sleeping Thunder","G. Cowboy Poetry > The Main Wall > Wild Iris > Lander Area > Wyoming",https://www.mountainproject.com/route/105862071/sleeping-thunder,2.8,-1,Sport,5.12b,1,70,42.58494,-108.73151
"Night Goat","Heavy Metal Rock Band > Shady Side > Sinks Canyon > Lander Area > Wyoming",https://www.mountainproject.com/route/114968349/night-goat,2.6,-1,Sport,5.12b,1,60,42.73506,-108.82392
"Western Hoedown","3. Saddle Tramp > 2. Central (Blooming Rose, Claim Jumper, Saddle Tramp) > OK Corral > Wild Iris > Lander Area > Wyoming",https://www.mountainproject.com/route/117716299/western-hoedown,2.6,-1,Sport,5.12b,1,35,42.57363,-108.71527
"Cool Whip","The School > Shady Side > Sinks Canyon > Lander Area > Wyoming",https://www.mountainproject.com/route/115429744/cool-whip,2.7,-1,Sport,5.12b,1,60,42.73954,-108.81978
"Wide Awake Zombie","The Citadel > Sinks Canyon > Lander Area > Wyoming",https://www.mountainproject.com/route/113809982/wide-awake-zombie,3.3,-1,Sport,5.12b,1,75,42.74087,-108.83689
Titanic,"The Icebergs > Old Road Crags > Ten Sleep Canyon > Wyoming",https://www.mountainproject.com/route/111052366/titanic,2.2,-1,Sport,5.12b,1,30,44.08869,-107.29397
"Steel Rain","Camel Jockey > Sinks Canyon > Lander Area > Wyoming",https://www.mountainproject.com/route/114039689/steel-rain,2.4,-1,Sport,5.12b,1,40,42.74111,-108.83388
"The Rustler's Cache","A. Rising From the Plains > The Main Wall > Wild Iris > Lander Area > Wyoming",https://www.mountainproject.com/route/111193665/the-rustlers-cache,2.4,-1,Sport,5.12b,1,40,42.5851,-108.7375
Unknown,"4. House Wall > Valhalla > Ten Sleep Canyon > Wyoming",https://www.mountainproject.com/route/117124164/unknown,2.5,-1,Sport,5.12b,2,80,44.13972,-107.25793
"Weasels Ripped My Flesh","2. Spooky Tooth Area > 3. Fairfield West > Fairfield Hill > Sinks Canyon > Lander Area > Wyoming",https://www.mountainproject.com/route/106786413/weasels-ripped-my-flesh,2.5,-1,Sport,5.12b,1,35,42.73988,-108.85106
"Captain Maximus","1. Nautilus Area > The Shipyard > Piney Creek Canyon > Eastern Big Horns > Wyoming",https://www.mountainproject.com/route/119620866/captain-maximus,2.5,-1,Sport,5.12b,1,50,44.55811,-106.94018
Consumption,"White Heat Wall > Sinks Canyon > Lander Area > Wyoming",https://www.mountainproject.com/route/114359865/consumption,3.0,-1,Sport,5.12b,1,65,42.74109,-108.8355
"Bag of Bullets","The College > Green River > Wyoming",https://www.mountainproject.com/route/113700954/bag-of-bullets,2.5,-1,Sport,5.12b,1,50,41.49531,-109.46686
"Leslie's Arete","3. The Marxism Wall > 1. Fairfield East > Fairfield Hill > Sinks Canyon > Lander Area > Wyoming",https://www.mountainproject.com/route/107003091/leslies-arete,2.5,-1,Sport,5.12b,1,30,42.74066,-108.84522
Empire,"The Sanctuary > The Granite > Sinks Canyon > Lander Area > Wyoming",https://www.mountainproject.com/route/106132541/empire,3.0,-1,Sport,5.12b,1,70,42.7275,-108.86534
"Alley Cat Aggression","The Citadel > Sinks Canyon > Lander Area > Wyoming",https://www.mountainproject.com/route/116193907/alley-cat-aggression,2.5,-1,Sport,5.12b,1,60,42.74087,-108.83689
"When Chivalry Fails...","The Knight > Tongue River Canyon > Eastern Big Horns > Wyoming",https://www.mountainproject.com/route/106075262/when-chivalry-fails,2.5,-1,Sport,5.12b,1,90,44.8473,-107.33928
"Burly Binkie","Zorro Area > Wild Iris > Lander Area > Wyoming",https://www.mountainproject.com/route/119525723/burly-binkie,2.0,-1,Sport,5.12b,1,45,42.5797,-108.7168
"Stone Jack Baller","John Henry Grotto > Downtown > Ten Sleep Canyon > Wyoming",https://www.mountainproject.com/route/122983037/stone-jack-baller,2.0,-1,Sport,5.12b,1,,44.1387,-107.245
"Get Wacky","The Joint > The Granite > Sinks Canyon > Lander Area > Wyoming",https://www.mountainproject.com/route/113894701/get-wacky,2.3,-1,Sport,5.12b,1,40,42.72912,-108.86395
"Cloud Calling","Happy Wheel Wall > Sinks Canyon > Lander Area > Wyoming",https://www.mountainproject.com/route/108358712/cloud-calling,2.0,-1,Sport,5.12b,1,40,42.73907,-108.83038
"Cool Beans","Lower Remuda > Wild Iris > Lander Area > Wyoming",https://www.mountainproject.com/route/113331204/cool-beans,1.9,-1,Sport,5.12b,1,55,42.59215,-108.73721
"Gleaming the Cube","The Toaster Wall > Laramie Peak Wildlife Habitat Management Area > Laramie Range > Wyoming",https://www.mountainproject.com/route/114482867/gleaming-the-cube,2.0,-1,Sport,5.12b,1,50,41.96419,-105.3702
"Berserk Osama","World Domination > Mondo Beyondo > Ten Sleep Canyon > Wyoming",https://www.mountainproject.com/route/109372159/berserk-osama,2.0,-1,Sport,5.12b,1,90,44.12848,-107.2577
"Raining Ice Picks","Rusty Cage > Mondo Beyondo > Ten Sleep Canyon > Wyoming",https://www.mountainproject.com/route/108194818/raining-ice-picks,2.0,-1,Sport,5.12b,1,50,44.13192,-107.25715
"The Rift","The Joint > The Granite > Sinks Canyon > Lander Area > Wyoming",https://www.mountainproject.com/route/107620817/the-rift,2.7,-1,Sport,5.12b,1,45,42.72912,-108.86395
"Tidy Bowl Man","Douglas Park > The Book Pages Mound > Southwest Ridge of Reese Mtn > Reese Mountain > Laramie Peak Wildlife Habitat Management Area > Laramie Range > Wyoming",https://www.mountainproject.com/route/107482285/tidy-bowl-man,2.0,-1,Sport,5.12b,1,100,42.0059,-105.3712
"Arapiles Revisited","Sandstone Buttress > The Sandstone > Sinks Canyon > Lander Area > Wyoming",https://www.mountainproject.com/route/118706585/arapiles-revisited,2.0,-1,Sport,"5.12b PG13",1,50,42.75846,-108.79839
"Weapons of Moss Destruction","Heavy Metal Rock Band > Shady Side > Sinks Canyon > Lander Area > Wyoming",https://www.mountainproject.com/route/115154081/weapons-of-moss-destruction,2.0,-1,Sport,5.12b,1,40,42.73506,-108.82392
"Dolemite Is My Name","Rendezvous Mountain North Face > Jackson Hole Mountain Resort > Jackson Hole > Wyoming",https://www.mountainproject.com/route/121218967/dolemite-is-my-name,2.0,-1,"Trad, Alpine",5.12b,1,70,43.59684,-110.86758
"Electric Fence","3. Best God in Show Area > 2. Fairfield Central > Fairfield Hill > Sinks Canyon > Lander Area > Wyoming",https://www.mountainproject.com/route/116194880/electric-fence,2.0,-1,Sport,5.12b,1,70,42.73985,-108.84893
"King of Fools","2. Fossil Hill Central > Fossil Hill > Lander Area > Wyoming",https://www.mountainproject.com/route/114397507/king-of-fools,2.0,-1,Sport,5.12b,1,70,42.71338,-108.84756
Refridgearete,"Lost Wall > Ten Sleep Canyon > Wyoming",https://www.mountainproject.com/route/117585078/refridgearete,2.0,-1,Sport,5.12b,1,,44.14257,-107.23303
"Urine Luck","Rusty Cage > Mondo Beyondo > Ten Sleep Canyon > Wyoming",https://www.mountainproject.com/route/121221553/urine-luck,2.5,-1,Sport,5.12b,1,50,44.13192,-107.25715
"Wham Moe","Camel Jockey > Sinks Canyon > Lander Area > Wyoming",https://www.mountainproject.com/route/114362925/wham-moe,2.0,-1,Sport,5.12b,1,65,42.74111,-108.83388
"411 Southwest","West Face > Devils Tower > Wyoming",https://www.mountainproject.com/route/107648487/411-southwest,2.0,-1,Trad,5.12b,1,150,44.59062,-104.71615
"The Second Amendment","The Shooting Gallery > Rogers Canyon > Laramie Area > Wyoming",https://www.mountainproject.com/route/123054371/the-second-amendment,2.0,-1,Sport,5.12b,1,30,41.38606,-105.47433
"Under the Influence","Upper Psychoactive Wall > Leigh Creek > Old Road Crags > Ten Sleep Canyon > Wyoming",https://www.mountainproject.com/route/108332994/under-the-influence,2.0,-1,Sport,5.12b,1,95,44.08095,-107.30567
"Oh Two","John Henry Grotto > Downtown > Ten Sleep Canyon > Wyoming",https://www.mountainproject.com/route/107779391/oh-two,2.0,-1,Sport,5.12b,1,80,44.1387,-107.245
"Baby Cham Brings The Heat !","(b) Central Sector > Rock Springs Buttress > Jackson Hole > Wyoming",https://www.mountainproject.com/route/109447387/baby-cham-brings-the-heat,2.0,-1,"Sport, Alpine",5.12b,1,100,43.58617,-110.86846
"Ultra Venus","The Dark Side > Rogers Canyon > Laramie Area > Wyoming",https://www.mountainproject.com/route/123709397/ultra-venus,2.0,-1,Sport,5.12b,1,35,41.38693,-105.47874
"Mickey and Mallory","His and Hers Wall > Lake Point > Ten Sleep Canyon > Wyoming",https://www.mountainproject.com/route/124495465/mickey-and-mallory,3.0,-1,Sport,5.12b,1,50,44.15692,-107.23337
"Anarcho-Syndicalist Commune","I Am Your King Wall > Wild Iris > Lander Area > Wyoming",https://www.mountainproject.com/route/124606961/anarcho-syndicalist-commune,2.0,-1,Sport,5.12b,1,30,42.60261,-108.75231
Narcos,"Netflix > Old Road Crags > Ten Sleep Canyon > Wyoming",https://www.mountainproject.com/route/124679699/narcos,3.0,-1,Sport,5.12b,1,,44.08652,-107.30469
"You Can't Swede a Swede","Dorkodrom > Ten Sleep Canyon > Wyoming",https://www.mountainproject.com/route/124679978/you-cant-swede-a-swede,4.0,-1,Sport,5.12b,1,,44.14639,-107.23379
"Potassium Powerpump","Precious Metal Wall (Upper Middle) > Periodic Table > Swift Creek Canyon > Jackson Hole > Wyoming",https://www.mountainproject.com/route/124758935/potassium-powerpump,3.7,-1,Sport,5.12b,1,60,42.74456,-110.84778
"Spatial Frequency","Wavelength Wall > Periodic Table > Swift Creek Canyon > Jackson Hole > Wyoming",https://www.mountainproject.com/route/125000030/spatial-frequency,3.0,-1,Sport,5.12b,1,100,42.7454,-110.84781
